%time,field.header.seq,field.header.stamp,field.pose.pose.position.x,field.pose.pose.position.y,field.pose.pose.position.z,field.pose.pose.orientation.x,field.pose.pose.orientation.y,field.pose.pose.orientation.z,field.pose.pose.orientation.w,field.twist.twist.linear.x,field.twist.twist.linear.y,field.twist.twist.linear.z,field.twist.twist.angular.x,field.twist.twist.angular.y,field.twist.twist.angular.z
1609059018271770954,15,1609059018271770954,-0.026051219584,0.0241906205327,-0.00456958290311,0.999047892203,-0.000396943777263,0.0436248348937,0.000159061808365,-0.00646466790546,0.0130683921061,-0.00682614526416,0.0,0.0,0.0
1609059018471908092,16,1609059018471908092,-0.0260345956702,0.0255800577972,-0.00289048713383,0.999046754505,-0.000475185733531,0.0436501712974,0.000138046387815,-0.00598988912586,0.0130746981398,-0.00519751258083,0.0,0.0,0.0
1609059018671940088,17,1609059018671940088,-0.0244160115094,0.0230107363748,-0.00282595129779,0.999046862761,-0.000359665486524,0.0436489595402,7.05624776338e-05,-0.0058687822694,0.0131015134504,-0.00594725330895,0.0,0.0,0.0
1609059018872046947,18,1609059018872046947,-0.0227985744657,0.0214598860829,-0.00265583477064,0.999047997524,-0.000363380711615,0.0436229657275,5.88061402098e-05,-0.00545399346708,0.0108970997134,-0.00497402935352,0.0,0.0,0.0
1609059019072096109,19,1609059019072096109,-0.0219337027997,0.0203455845669,-0.0024364193271,0.999046905969,-0.000317724192359,0.0436483511072,1.31033713578e-05,-0.00460219712594,0.0106102701211,-0.00465852696612,0.0,0.0,0.0
1609059019272130013,20,1609059019272130013,-0.0196759630876,0.017373068762,-0.00213642753904,0.999050145113,-0.000269807782205,0.0435744675933,-2.29854053886e-05,-0.00339044774348,0.00782060521105,-0.00389080175413,0.0,0.0,0.0
1609059019472157001,21,1609059019472157001,-0.018371738874,0.0154711291709,-0.00240837183591,0.999048374839,-0.000240452102278,0.0436151784173,-5.59074917181e-05,-0.00264820193262,0.00620325649009,-0.00431895500977,0.0,0.0,0.0
1609059019672303915,22,1609059019672303915,-0.0186588196789,0.0157848483032,-0.00323934730717,0.999050852501,-0.000221464058243,0.0435584662835,-7.13104310232e-05,-0.00290021954485,0.00632758897868,-0.00442167553834,0.0,0.0,0.0
1609059019872735977,23,1609059019872735977,-0.0203312016578,0.0186079660711,-0.00424618315634,0.999049442573,-0.00028423446308,0.0435904286457,-7.09676126755e-05,-0.00309667861391,0.00791538862782,-0.0044332375344,0.0,0.0,0.0
1609059020073446035,24,1609059020073446035,-0.020964592463,0.0196975665722,-0.00502295079198,0.999048107416,-0.000329038439916,0.0436207382698,-4.46591778663e-05,-0.00260672887433,0.00798850100836,-0.00529500931378,0.0,0.0,0.0
1609059020272588968,25,1609059020272588968,-0.0212364136403,0.0202033353323,-0.00566608925411,0.999046614661,-0.00032094550612,0.0436549876182,-2.79955980663e-05,-0.00332321857285,0.00706661400481,-0.00481931020969,0.0,0.0,0.0
1609059020472861052,26,1609059020472861052,-0.0147921666453,0.00955803827603,-0.00315743630086,0.999047626758,-5.45236439426e-05,0.0436328487013,-0.000104927613965,-0.00101422736975,0.00296562810628,-0.00376965040539,0.0,0.0,0.0
1609059020673491001,27,1609059020673491001,-0.0105389265657,0.00706386190365,0.00218296304342,0.999053111044,1.46022523477e-05,0.0435069335436,-0.000166834447245,-8.95922780046e-05,0.000638998083911,-0.000769415416543,0.0,0.0,0.0
1609059020872718096,28,1609059020872718096,-0.0117751214159,0.00925123275271,0.000474264393614,0.999039835864,-7.4315185022e-05,0.0438102785955,0.000245606619165,-0.00505713015362,0.00739587414797,-0.0023364108268,0.0,0.0,0.0
1609059021072757006,29,1609059021072757006,-0.0110087958119,0.00717100652322,0.00028360823462,0.999047633033,2.4295593765e-05,0.043632530485,-0.000169187644114,-0.000689690983289,0.000882191772933,-0.00245215528064,0.0,0.0,0.0
1609059021272761106,30,1609059021272761106,-0.0119583294423,0.00651572648587,0.000243807558707,0.999047302827,2.36896772197e-05,0.0436398529949,-0.000222223278721,-0.00135576735521,-0.000906551732282,-0.00105789844967,0.0,0.0,0.0
1609059021472940922,31,1609059021472940922,-0.0118201700075,0.0064915101325,0.000757801884126,0.999045722488,1.01225119382e-05,0.04367571656,-0.000275787524257,-0.000524329307093,-0.000611456956762,-0.000751454103123,0.0,0.0,0.0
1609059021672883987,32,1609059021672883987,-0.0122854471203,0.00679479369319,-0.000412056626569,0.999046192401,2.51601004174e-05,0.0436653403733,-0.000207042626133,-0.00109374290559,0.000673649844811,-0.00242576986832,0.0,0.0,0.0
1609059021873051882,33,1609059021873051882,-0.0120162368,0.00718823475851,-7.15532249668e-05,0.999045526149,-7.60984563934e-06,0.0436803882681,-0.0002455686367,-0.0020753282234,0.00197327669184,-0.000909824319804,0.0,0.0,0.0
1609059022073100090,34,1609059022073100090,-0.0122565574697,0.00735028895476,0.000159858738932,0.999045922498,5.07305038003e-06,0.0436711592361,-0.000273067667494,-0.00190652812357,0.00263866038587,-0.00170397397505,0.0,0.0,0.0
1609059022273014069,35,1609059022273014069,-0.0126262063974,0.00740168650873,-5.52684762442e-05,0.999045871016,-3.89152058584e-06,0.0436723134883,-0.000276812455043,-0.00278082274474,0.0021921077779,-0.000437420791445,0.0,0.0,0.0
1609059022473150969,36,1609059022473150969,-0.0134553660718,0.00705217916232,-0.000116204068854,0.999044767789,-1.37256140762e-05,0.043697638617,-0.000261045109225,-0.00292869625155,0.00156343296893,-0.000443724963058,0.0,0.0,0.0
1609059022673171997,37,1609059022673171997,-0.0139034801143,0.00705378189802,-0.000257243112237,0.999046025726,-2.67608102219e-05,0.0436687654454,-0.000276929352638,-0.00255884254598,0.00139337086216,-0.00109567911084,0.0,0.0,0.0
1609059022873235941,38,1609059022873235941,-0.0147785609165,0.007097051185,-0.000871215372094,0.999043385177,-3.14985090295e-05,0.043729087276,-0.000283669121442,-0.0037119422104,0.00120093720494,-0.00181699170927,0.0,0.0,0.0
1609059023073312044,39,1609059023073312044,-0.0163626156183,0.00916377389805,-0.00243852005944,0.999031640923,-4.87930397584e-05,0.0439971965551,0.000157318369329,-0.00762460819289,0.00735633747056,-0.0034311307968,0.0,0.0,0.0
1609059023273448944,40,1609059023273448944,-0.0157601302554,0.00740035256693,-0.00105838491243,0.999042584127,-5.43597404548e-05,0.0437471179026,-0.000319092962211,-0.00424557037884,0.000155739742814,-0.00170254262102,0.0,0.0,0.0
1609059023473382950,41,1609059023473382950,-0.0144887624102,0.00646139701977,0.00139179032219,0.999043213386,-5.51491184459e-05,0.0437332184876,-0.000245657343415,-0.00186506979706,-0.00106086096386,-0.000620743049878,0.0,0.0,0.0
1609059023673475027,42,1609059023673475027,-0.0182124706074,0.00662976423988,-0.000389319331353,0.999040343542,-8.67255412629e-05,0.0437984218185,-0.000287578335431,-0.00573833690807,-0.000311862282191,-0.000625816149198,0.0,0.0,0.0
1609059023873682022,43,1609059023873682022,-0.0150174190304,0.0062294313548,0.00132699009357,0.999041003171,-1.24978195659e-06,0.0437838932117,-0.000211368550773,-0.00348201849322,-0.000111110376561,0.00109606817347,0.0,0.0,0.0
1609059024073856115,44,1609059024073856115,-0.0153335324494,0.00657388997432,-0.00209992249938,0.999027417312,-2.05001560666e-05,0.044093283269,3.75329290541e-05,-0.00549383942034,0.00138507673683,-0.00240647890597,0.0,0.0,0.0
1609059024273624897,45,1609059024273624897,-0.0162073492327,0.00610592136069,0.000621626053257,0.999036290001,-4.28720240929e-05,0.0438913732412,-0.000191775486924,-0.006022163517,-0.000101049782339,0.00111999861212,0.0,0.0,0.0
1609059024473727942,46,1609059024473727942,-0.0127031461429,0.00635151333817,0.00129616613688,0.999037727051,-7.56672953556e-05,0.0438586039306,-0.000192522707233,-0.0028903870549,-0.000530639531598,-0.000230355075026,0.0,0.0,0.0
1609059024673736095,47,1609059024673736095,-0.0143616568667,0.00605681274689,0.000873895651801,0.999036525065,-7.5010116914e-05,0.0438859084233,-0.000207365777883,-0.00538832846337,-0.00111462214798,-0.000875018722217,0.0,0.0,0.0
1609059024873867989,48,1609059024873867989,-0.0161165887978,0.00511459258798,0.00109035994368,0.999033743346,-9.104538914e-05,0.0439494017923,-0.0001464571154,-0.00544558790679,-0.00205489704467,-0.000973240793727,0.0,0.0,0.0
1609059025073939085,49,1609059025073939085,-0.0169111915136,0.00522990976496,0.00027488777635,0.99902337884,-0.000164420011071,0.0441842922123,9.90888002594e-05,-0.00697805017296,-0.00109596639485,-0.00180347765114,0.0,0.0,0.0
1609059025273986101,50,1609059025273986101,-0.0197132062345,0.00443869154581,0.000322455696305,0.999029499042,-0.000123108880913,0.0440458940091,-6.41031963963e-05,-0.00781593111101,-0.00262033879107,-0.00116660944472,0.0,0.0,0.0
1609059025474143028,51,1609059025474143028,-0.0185994997801,0.00368816099134,0.00114827653866,0.999031339694,-0.000104640785043,0.0440040919872,-0.000106055349197,-0.00569510299169,-0.0020180201089,0.00064269800802,0.0,0.0,0.0
1609059025674135923,52,1609059025674135923,-0.0211937614938,0.00340381575142,0.000562172491664,0.99903053245,-0.000153452669708,0.0440222904259,-9.81404055216e-05,-0.00806771273271,-0.00184628128223,8.72114227013e-05,0.0,0.0,0.0
1609059025874128103,53,1609059025874128103,-0.020627195626,0.0047642917621,-3.68421040365e-05,0.999016962577,-0.000245305238331,0.0443288129633,6.818559262e-05,-0.0081028082607,-0.000791511280473,-2.2286476047e-05,0.0,0.0,0.0
1609059026074187040,54,1609059026074187040,-0.0240991532085,0.00296355504169,0.000473401218877,0.999028851275,-0.000170033885,0.0440603647609,-9.831868723e-05,-0.00968316778126,-0.00223527968325,0.00157442472936,0.0,0.0,0.0
1609059026274285078,55,1609059026274285078,-0.0242164887244,0.00437318135493,0.00022531971477,0.999024865757,-0.000202188993414,0.0441505547511,-7.23520194606e-05,-0.00971879295962,7.75813095851e-05,0.00162210945186,0.0,0.0,0.0
1609059026474644899,56,1609059026474644899,-0.0246145078504,0.00364175735712,3.94745149833e-05,0.999025503739,-0.000101660243967,0.0441360673437,-0.000200256771014,-0.00927045260744,-8.88822108976e-05,0.00163560848967,0.0,0.0,0.0
1609059026674398899,57,1609059026674398899,-0.0293975077144,0.00471679319661,-3.61055786219e-05,0.999024398216,-0.000140038561262,0.044161278067,-0.000116955643372,-0.0132116407378,0.0012415667138,0.00169599473458,0.0,0.0,0.0
1609059026874417067,58,1609059026874417067,-0.0255923249078,0.00784632877253,-0.00194867176525,0.999009959031,-0.000301769890668,0.0444857881275,0.000159204304785,-0.0120537353471,0.00393901648294,-0.00038606552621,0.0,0.0,0.0
1609059027074523926,59,1609059027074523926,-0.0354700980376,0.00735471205343,-0.00144252099858,0.999022911185,-0.000148322465568,0.0441949142957,-0.000102367074444,-0.0171339432279,0.00404292010247,-0.000246242939753,0.0,0.0,0.0
1609059027274684906,60,1609059027274684906,-0.0382052919883,0.0109034120394,-0.004295307391,0.999017541842,-0.000220458016703,0.0443158891543,-6.67695783398e-05,-0.0192902648781,0.00652404244916,-0.0016000958316,0.0,0.0,0.0
1609059027474709034,61,1609059027474709034,-0.0426864039659,0.0127739956984,-0.00798995057475,0.999015718817,-0.000173032821364,0.0443570813889,-0.00011378839784,-0.0219891773064,0.00734792033775,-0.00380031215086,0.0,0.0,0.0
1609059027674704075,62,1609059027674704075,-0.0237940012804,0.0038988629573,-0.0018338225832,0.999018343033,-9.58762453957e-05,0.0442981699215,-0.000115031428876,-0.00847680982837,0.000123440123759,0.000402024337494,0.0,0.0,0.0
1609059027874780893,63,1609059027874780893,-0.0407004362101,0.0116833790849,-0.00690038143867,0.999013582784,-0.000206112348659,0.0444048834994,-0.000158908961403,-0.0193469314335,0.00530153733617,-0.00219054417635,0.0,0.0,0.0
1609059028074928045,64,1609059028074928045,-0.0597174292666,0.0236516414305,-0.00924145522065,0.999012129401,-0.000277341032333,0.0444374419461,-4.63072637725e-05,-0.0305630610955,0.013493133886,-0.00306953235427,0.0,0.0,0.0
1609059028274853945,65,1609059028274853945,-0.0627898642869,0.025466792993,-0.00930472921601,0.99900739792,-0.000239942914945,0.0445438901875,-5.63524789226e-05,-0.0320796833966,0.0129055685107,-0.00280648720055,0.0,0.0,0.0
1609059028475009918,66,1609059028475009918,-0.0441605351282,0.0171381870349,-0.0110243978589,0.999006106412,-0.000245010667982,0.0445728322392,-4.41292433327e-05,-0.0205180583656,0.00512758752141,-0.00418554490868,0.0,0.0,0.0
1609059028675101042,67,1609059028675101042,-0.0806609549091,0.0335991446187,-0.00842736390133,0.99900655408,-0.000257970106813,0.0445627450901,-1.02945259119e-05,-0.0418077560006,0.0168264469204,-0.0012127308828,0.0,0.0,0.0
1609059028875170946,68,1609059028875170946,-0.0869178791181,0.0352243827974,-0.00703133631745,0.999002959074,-0.000281062082944,0.0446431262381,6.75566044512e-06,-0.0431146744412,0.0159160467875,-0.000126074350398,0.0,0.0,0.0
1609059029075200081,69,1609059029075200081,-0.0861112607254,0.0329848174395,-0.0104898776616,0.99900325007,-0.00026060948222,0.0446367287423,2.964194983e-05,-0.0408926903005,0.0121233073377,-0.0015714463785,0.0,0.0,0.0
1609059029275279045,70,1609059029275279045,-0.0589922140279,0.0216626167737,-0.0180856900326,0.998997778982,-0.000290827949774,0.0447588246372,2.4991186525e-05,-0.0236950700112,0.0051684579076,-0.00630423621767,0.0,0.0,0.0
1609059029475378990,71,1609059029475378990,-0.110486560357,0.0445513975617,-0.0103201087549,0.999001349758,-0.000343876194769,0.0446786216494,7.54866213899e-05,-0.052149477238,0.019449023245,0.00047551921115,0.0,0.0,0.0
1609059029675944090,72,1609059029675944090,-0.117611752504,0.0476435676336,-0.0094804445537,0.998998439477,-0.000386405100099,0.0447431305127,0.0001445197241,-0.0544397727147,0.0207125031504,0.00151875709197,0.0,0.0,0.0
1609059029875444889,73,1609059029875444889,-0.0629312308182,0.012826525803,-0.0109765144427,0.999010928054,-0.000142992444208,0.0444642659164,-0.000272465497759,-0.0206533198969,-0.003544329952,0.000244905920381,0.0,0.0,0.0
1609059030075499058,74,1609059030075499058,-0.134530545993,0.0546651069463,-0.00877391018488,0.998997015558,-0.000443084217714,0.0447743598141,0.000152594669051,-0.0587161692574,0.0237256287099,0.00156026114866,0.0,0.0,0.0
1609059030275567055,75,1609059030275567055,-0.0643625304489,0.025084483014,-0.0171535459324,0.998994114769,-0.000373274421431,0.0448399040381,4.825862609e-05,-0.019870726642,0.00390380330505,-0.00452474912795,0.0,0.0,0.0
1609059030475707054,76,1609059030475707054,-0.148618776338,0.059027329674,-0.00620478699302,0.998996897506,-0.000516679123744,0.0447763926021,8.05113898318e-05,-0.0609292034829,0.0227152459109,0.0014421536827,0.0,0.0,0.0
1609059030675632000,77,1609059030675632000,-0.15432712644,0.0650851841681,-0.00437594146239,0.998992358028,-0.000600257810691,0.0448763690434,0.000140688067549,-0.0628379366519,0.0249951071749,0.00240272110965,0.0,0.0,0.0
1609059030875981092,78,1609059030875981092,-0.154020122966,0.0666710666289,-0.00831243407835,0.998990974698,-0.000625739803381,0.044906731671,0.000162394202983,-0.0598042003367,0.0251367188139,-0.000291957385322,0.0,0.0,0.0
1609059031075764894,79,1609059031075764894,-0.177116313993,0.077004260385,-0.00721891415239,0.998991750082,-0.00068059823143,0.0448883924847,0.000228637209474,-0.0703368681235,0.0299647179926,0.0027673740887,0.0,0.0,0.0
1609059031275943995,80,1609059031275943995,-0.0824607787345,0.0359555176417,-0.0204612698216,0.998993406483,-0.000451038770949,0.044854940705,6.82848975677e-05,-0.0208658776777,0.0056698378019,-0.00512502906397,0.0,0.0,0.0
1609059031476038933,81,1609059031476038933,-0.194653769566,0.0846062759435,-0.00808522405685,0.998988741547,-0.000725294872235,0.0449546051522,0.000227341884107,-0.0728678412504,0.0314890585224,0.00148597410869,0.0,0.0,0.0
1609059031676435947,82,1609059031676435947,-0.192441046022,0.0848830396061,-0.0107408596349,0.998983288712,-0.000746963498579,0.045075087901,0.00025955712809,-0.0709161747076,0.0300227575621,-0.000519500574441,0.0,0.0,0.0
1609059031876065969,83,1609059031876065969,-0.18895246455,0.0819266875695,-0.0122687956479,0.998984432653,-0.000720036697132,0.0450503312123,0.000229175035402,-0.0669043825238,0.0276146488171,-0.00233314195766,0.0,0.0,0.0
1609059032076347113,84,1609059032076347113,-0.218309449886,0.0921723660712,-0.0100934186127,0.998984205056,-0.000815512414795,0.0450536368378,0.000250592736006,-0.0787591810967,0.030871044224,0.000885701225781,0.0,0.0,0.0
1609059032276184082,85,1609059032276184082,-0.0983480595786,0.0438250523021,-0.0222739843333,0.998990022622,-0.000568588799857,0.0449289543935,2.15651786874e-05,-0.0185401058762,0.00473266249588,-0.00532516194747,0.0,0.0,0.0
1609059032476360083,86,1609059032476360083,-0.234013687372,0.097517910096,-0.00808016183908,0.998983674798,-0.000842110303222,0.0450649713442,0.000238109075465,-0.0790389897201,0.0317012990005,0.00225965884772,0.0,0.0,0.0
1609059032677613020,87,1609059032677613020,-0.208232563161,0.0937751941887,-0.0137506149631,0.998978522447,-0.000879605190288,0.0451784060719,0.000222732237955,-0.0671306092091,0.03111516639,0.00056800538249,0.0,0.0,0.0
1609059032876563072,88,1609059032876563072,-0.242204316908,0.106085613093,-0.00742614595737,0.998977737687,-0.000891171387188,0.0451956750639,0.000190721559196,-0.07836216807,0.0357674161823,0.00288488569925,0.0,0.0,0.0
1609059033076404095,89,1609059033076404095,-0.217065956013,0.0983871177396,-0.00936203457111,0.998978824855,-0.000781973196042,0.0451740185271,6.37077304003e-05,-0.06667244774,0.0307109577462,0.00222855430194,0.0,0.0,0.0
1609059033276807070,90,1609059033276807070,-0.12062977017,0.0582908108054,-0.0186665851263,0.998979570375,-0.000627366553978,0.0451599360223,-6.75487911727e-05,-0.0208670361501,0.00937975047918,-0.00238817461554,0.0,0.0,0.0
1609059033476558924,91,1609059033476558924,-0.235938612788,0.107301784448,-0.00459414298228,0.998978610083,-0.00086954754023,0.0451771990863,3.41644144224e-05,-0.0717226835852,0.0342914356119,0.00504163572767,0.0,0.0,0.0
1609059033677114010,92,1609059033677114010,-0.214713173496,0.0973603017259,-0.00571977996745,0.998974131249,-0.000759617432276,0.0452780365746,-8.64850464585e-05,-0.0617324162852,0.0272918314315,0.00442357182442,0.0,0.0,0.0
1609059033876969099,93,1609059033876969099,-0.254804168978,0.111083385071,-0.000343463087717,0.998972105018,-0.000878780792589,0.04532051854,-0.000108351766074,-0.076349515908,0.0323481530762,0.00686700204394,0.0,0.0,0.0
1609059034076716900,94,1609059034076716900,-0.228294642504,0.0997323877779,-0.000607494620511,0.998974581311,-0.000757765272824,0.045267583379,-0.000239960193025,-0.0631482498485,0.0235761437152,0.00724701788426,0.0,0.0,0.0
1609059034277013063,95,1609059034277013063,-0.263321672669,0.115955369325,0.00550307749002,0.99896993387,-0.000876095954134,0.0453679654134,-0.000226702728253,-0.0745667129402,0.0311224254055,0.00942278131945,0.0,0.0,0.0
1609059034476875067,96,1609059034476875067,-0.129069714691,0.0735336033829,-0.00898968542398,0.998983569291,-0.000592366818075,0.0450705918366,-0.000345164840479,-0.0119292604272,0.0080232905579,0.00183678861997,0.0,0.0,0.0
1609059034678299904,97,1609059034678299904,-0.267393916178,0.119542316109,0.0117549153406,0.998971889953,-0.000847629128485,0.0453246315462,-0.00034983371603,-0.0702759823101,0.0311818379739,0.010357029389,0.0,0.0,0.0
1609059034877094984,98,1609059034877094984,-0.239235992572,0.108839521778,0.00916067919286,0.998975870993,-0.000722429700433,0.0452376342318,-0.000493678697527,-0.0547211735565,0.0234959397314,0.00646217022845,0.0,0.0,0.0
1609059035078483105,99,1609059035078483105,-0.240965780945,0.106688190177,0.014008904697,0.998977516507,-0.000691289801696,0.0452002120647,-0.000620050013336,-0.0537679900275,0.0223455880698,0.00949578240257,0.0,0.0,0.0
1609059035277538061,100,1609059035277538061,-0.154929435175,0.0900154531274,0.000900659737831,0.998976268592,-0.000619189025875,0.0452291844083,-0.000593526104038,-0.0109947140142,0.0129066965361,0.000251151028514,0.0,0.0,0.0
1609059035477147102,101,1609059035477147102,-0.261885176114,0.117053320814,0.020197266064,0.998976372207,-0.000734102390536,0.0452232259914,-0.000727115804446,-0.058109799214,0.0276410025515,0.0117557022524,0.0,0.0,0.0
1609059035677226067,102,1609059035677226067,-0.265184569173,0.118770216136,0.0180098543827,0.998970583371,-0.000781399898195,0.0453487337328,-0.000809519721635,-0.0590836444263,0.0264265078865,0.0108856020993,0.0,0.0,0.0
1609059035877384901,103,1609059035877384901,-0.242986004233,0.116200963692,0.0104230709815,0.998970559354,-0.000774356615635,0.045347565635,-0.00090565287128,-0.045741192669,0.0239788128496,0.00556889888192,0.0,0.0,0.0
1609059036078044891,104,1609059036078044891,-0.175940947831,0.0980681203082,0.000354888235596,0.99897836677,-0.000631974707871,0.0451776608563,-0.00089570813027,-0.0119164479237,0.00987394943793,0.000756267962398,0.0,0.0,0.0
1609059036277642012,105,1609059036277642012,-0.235126891759,0.119791612651,0.00599545501481,0.998970958005,-0.000803922349586,0.0453385795529,-0.00088993043685,-0.0397869537103,0.022751807353,0.00416386626263,0.0,0.0,0.0
1609059036477516890,106,1609059036477516890,-0.267116196362,0.124026655014,0.0152274031113,0.998970285897,-0.000833035059275,0.0453509250506,-0.000983638586921,-0.0533293889376,0.0233773918609,0.00912017404489,0.0,0.0,0.0
1609059036677664042,107,1609059036677664042,-0.25179189601,0.121358051113,0.0114271092139,0.998965323145,-0.000832289157187,0.0454591966709,-0.00102561562479,-0.0439602518126,0.0211394521321,0.00591182382595,0.0,0.0,0.0
1609059036877697945,108,1609059036877697945,-0.279367717251,0.129508652482,0.0181976325247,0.998964392758,-0.000860980958185,0.0454774768165,-0.00109536135653,-0.0536286396121,0.0252461584093,0.00784710153084,0.0,0.0,0.0
1609059037077728987,109,1609059037077728987,-0.189836784382,0.102537052512,0.00336338392164,0.998973766933,-0.000648519142346,0.045274934539,-0.00108291529709,-0.00757997336855,0.00875914730847,-0.000637639344809,0.0,0.0,0.0
1609059037277844906,110,1609059037277844906,-0.289333385228,0.13838317702,0.0227027289208,0.998965949565,-0.000884944396482,0.0454429870558,-0.00108784665689,-0.0523639814262,0.0277548419386,0.00771781591608,0.0,0.0,0.0
1609059037477770090,111,1609059037477770090,-0.288766740303,0.138565059542,0.0247413015811,0.998969483306,-0.000857517657409,0.0453636210658,-0.00117387002632,-0.049583916824,0.0262202813116,0.0080017388157,0.0,0.0,0.0
1609059037677875042,112,1609059037677875042,-0.268155880179,0.13576669406,0.0217008151403,0.998969571668,-0.000814838735046,0.0453604563806,-0.00124896568624,-0.0381103175778,0.0225679875326,0.00627885159675,0.0,0.0,0.0
1609059037877892971,113,1609059037877892971,-0.293785113848,0.145720102083,0.0295942451512,0.998966501683,-0.000873738838955,0.0454245631925,-0.0013319739314,-0.0457743834442,0.0267785471328,0.00877558108121,0.0,0.0,0.0
1609059038077994108,114,1609059038077994108,-0.218096063477,0.117393819119,0.0141986883569,0.998972547502,-0.000621938565363,0.0452938254148,-0.00138993163404,-0.00798098031567,0.00772975022854,-6.97795579777e-05,0.0,0.0,0.0
1609059038278100014,115,1609059038278100014,-0.311226526101,0.152320986904,0.0305963153467,0.998966371772,-0.000902064335689,0.0454240141526,-0.00142593342972,-0.0486260193345,0.0266845967252,0.00855015280872,0.0,0.0,0.0
1609059038479504108,116,1609059038479504108,-0.307431376372,0.14967642382,0.0302920782082,0.998968140635,-0.000901705404004,0.0453812269077,-0.00154439918435,-0.0449575830543,0.0230327422897,0.00753264381574,0.0,0.0,0.0
1609059038678117990,117,1609059038678117990,-0.291932205313,0.142380694966,0.0238970367426,0.99896359219,-0.000800042950801,0.0454787120342,-0.00166977899741,-0.0377821342978,0.0168003574094,0.00276720972119,0.0,0.0,0.0
1609059038878254890,118,1609059038878254890,-0.315434036372,0.154378526221,0.0322306279499,0.998962765814,-0.000911273965742,0.0454941215334,-0.00168730623272,-0.0447815218011,0.0230670012257,0.00774633916991,0.0,0.0,0.0
1609059039078291893,119,1609059039078291893,-0.24353150828,0.132477690901,0.0190422064643,0.998965642992,-0.000722607248028,0.0454355539927,-0.00165299560745,-0.0115503787014,0.00761795644903,-0.000546594300497,0.0,0.0,0.0
1609059039278798103,120,1609059039278798103,-0.319785326897,0.156619763007,0.0334343119756,0.998961748968,-0.000857096930907,0.0455153133495,-0.00174520320802,-0.0438592911591,0.0211998100171,0.0069428306228,0.0,0.0,0.0
1609059039478666067,121,1609059039478666067,-0.295075872214,0.14535411355,0.0317188991082,0.998969355548,-0.000823328068359,0.045340295687,-0.00195099837957,-0.0316049398226,0.014513999151,0.00665270729798,0.0,0.0,0.0
1609059039678494930,122,1609059039678494930,-0.275233564266,0.139900607511,0.0277673680348,0.998966300103,-0.000770141646686,0.0454057664231,-0.00201358271735,-0.0226122140955,0.0108590054939,0.00361582373748,0.0,0.0,0.0
1609059039878559113,123,1609059039878559113,-0.2521836388,0.135127666562,0.0197333461991,0.99896308553,-0.000772046498574,0.0454811297931,-0.00190381860883,-0.00877880766795,0.00773628527699,-0.0022476619878,0.0,0.0,0.0
1609059040078593016,124,1609059040078593016,-0.284255488165,0.138665431618,0.0290976604894,0.998970886519,-0.000752660213221,0.0452997007699,-0.0021303756098,-0.0242183599043,0.00776199335986,0.00535874707173,0.0,0.0,0.0
1609059040278973103,125,1609059040278973103,-0.281681235087,0.133965683792,0.0264147171339,0.998967290422,-0.000750207612442,0.0453729745813,-0.00225455824559,-0.0226036739415,0.00350084951671,0.00277590969041,0.0,0.0,0.0
1609059040478715897,126,1609059040478715897,-0.269097026605,0.132443629883,0.0202882602252,0.998967634136,-0.000685840166389,0.0453654025601,-0.00227504327643,-0.0150893090483,0.00207836734505,-0.00209352429217,0.0,0.0,0.0
1609059040678978920,127,1609059040678978920,-0.278344526532,0.133531990835,0.0211799343155,0.998969546643,-0.000708128931924,0.0453205360825,-0.0023221633422,-0.0207112603457,0.00209025974796,-0.00229682576695,0.0,0.0,0.0
1609059040978878021,128,1609059040978878021,-0.261651475989,0.135096605716,0.0177155660343,0.998962097322,-0.000779259895502,0.0454978745725,-0.00201600510738,-0.011741659357,0.00317435412843,-0.0033476719649,0.0,0.0,0.0
1609059041178941011,129,1609059041178941011,-0.265799226782,0.136128054403,0.0179488762112,0.998968700609,-0.000755050054567,0.0453380891274,-0.00232868566427,-0.0135848994031,0.00384244629804,-0.00214431668547,0.0,0.0,0.0
1609059041378959894,130,1609059041378959894,-0.265956847095,0.136243135494,0.0180024830471,0.99896567542,-0.000789663193575,0.0454037832951,-0.00233500056806,-0.0133436390465,0.00294479090495,-0.00281752028022,0.0,0.0,0.0
1609059041579329967,131,1609059041579329967,-0.265300823594,0.135674835135,0.0175969213755,0.998966203366,-0.000756605943088,0.0453933264301,-0.00232335882763,-0.0128920515455,0.003994482412,-0.00206808979638,0.0,0.0,0.0
1609059041779337883,132,1609059041779337883,-0.265349393005,0.137113273335,0.018190201193,0.998964993954,-0.000801339566027,0.0454189229778,-0.00232812054087,-0.0119971313599,0.00497322100558,-0.00190127183329,0.0,0.0,0.0
1609059041979371071,133,1609059041979371071,-0.26292099393,0.135169014388,0.0179958841279,0.998958564856,-0.000758751770521,0.0455730356839,-0.00207567241838,-0.0101149288211,0.00595528634244,-0.00311953537989,0.0,0.0,0.0
1609059042179220915,134,1609059042179220915,-0.261488112801,0.137725804582,0.0192310118535,0.998970099003,-0.000779380365412,0.045308035302,-0.00230560210684,-0.00877435911512,0.006828667605,-0.00126427956671,0.0,0.0,0.0
1609059042379530907,135,1609059042379530907,-0.258507074363,0.135948774712,0.0201109837451,0.998968578801,-0.000815279792291,0.0453413444573,-0.00229703512845,-0.00542166455057,0.00649134153098,-0.00144466779452,0.0,0.0,0.0
1609059042579422951,136,1609059042579422951,-0.259253819527,0.138537774527,0.0200964642051,0.998973633038,-0.000853109485579,0.0452298754695,-0.00228277564225,-0.00555481116868,0.00703526939957,-0.000529868691433,0.0,0.0,0.0
1609059042779546976,137,1609059042779546976,-0.253072460832,0.132611645726,0.0218564672588,0.998969567142,-0.000683481636521,0.0453228110008,-0.00227586902283,-0.00331238460793,0.00309847557734,-0.000696422171434,0.0,0.0,0.0
1609059042979594946,138,1609059042979594946,-0.256990940555,0.13587510496,0.0209590327709,0.998971022482,-0.000818057680293,0.0452860581915,-0.00232378056261,-0.0039168412501,0.00518706327333,-0.000145002012738,0.0,0.0,0.0
1609059043180372000,139,1609059043180372000,-0.257757960956,0.137491424084,0.0203155727175,0.998959234662,-0.000823165703462,0.0455597647291,-0.00201933646272,-0.00778275954314,0.00649610136166,-0.00115810474702,0.0,0.0,0.0
1609059043379688025,140,1609059043379688025,-0.256797109079,0.136715966587,0.0208297630179,0.998966879006,-0.000834048500008,0.0453752149493,-0.00235984744405,-0.00502810401377,0.00468679669543,0.000102550203643,0.0,0.0,0.0
1609059043579687119,141,1609059043579687119,-0.255900799021,0.136425567322,0.0208896377932,0.998968219531,-0.000909670937043,0.0453479075119,-0.00228826347035,-0.00448827367592,0.00293988327956,-0.000252281550698,0.0,0.0,0.0
1609059043779762983,142,1609059043779762983,-0.254548985236,0.135348964152,0.0212026935441,0.998968743769,-0.000964349866937,0.0453327374299,-0.00233707498762,-0.00347877586118,0.000824237699035,-0.000346901471112,0.0,0.0,0.0
1609059043980068922,143,1609059043980068922,-0.254214086678,0.135237262419,0.0214015671729,0.998969068259,-0.000914049889803,0.0453260991775,-0.00234731928704,-0.00232475922805,0.00125391821468,-8.08430321282e-05,0.0,0.0,0.0
1609059044180811882,144,1609059044180811882,-0.254216387175,0.135169928252,0.0214052242059,0.998972843684,-0.000856240640677,0.045239320157,-0.00243481944439,-0.00266960048034,0.00268569499344,0.000146013549434,0.0,0.0,0.0
1609059044380407095,145,1609059044380407095,-0.255069078135,0.136229341425,0.0203127304315,0.998963158018,-0.000918748128153,0.0454665656441,-0.00213453323087,-0.0041684725733,0.00490400293524,-0.00225759477704,0.0,0.0,0.0
1609059044579988956,146,1609059044579988956,-0.255260910049,0.13624581139,0.0204101260315,0.998975608303,-0.00079759648934,0.0451793488132,-0.00243398770787,-0.00292294955037,0.0030524109394,-0.00192210007153,0.0,0.0,0.0
1609059044780653000,147,1609059044780653000,-0.256549751956,0.137323619618,0.0199939175154,0.998969019881,-0.000791099048854,0.0453276208419,-0.002382911954,-0.00400307889289,0.00331044620176,-0.00153429622351,0.0,0.0,0.0
1609059044981031895,148,1609059044981031895,-0.256754718673,0.137674346852,0.0199004655113,0.998973247869,-0.000818083848392,0.0452318364504,-0.00242110543761,-0.00333516458227,0.00343761061812,-0.00101961199562,0.0,0.0,0.0
1609059045180759907,149,1609059045180759907,-0.256912861666,0.137801305986,0.0198498260215,0.998967724057,-0.000781611893844,0.0453587179779,-0.00233710893555,-0.00532880237847,0.00383430352605,-0.000982446960432,0.0,0.0,0.0
1609059045380328894,150,1609059045380328894,-0.257371467307,0.138373467193,0.0198448628442,0.998969686916,-0.000781702981479,0.0453133226829,-0.00237830844768,-0.00428975594637,0.0037415045835,-0.00131786542557,0.0,0.0,0.0
1609059045580310106,151,1609059045580310106,-0.257913494646,0.13926532474,0.0192399093978,0.998961985615,-0.0007938102984,0.0454985028256,-0.00205119527677,-0.00672010965376,0.00601637629183,-0.000655235555815,0.0,0.0,0.0
1609059045780401945,152,1609059045780401945,-0.257709986935,0.139045477476,0.0197345594122,0.998969550581,-0.000754065438343,0.0453181494907,-0.00235238674905,-0.00581682910159,0.0041490134819,0.000617887664741,0.0,0.0,0.0
1609059045981504917,153,1609059045981504917,-0.257948108267,0.139837806894,0.019673836372,0.99896953466,-0.000730138017138,0.0453175945399,-0.00237725562484,-0.006536240886,0.00664200279998,-0.00153948080796,0.0,0.0,0.0
1609059046180800915,154,1609059046180800915,-0.258080314359,0.1400465293,0.0195894061601,0.998972204598,-0.000755706515029,0.0452532042102,-0.00247201461308,-0.00595492986637,0.00664141364036,-0.00193712482119,0.0,0.0,0.0
1609059046380580902,155,1609059046380580902,-0.258581069301,0.141122227249,0.018623887841,0.998968576483,-0.000790847537844,0.0453375499576,-0.0023799840689,-0.00736662526212,0.00769743592045,-0.00265675494299,0.0,0.0,0.0
1609059046580791950,156,1609059046580791950,-0.253484885056,0.136728222336,0.0209734383337,0.998974893253,-0.000582480490116,0.0451911685211,-0.00256547347337,-0.0038682076906,0.00248863062573,0.000302456176261,0.0,0.0,0.0
1609059046780885935,157,1609059046780885935,-0.256100732439,0.138574612878,0.0184738993459,0.998955538805,-0.000539377841294,0.045634035628,-0.00225285480244,-0.00842350387013,0.00712470323177,-0.00273259831233,0.0,0.0,0.0
1609059046980830908,158,1609059046980830908,-0.257334697892,0.140169267536,0.0188435538602,0.998969563773,-0.00060298286079,0.0453096856063,-0.00254547793163,-0.00881910226805,0.00648312229075,-0.00152612054926,0.0,0.0,0.0
1609059047180963039,159,1609059047180963039,-0.257802969351,0.140923270455,0.0182897533782,0.998959660362,-0.000562766951384,0.0455305545891,-0.00249977224362,-0.0104120563996,0.00697100873548,-0.00140921331876,0.0,0.0,0.0
1609059047381156921,160,1609059047381156921,-0.253057513867,0.137621113079,0.0198139379559,0.998963657696,-0.000446889912951,0.0454436372062,-0.0025073351196,-0.004848870054,0.00246119110352,-0.000913381676268,0.0,0.0,0.0
1609059047581450939,161,1609059047581450939,-0.256035770186,0.13974239144,0.0193028338808,0.998966089521,-0.000480983124617,0.0453913000163,-0.00248002523668,-0.010948075169,0.00595716639561,0.00097942699081,0.0,0.0,0.0
1609059047781095982,162,1609059047781095982,-0.254157376393,0.138661674776,0.0183844392183,0.998953708675,-0.000420902573043,0.0456795850386,-0.00216478072472,-0.0106706170675,0.00621134792425,-0.000819012160976,0.0,0.0,0.0
1609059047981240988,163,1609059047981240988,-0.257084834609,0.140166492028,0.0203908009394,0.998968796542,-0.000390829484639,0.0453352971964,-0.00242932413396,-0.012369773181,0.00671006272376,0.00205651929239,0.0,0.0,0.0
1609059048181224108,164,1609059048181224108,-0.261860044723,0.141434007303,0.0208482286583,0.998958655546,-0.000324406514758,0.0455637285808,-0.00233364695194,-0.016567919707,0.00707212279787,0.00210686760236,0.0,0.0,0.0
1609059048382100105,165,1609059048382100105,-0.251804218812,0.136366700699,0.0209079389742,0.998960010096,-0.000266167242931,0.045533702501,-0.00234719405595,-0.00776473069422,0.00203226544604,0.000869840465288,0.0,0.0,0.0
1609059048581425905,166,1609059048581425905,-0.257672288612,0.140387739506,0.0201963712882,0.998957178227,-0.000297935166594,0.0455967948479,-0.00232370440956,-0.0144560153541,0.0062954483429,0.000856309113964,0.0,0.0,0.0
1609059048781433105,167,1609059048781433105,-0.253399169587,0.138320278354,0.0181552809289,0.998945521177,-0.000339881401657,0.0458639656053,-0.002055932763,-0.0127390292791,0.0065386104501,-0.00238010132826,0.0,0.0,0.0
1609059048981528997,168,1609059048981528997,-0.259082820437,0.140300122729,0.0205722790166,0.998957806218,-0.000323479274267,0.0455854824964,-0.00227168287481,-0.0172189919783,0.00603152185867,0.000703360859453,0.0,0.0,0.0
1609059049181566954,169,1609059049181566954,-0.258301282892,0.139358573231,0.0204766663151,0.998951618102,-0.000253961908712,0.0457242155181,-0.00221276065993,-0.0176950783137,0.00514846447971,0.00121478867726,0.0,0.0,0.0
1609059049381961107,170,1609059049381961107,-0.255979987539,0.137998810138,0.0219652410196,0.998955401459,-0.000203605112935,0.0456387184306,-0.00227416391344,-0.0143147441243,0.00391800900553,0.00439738281941,0.0,0.0,0.0
1609059049581677914,171,1609059049581677914,-0.267986713857,0.142070699142,0.0219616350013,0.998948933379,-0.000277430669207,0.0457833772497,-0.00219861335981,-0.0254553047659,0.00884710636067,0.00363455365972,0.0,0.0,0.0
1609059049781769037,172,1609059049781769037,-0.257598591363,0.141187500213,0.0196218016908,0.998938151063,-0.000273613005673,0.0460311836591,-0.00190410539267,-0.0193827262335,0.010013736387,-0.000860510104337,0.0,0.0,0.0
1609059049981884956,173,1609059049981884956,-0.27929805039,0.145777628574,0.0227168524455,0.998945214136,-0.000211198596871,0.0458699692478,-0.00208817427708,-0.0344982009121,0.0125150228738,0.00226823012192,0.0,0.0,0.0
1609059050181883097,174,1609059050181883097,-0.284260374747,0.147731428457,0.0227917315959,0.998940807347,-0.000226643926456,0.045969065302,-0.00201422085991,-0.0375089015967,0.0138288078914,0.00201878662401,0.0,0.0,0.0
1609059050381979942,175,1609059050381979942,-0.268040821124,0.145454954814,0.0231197608477,0.998948207436,-8.05814479501e-05,0.0458058595463,-0.0020725826928,-0.0236609621872,0.00880503653993,0.00187487813328,0.0,0.0,0.0
1609059050581999063,176,1609059050581999063,-0.292851231445,0.151847095066,0.0243612563011,0.998943221219,-0.000144336554607,0.0459190795298,-0.00196420026911,-0.0399603173422,0.0154926785195,0.00256383513127,0.0,0.0,0.0
1609059050782866001,177,1609059050782866001,-0.262546652477,0.146511495145,0.0206191153706,0.998942114232,-7.30796085153e-05,0.0459484088929,-0.00184141079728,-0.0197226894809,0.0102661681385,-0.00236701142897,0.0,0.0,0.0
1609059050982130051,178,1609059050982130051,-0.303545061807,0.158048142966,0.0263837728925,0.998942509379,-0.000132145949615,0.0459352336774,-0.00194930751168,-0.044572155876,0.0193546529129,0.00393373752891,0.0,0.0,0.0
1609059051182229996,179,1609059051182229996,-0.303307051396,0.159549398636,0.0277510671331,0.998940698944,-0.000114915666411,0.0459728822496,-0.00199019750555,-0.0438720917492,0.0190829413136,0.00554404920957,0.0,0.0,0.0
1609059051382129908,180,1609059051382129908,-0.279995177768,0.149947248185,0.0293813269598,0.998947690227,2.62449008972e-06,0.0458110668471,-0.0022041635836,-0.0276379084344,0.00786580520808,0.00564568572842,0.0,0.0,0.0
1609059051582839012,181,1609059051582839012,-0.315168470396,0.16360241605,0.0315848752785,0.99893780464,-0.000105899597795,0.0460331405524,-0.00204968699975,-0.0472170143542,0.0187644927843,0.00605071265281,0.0,0.0,0.0
1609059051782321930,182,1609059051782321930,-0.270538537217,0.150649539934,0.0231938223491,0.9989370073,-4.88509968778e-05,0.0460542070804,-0.0019654696283,-0.021703814744,0.00812581186434,-0.000362200812875,0.0,0.0,0.0
1609059051982496977,183,1609059051982496977,-0.323274137821,0.165620133998,0.0346090409554,0.998938675459,-0.000106921563388,0.046013881087,-0.00205766526336,-0.049414313008,0.0164935150576,0.00816348343159,0.0,0.0,0.0
1609059052182509899,184,1609059052182509899,-0.316592460675,0.163208815245,0.0347629946472,0.998940191123,-0.000131303252586,0.0459802214612,-0.00207281273547,-0.0455154661318,0.0142572866533,0.00909591459719,0.0,0.0,0.0
1609059052382571936,185,1609059052382571936,-0.308031907075,0.16171436986,0.0329312892028,0.998938059253,-0.000174120588339,0.0460255185747,-0.00209167355651,-0.0409134244135,0.0125740568917,0.00738273288624,0.0,0.0,0.0
1609059052582650900,186,1609059052582650900,-0.323817860666,0.165581907853,0.0371568068803,0.998938433346,-0.000138016302346,0.046014501166,-0.00215708563838,-0.0484157967685,0.0143342903335,0.0096944813682,0.0,0.0,0.0
1609059052782766104,187,1609059052782766104,-0.275390987274,0.154753121341,0.0259876548115,0.99893359185,-0.00017473441539,0.0461268284006,-0.00199104049388,-0.0217151961459,0.00750246028294,0.000916144678917,0.0,0.0,0.0
1609059052982731104,188,1609059052982731104,-0.281840106564,0.141746983916,0.0338607737791,0.998949877222,5.8119006827e-05,0.0457494580646,-0.00247517800456,-0.0227623121651,-0.00500460756891,0.00733032466672,0.0,0.0,0.0
1609059053182854891,189,1609059053182854891,-0.309431047569,0.156327916025,0.0312743095826,0.998936982549,-0.00019556368845,0.0460418564628,-0.00223921971041,-0.0409178496312,0.0071753592377,0.00480440519169,0.0,0.0,0.0
1609059053382873058,190,1609059053382873058,-0.306473839349,0.155330110674,0.0284454182277,0.998937144681,-0.000208496903848,0.0460388599397,-0.00222730338705,-0.0381910163095,0.00522891486244,0.00326347958701,0.0,0.0,0.0
1609059053582926989,191,1609059053582926989,-0.318490638852,0.157187879519,0.0319929667128,0.998942296579,-0.000205073149847,0.0459286982835,-0.00219105575039,-0.0432692710792,0.00635050133227,0.00693868611579,0.0,0.0,0.0
1609059053783024073,192,1609059053783024073,-0.27488929353,0.150177300107,0.0237890143988,0.998938084258,-0.000220029669822,0.0460261139632,-0.00206209610225,-0.0180068818585,0.00182514138566,-0.00198846956035,0.0,0.0,0.0
1609059053983108997,193,1609059053983108997,-0.307360960271,0.148742605079,0.0283283169365,0.998949488756,-6.81590451032e-05,0.0457681441124,-0.00227843231806,-0.0363011820837,-0.00238983456232,0.000401981505932,0.0,0.0,0.0
1609059054183114052,194,1609059054183114052,-0.310685502065,0.156640276144,0.0348159214931,0.998947228285,-0.000159358769249,0.0458244879407,-0.00212744235638,-0.0368887019846,0.00423423885457,0.00567493306391,0.0,0.0,0.0
1609059054383186102,195,1609059054383186102,-0.306050976968,0.157827215554,0.0323589121723,0.998947632398,-0.000206211761302,0.0458165862529,-0.00210371754217,-0.0342666925197,0.00495176924579,0.00248268241187,0.0,0.0,0.0
1609059054583785057,196,1609059054583785057,-0.318833527103,0.158500970909,0.0359618464358,0.998947986941,-0.000154550435016,0.0458073639388,-0.00214030576428,-0.0405782378411,0.00477659915977,0.00695105218211,0.0,0.0,0.0
1609059054783299923,197,1609059054783299923,-0.282822754093,0.15335385283,0.0254720503445,0.998945963265,-0.000224234255113,0.0458597583928,-0.00194801317192,-0.0181463554065,0.00217295807203,-0.00174344195799,0.0,0.0,0.0
1609059054983390093,198,1609059054983390093,-0.323606449248,0.160672498556,0.0357091550116,0.998956865366,-0.000137677692068,0.0456162513456,-0.00207841177388,-0.0410756524911,0.00564146100235,0.00589889351118,0.0,0.0,0.0
1609059055183434963,199,1609059055183434963,-0.316850521172,0.162084329728,0.0338395538344,0.998942820304,-0.000155233044584,0.0459234346306,-0.0020629631519,-0.0370160112752,0.0068486705153,0.0045701523963,0.0,0.0,0.0
1609059055383516073,200,1609059055383516073,-0.309358999948,0.163661798535,0.0351199537587,0.998950955958,-0.000122428012687,0.0457464656814,-0.00205754235465,-0.0313727591333,0.00893919460197,0.00353236781962,0.0,0.0,0.0
1609059055583509922,201,1609059055583509922,-0.319594594926,0.163817571361,0.0374916492881,0.998960875677,-0.000144828336691,0.0455286268875,-0.00207172055881,-0.0368058895179,0.00663121890462,0.00630394766163,0.0,0.0,0.0
1609059055783596992,202,1609059055783596992,-0.281434890385,0.158214373241,0.0271181842524,0.998951843499,-0.000198417901648,0.0457341203646,-0.00188818280509,-0.0159624492373,0.00319197755681,-0.00183961528583,0.0,0.0,0.0
1609059055983638048,203,1609059055983638048,-0.325492880543,0.166077772053,0.0384829155095,0.998965038197,-9.58117507101e-05,0.0454390508127,-0.00203370150129,-0.0383949873235,0.00747329951381,0.00736978962305,0.0,0.0,0.0
1609059056183870077,204,1609059056183870077,-0.291635244569,0.152583288359,0.0372032775976,0.998968667451,1.98566694344e-05,0.0453478883222,-0.00227378125258,-0.0182243999312,-0.00513964081359,0.00724656159871,0.0,0.0,0.0
1609059056383835077,205,1609059056383835077,-0.307162800262,0.160217784247,0.0313764611554,0.998963993081,-0.000158495708236,0.045460174509,-0.00207073406875,-0.0274968011308,0.00184803968206,-9.41541754929e-06,0.0,0.0,0.0
1609059056583833933,206,1609059056583833933,-0.30931083543,0.157671363877,0.0340006905518,0.99897136904,4.65577836196e-07,0.0452968157683,-0.00209817060138,-0.0290339163973,-0.00153828951745,0.00310152735318,0.0,0.0,0.0
1609059056783900023,207,1609059056783900023,-0.287554698475,0.156708416545,0.0255261755176,0.998960970332,-0.000168115143858,0.0455339897157,-0.00189928196966,-0.0171604783192,-0.000590296164788,-0.0034618829567,0.0,0.0,0.0
1609059056984002113,208,1609059056984002113,-0.319596180576,0.161971213806,0.0325947290139,0.998978425824,-0.000103920076486,0.0451412341451,-0.00208876019109,-0.0352172254112,0.00135782543033,0.00253936287463,0.0,0.0,0.0
1609059057184022903,209,1609059057184022903,-0.290650939885,0.152745666441,0.0325602773371,0.998978407883,-1.52713181328e-05,0.0451369390117,-0.00219022554819,-0.0180511516166,-0.00713266211726,0.00474329810064,0.0,0.0,0.0
1609059057384057045,210,1609059057384057045,-0.304264350731,0.160242541201,0.0254403033425,0.99897158752,-0.000168451594574,0.0452976014921,-0.00196627833882,-0.028171444007,0.000503153708979,-0.00165926477811,0.0,0.0,0.0
1609059057584253073,211,1609059057584253073,-0.317542519301,0.160757273852,0.0285415890639,0.998974111423,-0.000193959239663,0.0452426296514,-0.00194718992431,-0.0372313013614,-0.000759672185881,0.0023126384292,0.0,0.0,0.0
1609059057784158945,212,1609059057784158945,-0.287807990462,0.157175752633,0.0216445357984,0.998964008135,-0.000202272740525,0.0454694993492,-0.00184232596688,-0.0191612056085,-0.00275803330317,-0.00440544608577,0.0,0.0,0.0
1609059057984251022,213,1609059057984251022,-0.323861689125,0.160249364832,0.0258273613315,0.998976576448,-0.000158643594622,0.0451877114007,-0.00196093848093,-0.0397650947667,-0.00100028896975,-0.00022340441627,0.0,0.0,0.0
1609059058184324980,214,1609059058184324980,-0.314268245495,0.159316981922,0.0244642351104,0.998968445507,-0.000193620087067,0.0453666680739,-0.00196794812829,-0.0352676843316,-0.00269968568535,0.00108397816188,0.0,0.0,0.0
1609059058384443045,215,1609059058384443045,-0.31332300375,0.161549159228,0.0234220232095,0.998969810648,-0.000171898768354,0.0453391011112,-0.00191148518064,-0.0349711543369,-0.000405300935687,-0.00184001783136,0.0,0.0,0.0
1609059058584517002,216,1609059058584517002,-0.326722581406,0.160602090165,0.0253035037935,0.998975954961,-0.000129532679954,0.0452012906988,-0.00196671031193,-0.0428441895949,-0.00181079813051,0.00149825460504,0.0,0.0,0.0
1609059058784533978,217,1609059058784533978,-0.293701412262,0.160050060491,0.0185630595687,0.998965743081,-0.000218499294417,0.0454340294535,-0.00177352064304,-0.0231941257871,-0.000784695649951,-0.00415346579447,0.0,0.0,0.0
1609059058984693050,218,1609059058984693050,-0.33530439883,0.163608609129,0.0261599524703,0.998978401274,-0.000170557022085,0.0451515626158,-0.00186040088088,-0.0444142347449,-0.000308676368147,0.00132977441307,0.0,0.0,0.0
1609059059184705019,219,1609059059184705019,-0.307136875312,0.157471960357,0.021882282595,0.998980002281,-2.98125069561e-05,0.0451136715572,-0.00192634198797,-0.0296042317286,-0.00537267848197,0.000209547542941,0.0,0.0,0.0
1609059059384828091,220,1609059059384828091,-0.314295494566,0.164606654905,0.0192635185687,0.998979515337,-0.000231958764297,0.0451267694331,-0.00185709804495,-0.0342104047553,0.000131797424775,-0.000982431385256,0.0,0.0,0.0
1609059059584845066,221,1609059059584845066,-0.330297707402,0.165849579244,0.0236821996491,0.99898363452,-0.000204360324727,0.0450349278361,-0.0018738922087,-0.0427788027545,0.00104081128114,0.0040382044838,0.0,0.0,0.0
1609059059784965992,222,1609059059784965992,-0.29260983739,0.162275188818,0.0153456140088,0.998977515859,-0.000286201481275,0.0451771496576,-0.00169294019909,-0.0204013822921,-3.4801558582e-05,-0.00260979404451,0.0,0.0,0.0
1609059059984910011,223,1609059059984910011,-0.327584591251,0.165969159185,0.0217021994924,0.998989529306,-0.000277722592172,0.0449058519997,-0.00181869811722,-0.0396996844139,0.00053498913045,0.00323334237364,0.0,0.0,0.0
1609059060184978962,224,1609059060184978962,-0.306649426159,0.162332706111,0.0161942073215,0.998984095028,-0.000301224524818,0.0450249896251,-0.00185403708661,-0.028999837848,-0.00394583578107,-0.00193704698279,0.0,0.0,0.0
1609059060385087967,225,1609059060385087967,-0.307390811976,0.164430922297,0.0134101559818,0.998985934886,-0.000346452792577,0.0449878003963,-0.0017549033906,-0.0307090713511,-0.00125390731167,-0.00305187484981,0.0,0.0,0.0
1609059060585206032,226,1609059060585206032,-0.319116878802,0.163067331731,0.0167131061216,0.998984890294,-0.000365512042611,0.0450105437425,-0.0017624748707,-0.0386392354748,-0.00314051003489,0.0016415109514,0.0,0.0,0.0
1609059060785200119,227,1609059060785200119,-0.291741803747,0.163671139047,0.0148280391384,0.998982488456,-0.000404680118297,0.0450704383077,-0.00157466940581,-0.0211373055434,-0.000611154522908,-0.00293560383902,0.0,0.0,0.0
1609059060985191107,228,1609059060985191107,-0.319230146469,0.165635757777,0.0199762738666,0.998996171516,-0.000371271504177,0.0447619807885,-0.00169603362019,-0.0382436343384,-0.000603176157553,0.00402445696763,0.0,0.0,0.0
1609059061185301065,229,1609059061185301065,-0.302818492773,0.16408692972,0.0175650812154,0.998993272604,-0.000365299346157,0.0448289262576,-0.00163560985085,-0.0275751009909,-0.00220830552173,0.000537100683904,0.0,0.0,0.0
1609059061385335922,230,1609059061385335922,-0.302901416554,0.165779839417,0.0171591717675,0.998997855765,-0.000241034211992,0.0447324392609,-0.00149497706176,-0.0290068098935,8.93426522579e-05,0.00109001764148,0.0,0.0,0.0
1609059061585447073,231,1609059061585447073,-0.31676651443,0.168586490606,0.0208661618986,0.998996485834,-0.000199547794978,0.0447606701536,-0.00156967498107,-0.0370115285891,0.00194280199912,0.00540359867404,0.0,0.0,0.0
1609059061785490036,232,1609059061785490036,-0.290754588964,0.167553989684,0.0146176484265,0.998994378831,-0.000413257954905,0.0448151147097,-0.00129064917923,-0.0206978058201,0.00528629138271,-0.0012208483717,0.0,0.0,0.0
1609059061985526085,233,1609059061985526085,-0.321494157919,0.171137583731,0.0230367374514,0.999006563102,-0.000749710175029,0.044533799099,-0.00143720292135,-0.0400088102041,0.00483135754898,0.00683036617548,0.0,0.0,0.0
1609059062185627937,234,1609059062185627937,-0.308882598915,0.1704336318,0.018962279868,0.999000130907,-0.00057138950289,0.0446790005399,-0.00148285979487,-0.0305059744998,-0.0119238414017,0.000861995016707,0.0,0.0,0.0
1609059062385675907,235,1609059062385675907,-0.313242698089,0.175300074594,0.0184253312727,0.998992558338,0.000941246660443,0.0448412699633,-0.0014976475065,-0.0335029405955,-0.00867938897308,0.000472245333572,0.0,0.0,0.0
1609059062585746050,236,1609059062585746050,-0.326447333083,0.177291792652,0.0221740764991,0.999000426468,-0.00185280348465,0.0446609872347,-0.000333549443466,-0.0421835246283,0.0115763130274,0.00650887131551,0.0,0.0,0.0
1609059062785840988,237,1609059062785840988,-0.300338494995,0.171296624902,0.0143162753626,0.998957594028,0.000665536389804,0.0455354810967,-0.00313087161284,-0.0287425082655,-0.0512203798316,-0.00505734025521,0.0,0.0,0.0
1609059062985877037,238,1609059062985877037,-0.333895249356,0.179826689026,0.0215185593644,0.998966886934,0.000241823706737,0.0453154138553,-0.00340787299929,-0.0398201449921,0.017485247165,-0.00503892966726,0.0,0.0,0.0
1609059063185969114,239,1609059063185969114,-0.327484011409,0.177284254297,0.0198793119113,0.998987080715,-0.00050766816343,0.0449178554693,-0.00263459643253,-0.0470676704199,-0.000890935640169,0.00590173851204,0.0,0.0,0.0
1609059063385901928,240,1609059063385901928,-0.323892714364,0.181369544005,0.0168127992878,0.999018137905,-2.74366107308e-05,0.0442439680137,-0.0022870678234,0.005283014398,-0.00441313968123,-0.0272789201692,0.0,0.0,0.0
1609059063586045980,241,1609059063586045980,-0.34181947081,0.174799040902,0.0228731120041,0.999018145221,-0.000344157303475,0.0442811204674,-0.00134515604842,-0.0494848078196,0.0139910084034,0.00863501502933,0.0,0.0,0.0
1609059063786118984,242,1609059063786118984,-0.299203075751,0.166249210716,0.00577351378573,0.999003183329,-0.000208612664146,0.0446066028165,-0.00168735448542,-0.036290088773,-0.0150109477457,0.00195431382228,0.0,0.0,0.0
1609059063986207008,243,1609059063986207008,-0.344097542682,0.180871223264,0.0196841074696,0.999052056933,-0.000260086994059,0.043489395955,-0.00189534468022,-0.0367747307557,-0.0061644434744,0.00344453260363,0.0,0.0,0.0
1609059064186285973,244,1609059064186285973,-0.337403240568,0.179596537185,0.0183140280598,0.999090082435,-7.24963358127e-05,0.0426079944028,-0.00188699184513,-0.00299272694117,-0.00784143084825,-0.0235528660572,0.0,0.0,0.0
1609059064386322975,245,1609059064386322975,-0.326662638056,0.185148009926,0.00762075429988,0.999302984866,0.000287615514714,0.0372903207123,-0.00170108702388,0.00932090632735,0.00465694147807,-0.0291773433199,0.0,0.0,0.0
1609059064586426020,246,1609059064586426020,-0.336461904074,0.189253458525,0.00992935705762,0.999415839445,0.00061412579081,0.034118778397,-0.00187394660746,-0.0130991611022,-0.005932480939,-0.00660231783273,0.0,0.0,0.0
1609059064786432981,247,1609059064786432981,-0.338862242821,0.193371863426,0.0158924235226,0.999413871455,0.000965213702095,0.0341996987474,-0.00116726705566,-0.0207415991584,0.0139720102531,-0.0197464164215,0.0,0.0,0.0
1609059064986548901,248,1609059064986548901,-0.35253944628,0.197906377279,0.0158597206518,0.999432584999,0.00113135835588,0.0336387759286,-0.00128872974516,-0.0330505821013,0.0274560497182,-0.00928412199243,0.0,0.0,0.0
1609059065186584949,249,1609059065186584949,-0.35382136213,0.19968721213,0.0202971937239,0.999620377627,0.00257373716574,0.0272091225325,-0.00348427344115,-0.0804993180174,0.0592362931684,0.069761924716,0.0,0.0,0.0
1609059065386681080,250,1609059065386681080,-0.37208808554,0.209002255738,0.060968855539,0.999889159211,0.00438426130059,0.0132554526615,-0.00517112367217,-0.0907019020741,0.0677873473406,0.291130046743,0.0,0.0,0.0
1609059065586577892,251,1609059065586577892,-0.293043184497,0.218745271654,0.114502341445,0.999886244259,0.00440296379921,0.00873200673171,-0.0114832273069,-0.0117145174876,0.0829722184883,0.443605287966,0.0,0.0,0.0
1609059065786823988,252,1609059065786823988,-0.314307862598,0.227036229961,0.237550234156,0.999844248422,0.00452967552302,0.00565462349601,-0.0160930472546,0.0168735659795,0.0623193484198,0.562957583109,0.0,0.0,0.0
1609059065986881971,253,1609059065986881971,-0.311041510556,0.235154655302,0.358925824917,0.99984259276,0.00453637047734,0.00493981869228,-0.0164258709562,0.0504478255604,0.0356577786049,0.602858596827,0.0,0.0,0.0
1609059066186893940,254,1609059066186893940,-0.305579948924,0.233224242375,0.487516573967,0.999837955394,0.00422367332153,0.00789675254464,-0.0156161722561,0.0731669642074,0.000359341544087,0.59524373984,0.0,0.0,0.0
1609059066386992931,255,1609059066386992931,-0.278366391742,0.232981011617,0.598111721827,0.99989644965,0.00420867400929,0.0088652113738,-0.0105254485355,0.0885005294194,-0.00548468640374,0.513632664761,0.0,0.0,0.0
1609059066587016106,256,1609059066587016106,-0.273966936731,0.218294302252,0.716488621436,0.999924209961,0.00421676424991,0.00781154996427,-0.00853070451455,0.0769318505227,-0.0110955594173,0.504933404066,0.0,0.0,0.0
1609059066786974907,257,1609059066786974907,-0.242689934784,0.210301896153,0.817501384238,0.99989129525,0.0051883525667,0.00625361482464,-0.0123032915687,0.0914738124854,-0.016127505102,0.499591175895,0.0,0.0,0.0
1609059066987020016,258,1609059066987020016,-0.217020241094,0.206633818412,0.923834838122,0.999891870024,0.0049506834416,0.0063439269173,-0.0123082730433,0.0809169331017,-0.0189205966443,0.555524541586,0.0,0.0,0.0
1609059067187273979,259,1609059067187273979,-0.205222855505,0.185325521457,1.05629075369,0.999893142423,0.00462705395484,0.0041833184845,-0.013220966421,0.0618655570656,-0.0482238232218,0.649819974264,0.0,0.0,0.0
1609059067387289047,260,1609059067387289047,-0.190305936679,0.166520872134,1.20461008615,0.999852029455,0.00420280107031,0.00299145783255,-0.0164105709453,0.0371745410287,-0.0676421860874,0.685068673306,0.0,0.0,0.0
1609059067587430954,261,1609059067587430954,-0.170567785724,0.149524962658,1.35760571636,0.999858985493,0.00457813771229,8.62462200861e-05,-0.0161568049285,0.0314555749649,-0.0878098741608,0.779169700165,0.0,0.0,0.0
1609059067787623882,262,1609059067787623882,-0.116632038063,0.129920759837,1.494002672,0.999893165304,0.00458932835728,-0.000558283522838,-0.0138666637048,0.0505048313813,-0.0995323916063,0.77963682403,0.0,0.0,0.0
1609059067987401009,263,1609059067987401009,-0.0930940799018,0.129862532966,1.6535874322,0.999904825658,0.00470031161455,-0.00290409806454,-0.012641713154,0.0352944077082,-0.0847858302585,0.800560259052,0.0,0.0,0.0
1609059068187565088,264,1609059068187565088,-0.0855195035178,0.121184886421,1.82054332823,0.99986200653,0.00475903177072,-0.00536742095203,-0.0149836680013,0.0252289959291,-0.0839442650595,0.81207853929,0.0,0.0,0.0
1609059068387605906,265,1609059068387605906,-0.00636931128046,0.125153982724,1.99176594706,0.999795938509,0.00397019893293,-0.00747470289784,-0.0183425101482,0.0639804987316,-0.0937016986503,0.80883866695,0.0,0.0,0.0
1609059068587646961,266,1609059068587646961,0.00170850201439,0.106039746874,2.15413342797,0.999802552524,0.00382815723411,-0.00634384647314,-0.0184379172186,0.0586678947906,-0.111751942914,0.792107059667,0.0,0.0,0.0
1609059068788171053,267,1609059068788171053,0.0114134728473,0.0905234803891,2.31374936941,0.999843077105,0.00426301262881,-0.00610168291504,-0.0160753648345,0.0418764289787,-0.132779121358,0.785980243257,0.0,0.0,0.0
1609059068987698078,268,1609059068987698078,0.0439643488202,0.0703401037512,2.46878083519,0.999846660199,0.0041334829827,-0.00850042093501,-0.0147415484658,0.0487629805508,-0.142280725919,0.796274801493,0.0,0.0,0.0
1609059069188446045,269,1609059069188446045,0.0615676597206,0.0432650159509,2.62430209993,0.999885678376,0.00431951768621,-0.00817417939682,-0.0119647288727,0.0485693615067,-0.153655857037,0.819786803316,0.0,0.0,0.0
1609059069387886047,270,1609059069387886047,0.0700355490235,0.0139396430262,2.78157684444,0.999925415967,0.00467789298371,-0.00726637484524,-0.0086301573617,0.045876089496,-0.145573788408,0.862281447049,0.0,0.0,0.0
1609059069588641882,271,1609059069588641882,0.0988978855314,-0.0158044261088,2.94928767827,0.999927329112,0.00483654422294,-0.00526913211105,-0.00970466805067,0.0436534048716,-0.134987977749,0.857915737897,0.0,0.0,0.0
1609059069788043976,272,1609059069788043976,0.0799731666954,-0.0429098873882,3.10725617514,0.999892928331,0.00459036796186,-0.004015085746,-0.0133018600989,0.0194891165725,-0.136113247883,0.891208831633,0.0,0.0,0.0
1609059069988116980,273,1609059069988116980,0.066936100846,-0.0706221701894,3.27434985676,0.999888181537,0.0046137808046,-0.00424370407035,-0.0135767604993,-0.00503646802984,-0.160248769798,0.894505369189,0.0,0.0,0.0
1609059070188424110,274,1609059070188424110,0.0556945651053,-0.0963364229062,3.44151844409,0.999905996086,0.00501793556599,-0.00541495423645,-0.0115541154771,-0.0198736532475,-0.180023793218,0.907687146041,0.0,0.0,0.0
1609059070388190031,275,1609059070388190031,0.042634440629,-0.1353441552,3.60040863748,0.999948718535,0.00591093489468,-0.00504631254745,-0.00649275581568,-0.0315279809054,-0.183613930078,0.864846917162,0.0,0.0,0.0
1609059070589010000,276,1609059070589010000,0.0215079564135,-0.173779098075,3.74929488708,0.999947353794,0.00636611135823,-0.00639143582421,-0.00488997084902,-0.0305264350567,-0.16664826152,0.897101450161,0.0,0.0,0.0
1609059070788312912,277,1609059070788312912,0.0060691663197,-0.205000762543,3.88635773609,0.999938216986,0.00607441025159,-0.00469767611173,-0.00803713814381,-0.0323321974751,-0.156799097949,0.850429651135,0.0,0.0,0.0
1609059070988751888,278,1609059070988751888,-0.0109184243624,-0.233479966941,4.0293576053,0.999862562006,0.0062138865244,-0.00415881985769,-0.0147969230205,-0.0241119312595,-0.156578803921,0.844559519549,0.0,0.0,0.0
1609059071188425064,279,1609059071188425064,-0.029627781471,-0.264500742322,4.17736747526,0.999788655516,0.00692122048583,-0.00463598844994,-0.0187949093972,-0.0217783811188,-0.191984971631,0.808802904268,0.0,0.0,0.0
1609059071388530970,280,1609059071388530970,-0.0434632599333,-0.29581694354,4.28879127617,0.999841905855,0.00706934301923,-0.00427295548866,-0.0157457783937,-0.00725781744169,-0.227131020631,0.786558461237,0.0,0.0,0.0
1609059071588512897,281,1609059071588512897,-0.0604238376346,-0.328841693652,4.37547391444,0.999925109379,0.00736523239112,-0.00190342805415,-0.00958675889146,0.00263143913322,-0.233233407379,0.720619031666,0.0,0.0,0.0
1609059071788702965,282,1609059071788702965,-0.0741370017472,-0.365069976712,4.45168785126,0.999954183942,0.00776718685525,0.000735773445119,-0.00554612147105,0.00582934326718,-0.216113666329,0.613909110291,0.0,0.0,0.0
