%time,field.header.seq,field.header.stamp,field.pose.pose.position.x,field.pose.pose.position.y,field.pose.pose.position.z,field.pose.pose.orientation.x,field.pose.pose.orientation.y,field.pose.pose.orientation.z,field.pose.pose.orientation.w,field.twist.twist.linear.x,field.twist.twist.linear.y,field.twist.twist.linear.z,field.twist.twist.angular.x,field.twist.twist.angular.y,field.twist.twist.angular.z
1609055139076829910,14,1609055139076829910,0.0116223201862,-0.00389259212746,-0.00383967848356,0.999491554138,-0.000159402498229,0.0318779823388,-0.000634066510048,0.00155595606901,-0.00043829018398,-0.00109491072281,0.0,0.0,0.0
1609055139276810884,15,1609055139276810884,0.0125103610807,-0.0041743615519,-0.00415799208805,0.999491978555,-0.000172690533299,0.031865257412,-0.000600293044418,0.00224757869894,-0.000477837892777,-0.00192660053788,0.0,0.0,0.0
1609055139476850986,16,1609055139476850986,0.0129780295085,-0.00442391651972,-0.00428270638465,0.999492180332,-0.000127639771866,0.0318582465842,-0.000645977805449,0.000881976854296,-0.000625377236489,-0.00140519619781,0.0,0.0,0.0
1609055139676968098,17,1609055139676968098,0.0129509342098,-0.00456929525806,-0.00435053698914,0.999489641441,-0.000108531726575,0.031937225469,-0.000677127294502,0.000717193875426,-0.000474637710205,-0.00119282536985,0.0,0.0,0.0
1609055139877058029,18,1609055139877058029,0.0134403954155,-0.0048614420894,-0.00461157936099,0.999491727491,-7.47719517286e-05,0.0318714361155,-0.000701887374176,0.000538303601534,-0.000673306473834,-0.00111153565958,0.0,0.0,0.0
1609055140077013016,19,1609055140077013016,0.0139093292955,-0.00513114080632,-0.004665753171,0.999491100875,-7.95371567058e-05,0.0318913706917,-0.000688055916569,0.000440167603109,-0.00133139797293,-0.000913631706558,0.0,0.0,0.0
1609055140278595924,20,1609055140278595924,0.0141081018716,-0.00533227292348,-0.00501739082394,0.999489344944,-5.53366085042e-05,0.0319457547203,-0.000717660895165,0.000561723096016,-0.000797812188981,-0.00251459489887,0.0,0.0,0.0
1609055140477235079,21,1609055140477235079,0.0145216555181,-0.00575133353513,-0.00546279418115,0.999492031488,-3.90118713143e-05,0.0318619064816,-0.000704545870575,1.57974821927e-05,-0.00252891744095,-0.00295334480019,0.0,0.0,0.0
1609055140677253962,22,1609055140677253962,0.0145615287025,-0.00610783512356,-0.00559875516015,0.999489496678,-2.35038222109e-05,0.0319407433115,-0.00073102280145,-0.000500568488045,-0.00289518008964,-0.00327022677032,0.0,0.0,0.0
1609055140877356052,23,1609055140877356052,0.0149138038628,-0.00634320800853,-0.00578502007922,0.999490462615,-2.08960118561e-05,0.0319109474027,-0.000711435940783,0.000615762306849,-0.00210088252284,-0.00267603404298,0.0,0.0,0.0
1609055141077456951,24,1609055141077456951,0.0154287316103,-0.00649543084777,-0.00577242291726,0.999492085864,-2.23751671326e-05,0.0318598862787,-0.00071933419392,0.000321580130849,-0.00196387546766,-0.00215039688661,0.0,0.0,0.0
1609055141277575970,25,1609055141277575970,0.0155196896804,-0.0066941290816,-0.00599656554238,0.999489062126,-1.89577739277e-05,0.0319539427935,-0.000748245017887,-0.000297795410042,-0.00338821295072,-0.00116289312916,0.0,0.0,0.0
1609055141477452993,26,1609055141477452993,0.0161561334572,-0.00683131343352,-0.0057856225859,0.999491425756,-2.59265145935e-05,0.0318804537878,-0.000725143776001,0.000328294001795,-0.00421783155696,-0.00167684874093,0.0,0.0,0.0
1609055141677557945,27,1609055141677557945,0.0171338828265,-0.00697696332831,-0.00577660082936,0.99949178002,-4.82089862949e-05,0.0318685864629,-0.000756666630507,-0.000949139172025,-0.00279505862659,-0.000867065312517,0.0,0.0,0.0
1609055141877644062,28,1609055141877644062,0.0178165082467,-0.00690028708206,-0.00548953096101,0.999489871526,-8.94469587701e-05,0.0319283047586,-0.000756353609907,-9.98947650003e-05,-0.0026403448683,-0.00111924666621,0.0,0.0,0.0
1609055142077738047,29,1609055142077738047,0.0179548376257,-0.00709190481387,-0.00574557903361,0.999491737282,-3.36892437749e-05,0.0318693768444,-0.000780250045652,-3.520507234e-05,-0.00115094290343,-2.54647844252e-05,0.0,0.0,0.0
1609055142277686119,30,1609055142277686119,0.0187456772335,-0.00730199901711,-0.00581418990029,0.999491447942,-4.83635369489e-05,0.0318785822469,-0.000774044971587,-0.000608421281901,-0.000813647996689,0.000250840431817,0.0,0.0,0.0
1609055142477751970,31,1609055142477751970,0.0189543687649,-0.00703558505876,-0.00561737572314,0.999490533078,-7.53682521876e-05,0.0319072224934,-0.000773149244485,0.000850844733631,0.000442184807275,-0.000518768448667,0.0,0.0,0.0
1609055142677815914,32,1609055142677815914,0.0202733378759,-0.0074924747106,-0.00587979319348,0.999492354788,-0.000116525336785,0.0318520380788,-0.000683236396161,0.00110934694034,-0.000881528286684,-0.000650146674219,0.0,0.0,0.0
1609055142877923012,33,1609055142877923012,0.0205987357852,-0.0074106716733,-0.00525000632163,0.999491681526,-8.4710531584e-05,0.0318717664503,-0.000749591290075,0.00219790696987,-0.00142746136481,0.000755041337471,0.0,0.0,0.0
1609055143077991009,34,1609055143077991009,0.0210791405974,-0.00755746805027,-0.00505094505432,0.999491059624,-0.000110402396206,0.0318919999779,-0.000714058913642,0.00232233496434,-0.00216674423539,9.50158640378e-05,0.0,0.0,0.0
1609055143278220892,35,1609055143278220892,0.0209912494105,-0.00769998292808,-0.00496554920249,0.99949071075,-0.000106964396462,0.0319029270171,-0.00071479414374,0.00122795148898,-0.00240930703043,0.000583664204871,0.0,0.0,0.0
1609055143478091002,36,1609055143478091002,0.0207244195583,-0.00795254244532,-0.00507372603134,0.999488265106,-0.000119295855385,0.0319793671909,-0.000716769172178,0.000392569141413,-0.00347149092443,-0.000203139937713,0.0,0.0,0.0
1609055143678231955,37,1609055143678231955,0.0209235528932,-0.00830602691951,-0.00540428177432,0.999487580838,-0.000142955888646,0.0320011921253,-0.000692110432845,0.000767190777495,-0.0041202304578,-0.000711650634259,0.0,0.0,0.0
1609055143878171921,38,1609055143878171921,0.0213904698176,-0.00875115158034,-0.00609303745823,0.999487758351,-0.000150200272601,0.0319958109148,-0.000682956663746,-3.13409467682e-05,-0.00375015226885,-0.0012310843717,0.0,0.0,0.0
1609055144078373909,39,1609055144078373909,0.0223670151738,-0.00919374746841,-0.00652991860345,0.999484612071,-0.000176224165707,0.032094496277,-0.000649990459605,6.94415525706e-06,-0.00300855556818,-0.000755043657989,0.0,0.0,0.0
1609055144279032946,40,1609055144279032946,0.0231962048764,-0.00927688596754,-0.00635498955147,0.99948305411,-0.000232943359414,0.0321430689749,-0.000627217538368,0.0010758775374,-0.00235132049116,-0.00250810809585,0.0,0.0,0.0
1609055144478470087,41,1609055144478470087,0.0231678099777,-0.00910777552704,-0.00611673859946,0.999488835364,-0.000157169098752,0.0319632952025,-0.000625332888846,0.00152108670024,-0.00130378308025,-0.00126847199748,0.0,0.0,0.0
1609055144678435087,42,1609055144678435087,0.0228286388226,-0.00918591008272,-0.00640984608501,0.99948996373,-0.000183981821336,0.0319277979372,-0.000627911855384,0.00148897774555,-0.0011345005424,-0.00178186601103,0.0,0.0,0.0
1609055144878489971,43,1609055144878489971,0.0233060199675,-0.00920958325465,-0.00637302879527,0.999490410831,-0.000220913234426,0.0319137322896,-0.000619310303037,0.00138539339295,-0.000739289218653,-0.0019831026127,0.0,0.0,0.0
1609055145079149961,44,1609055145079149961,0.0247773318216,-0.00945097635807,-0.00614391471626,0.999489081193,-0.000164036373639,0.0319555626664,-0.000625845531158,0.00211707037302,-0.00130309665405,-0.00171348049037,0.0,0.0,0.0
1609055145278774977,45,1609055145278774977,0.0260142386669,-0.00951640667768,-0.00564966119944,0.999491575402,-0.000171070070459,0.0318767245157,-0.000660203537965,0.00314231194053,0.000682290239539,-0.00171685210277,0.0,0.0,0.0
1609055145478740931,46,1609055145478740931,0.0265056064672,-0.0091078661302,-0.0049958881327,0.999492670565,-0.000266345308931,0.0318413018298,-0.000679738869819,0.00278900617818,0.000879058089183,-0.000556584915315,0.0,0.0,0.0
1609055145678725004,47,1609055145678725004,0.0272857245655,-0.00962063600891,-0.00479720711043,0.99949140914,-0.00021957529428,0.0318805059797,-0.00071286743035,0.00285362013088,-0.000342842439599,-4.97206417301e-05,0.0,0.0,0.0
1609055145878778934,48,1609055145878778934,0.0193025091629,-0.00688385052378,-0.00348173058327,0.999493587574,-0.000287831679621,0.031813953289,-0.00059827055036,0.000538285889447,-0.000298246015238,-1.16270370295e-05,0.0,0.0,0.0
1609055146079401970,49,1609055146079401970,0.0238060974066,-0.0085381386229,-0.00382207001533,0.999492911004,-0.000303573146434,0.0318337292205,-0.00066511708121,0.000239277187568,-0.00293968856904,-1.2383049432e-05,0.0,0.0,0.0
1609055146279058933,50,1609055146279058933,0.0252502387445,-0.00943036945918,-0.00410918557647,0.999492191538,-0.000316383696847,0.031856789544,-0.000635544373872,0.000714868968288,-0.0028718697153,-6.46979849028e-05,0.0,0.0,0.0
1609055146478965044,51,1609055146478965044,0.024629470966,-0.00911401910207,-0.00402727744716,0.999493508141,-0.000303359236097,0.0318155255933,-0.000638347800597,0.000845388466699,-0.00203860822559,-0.000323405423943,0.0,0.0,0.0
1609055146679033995,52,1609055146679033995,0.0239077591854,-0.0090313552658,-0.00414683980279,0.999493094927,-0.000314639679442,0.0318290537686,-0.000604592399513,0.000302222084014,-0.00205330795667,-0.000454338128029,0.0,0.0,0.0
1609055146879306078,53,1609055146879306078,0.0243417395332,-0.00936586204433,-0.00428729563679,0.999493413606,-0.000342831739322,0.0318194496578,-0.000566788289579,0.0010834323043,-0.000904581284032,-6.24529708857e-05,0.0,0.0,0.0
1609055147079272985,54,1609055147079272985,0.0234835604512,-0.00878374210507,-0.00394523522366,0.999496015433,-0.000336303506281,0.0317379412532,-0.000552374502939,0.00155972571532,-0.00118749358761,-0.000101630616793,0.0,0.0,0.0
1609055147279274940,55,1609055147279274940,0.0234369841663,-0.00840302207722,-0.00408350844219,0.999494006526,-0.000343598469702,0.0318008633923,-0.000563866833108,0.00126061748056,-0.000549847995381,-0.000443966202832,0.0,0.0,0.0
1609055147479340076,56,1609055147479340076,0.0237010593929,-0.00810560088625,-0.00415669713631,0.999492754928,-0.00038682362831,0.0318401006669,-0.000539633584249,0.0014970119918,0.000793196046163,3.76122513746e-05,0.0,0.0,0.0
1609055147679490089,57,1609055147679490089,0.0249669328826,-0.00832009250503,-0.00408768415101,0.999494491233,-0.000432787662129,0.0317852948777,-0.000519344826868,0.000946418831154,0.000690678004497,0.00111125922986,0.0,0.0,0.0
1609055147879354000,58,1609055147879354000,0.0255974662075,-0.00830285226216,-0.00386559869694,0.999493689058,-0.000445388395506,0.0318104130769,-0.000514569542083,0.00138275499696,0.0012538671427,0.00168938532711,0.0,0.0,0.0
1609055148079462051,59,1609055148079462051,0.0249533961348,-0.00794706992914,-0.00416827880674,0.999492526461,-0.000381819144748,0.0318475262911,-0.000528045030845,0.000926942856662,0.00227445296513,0.000433439937497,0.0,0.0,0.0
1609055148279509068,60,1609055148279509068,0.0276249285981,-0.00846503108593,-0.0036476530746,0.999494128774,-0.000452985274329,0.0317962175261,-0.000530943498226,0.00233762429743,0.001200437518,0.000619902669807,0.0,0.0,0.0
1609055148479834080,61,1609055148479834080,0.0228205339838,-0.00695558540105,-0.00312167814731,0.999491513459,-0.000449594819183,0.031877685874,-0.000570552693476,0.00221559820758,0.000314623773375,-0.000405881127265,0.0,0.0,0.0
1609055148679661989,62,1609055148679661989,0.0229894748665,-0.00705283659272,-0.00320581007666,0.99949133727,-0.000463191746128,0.0318830678209,-0.000567593522045,0.00159350348125,0.000727069312348,0.00050431826563,0.0,0.0,0.0
1609055148879724979,63,1609055148879724979,0.0239701575722,-0.00739017123817,-0.00336538658843,0.999488354095,-0.000442954567788,0.0319756968002,-0.000623405706835,0.00159266680206,-5.10600633479e-05,0.000500791219972,0.0,0.0,0.0
1609055149080260038,64,1609055149080260038,0.022167978265,-0.00684754443141,-0.00361428266427,0.999482201803,-0.000457083310783,0.0321691932216,-0.000512211723397,0.000890659325965,0.00152485704799,-0.000548897661774,0.0,0.0,0.0
1609055149279864073,65,1609055149279864073,0.0251351043396,-0.00774276546441,-0.00353625812089,0.999481904521,-0.000398967272936,0.0321767549378,-0.000647921738344,0.00202434061505,-2.41087067793e-05,0.000693142224543,0.0,0.0,0.0
1609055149479985952,66,1609055149479985952,0.0265682195869,-0.00819292103986,-0.00384500137124,0.99948236329,-0.000367681116904,0.0321622034861,-0.000680403781122,0.00292858619577,0.000590501899941,0.00189806316705,0.0,0.0,0.0
1609055149680351973,67,1609055149680351973,0.02691515291,-0.00835786189513,-0.00381089598119,0.999482545962,-0.000370770669601,0.032156367008,-0.000686226701225,0.00209404068273,0.00157973724427,0.0025985742661,0.0,0.0,0.0
1609055149880215883,68,1609055149880215883,0.027584518927,-0.0084553510301,-0.00375924777552,0.999478772449,-0.000453447958549,0.0322730182847,-0.000655819352652,0.00169993922116,0.000955610222299,0.00129128123927,0.0,0.0,0.0
1609055150080406904,69,1609055150080406904,0.0276475355253,-0.00844343136361,-0.00370740324643,0.999481347614,-0.000409157644227,0.0321933788048,-0.000674331338114,0.00158522243337,-0.000150967998737,0.000425882131514,0.0,0.0,0.0
1609055150280275106,70,1609055150280275106,0.0278511751248,-0.008575397474,-0.00379700308163,0.999483103515,-0.000388832108263,0.0321394139258,-0.000657776361841,0.00068254736231,0.00123410951799,0.000870576145424,0.0,0.0,0.0
1609055150480375051,71,1609055150480375051,0.0282102103852,-0.00862219925936,-0.00370399530075,0.999481796369,-0.000464334379036,0.0321795639499,-0.000631494466494,0.00188009792807,0.000402794495348,-0.000548463622817,0.0,0.0,0.0
1609055150680381060,72,1609055150680381060,0.0280587639879,-0.00871092224593,-0.00390597543832,0.999484722505,-0.000461439739421,0.0320892848154,-0.000595274687758,0.00118313966423,-0.000828545077843,-0.000976410708085,0.0,0.0,0.0
1609055150880439043,73,1609055150880439043,0.0277722937652,-0.00881031433186,-0.00400660140448,0.99948371759,-0.000452022648933,0.0321209256334,-0.000583167258259,-0.000335344298598,-0.00121188643174,-0.00095382744715,0.0,0.0,0.0
1609055151080429077,74,1609055151080429077,0.0274644868738,-0.00872196919764,-0.00398918731433,0.999480166552,-0.00049152550959,0.0322304300763,-0.000595356734825,0.000187676418947,6.23679131652e-05,-0.00178676923663,0.0,0.0,0.0
1609055151280561924,75,1609055151280561924,0.0277585022532,-0.00884249388194,-0.00415075835552,0.999480576956,-0.000540125122337,0.0322172260623,-0.000578702587317,-0.000514396114181,-0.000872313408099,-0.000830859572172,0.0,0.0,0.0
1609055151480565071,76,1609055151480565071,0.0284525923937,-0.00909995294885,-0.00418331391007,0.999470502979,-0.000609723040733,0.032527469562,-0.000552843925128,-0.00122245902748,-0.00144654719802,-0.000304423510856,0.0,0.0,0.0
1609055151680648088,77,1609055151680648088,0.0290978161173,-0.0092923490888,-0.00423255884698,0.999466333185,-0.000623922344381,0.0326555226676,-0.000525727639804,0.00128224775173,-0.00187293270708,-0.0016918713665,0.0,0.0,0.0
1609055151880708933,78,1609055151880708933,0.030615904095,-0.00974777606675,-0.00426735341332,0.999472066468,-0.000671679484351,0.032479174258,-0.000490343821577,0.000306232111791,-0.00229219184375,-0.00147207885556,0.0,0.0,0.0
1609055152080764055,79,1609055152080764055,0.0312898869392,-0.00976713323724,-0.00392356057085,0.999463586146,-0.000703813719701,0.0327385345593,-0.000482668622017,0.000887217260225,-0.00330871064578,-0.000996051958147,0.0,0.0,0.0
1609055152280823946,80,1609055152280823946,0.0324064208534,-0.00993295781005,-0.00371580952161,0.999462342262,-0.00065192287548,0.0327774127544,-0.000492555249192,0.00228594711817,-0.00280411531855,-0.00182847765049,0.0,0.0,0.0
1609055152480882883,81,1609055152480882883,0.0333041916996,-0.0101106391829,-0.00353076404056,0.999467502138,-0.00071949166975,0.0326188736696,-0.000451200704415,0.0015896975065,-0.00180631118055,-0.000399662479544,0.0,0.0,0.0
1609055152680964947,82,1609055152680964947,0.0333129548418,-0.00995548701906,-0.00319805404697,0.999465076772,-0.000774246176161,0.0326919759989,-0.000442222777347,0.00236457430585,-0.00195616163546,-0.000266065553411,0.0,0.0,0.0
1609055152880937099,83,1609055152880937099,0.0339291678606,-0.0100140241959,-0.00313988098153,0.999466679615,-0.000723498227908,0.0326440248963,-0.000447803516898,0.00179402183792,-0.00218170719317,0.000140393820265,0.0,0.0,0.0
1609055153081029892,84,1609055153081029892,0.0338771470573,-0.0100070742857,-0.00307227081685,0.999465591681,-0.000692291358477,0.0326779798184,-0.000448792047794,0.00169459553442,-0.00171996629062,6.91218998869e-05,0.0,0.0,0.0
1609055153281028032,85,1609055153281028032,0.0341757302372,-0.0101405566347,-0.00328768785719,0.999466517387,-0.000752716267153,0.032648326889,-0.000448097892185,0.00233086047832,-0.000163929233288,-0.000587956809424,0.0,0.0,0.0
1609055153481117010,86,1609055153481117010,0.0335460237782,-0.0101471590334,-0.00364328311661,0.99947118426,-0.000724858032957,0.0325060664961,-0.000426679574479,0.00016727838234,-0.000911012110879,-0.00105312884684,0.0,0.0,0.0
1609055153681132078,87,1609055153681132078,0.0328969211495,-0.0101067566958,-0.00379198854491,0.999468354139,-0.000651482165335,0.032594399113,-0.000435651469028,0.000615135812356,-0.00141414322436,-0.0004471566048,0.0,0.0,0.0
1609055153881294012,88,1609055153881294012,0.0326444811096,-0.0102097552573,-0.00411820114711,0.999469804212,-0.000640861418831,0.0325501753458,-0.000431102435226,0.000692205617877,-4.09731818729e-05,-0.0011142130811,0.0,0.0,0.0
1609055154081337929,89,1609055154081337929,0.0327952445221,-0.010304439997,-0.00439160774897,0.999472222281,-0.000707096877687,0.0324747518213,-0.000409141195229,-0.00152921021883,0.00124541427842,-0.000595029719543,0.0,0.0,0.0
1609055154281394005,90,1609055154281394005,0.0338974526026,-0.010413141035,-0.00410413381622,0.999465175662,-0.000735468009234,0.032690605115,-0.000382181150198,-0.000289681242433,0.000576464128302,-0.000603037626763,0.0,0.0,0.0
1609055154481405973,91,1609055154481405973,0.034907976953,-0.0105539543474,-0.00386241067258,0.999467166612,-0.000696660094226,0.0326304788732,-0.000386493059026,0.00033363395944,-8.86917190896e-05,-0.00120951796456,0.0,0.0,0.0
1609055154681519032,92,1609055154681519032,0.0347876466291,-0.0106806786408,-0.00420200058627,0.999471284689,-0.000712961932936,0.0325041976755,-0.000346266028048,-0.0014130637625,-0.000117448878813,0.000298366220418,0.0,0.0,0.0
1609055154881562948,93,1609055154881562948,0.036562616651,-0.0112147681848,-0.00415730277403,0.999463383918,-0.000772699512104,0.0327450487572,-0.000330037105901,0.00140067602773,0.00103438648247,-0.000376226159272,0.0,0.0,0.0
1609055155081635952,94,1609055155081635952,0.0377490569775,-0.0114871896913,-0.00390883671802,0.999470448368,-0.000650000616809,0.0325310345568,-0.000363495024029,0.00315308369039,0.00168948023425,0.000613562388714,0.0,0.0,0.0
1609055155281680107,95,1609055155281680107,0.0349147320542,-0.0101367495551,-0.00368175784461,0.99946932515,-0.000653201120547,0.0325661742431,-0.000292757294662,0.000242367125907,0.000950003494575,0.00251822447222,0.0,0.0,0.0
1609055155481681108,96,1609055155481681108,0.0354011424037,-0.0100869130289,-0.00307439424938,0.999463003998,-0.000708448703879,0.0327577813366,-0.000359862132208,0.00253734851249,0.00146796335134,0.00211921277199,0.0,0.0,0.0
1609055155681778908,97,1609055155681778908,0.0295019664551,-0.00903736208918,-0.00311587137745,0.999470050844,-0.000399777260908,0.0325470986713,-0.000379489987718,0.00278957564667,0.000342660367697,0.00198647102659,0.0,0.0,0.0
1609055155881844997,98,1609055155881844997,0.0336054744538,-0.00997692351028,-0.00243397263308,0.999468126288,-0.000574872914596,0.0326033637667,-0.000393353678828,0.00172124277706,-0.000191304135784,0.00249085151904,0.0,0.0,0.0
1609055156081878901,99,1609055156081878901,0.03651435726,-0.00977625520911,-0.000768629648659,0.999467576057,-0.000809519239534,0.0326144639584,-0.000453684286476,0.00438065685228,9.89737394335e-05,0.00134605777464,0.0,0.0,0.0
1609055156281980038,100,1609055156281980038,0.0336557369442,-0.00930886525132,-0.00207558085649,0.999472079662,-0.000835461818131,0.0324764745645,-0.00037759726745,0.000781364860438,-8.48649368113e-06,-0.000593925255135,0.0,0.0,0.0
1609055156482012033,101,1609055156482012033,0.0325191820214,-0.00940450963436,-0.00253615750116,0.999468026478,-0.000713620512262,0.0326032328033,-0.000428957968304,-0.000361996006721,0.000731462036855,-0.000333459703703,0.0,0.0,0.0
1609055156682071924,102,1609055156682071924,0.0318999629386,-0.00945786843748,-0.00289790113869,0.999466921722,-0.000663841016851,0.0326377623605,-0.000456252595303,0.000891184647058,2.274776985e-05,-0.00259816928822,0.0,0.0,0.0
1609055156882119894,103,1609055156882119894,0.0334513761634,-0.0097052282394,-0.00294146070359,0.999472566615,-0.000689592069197,0.0324644687821,-0.000413900699947,-0.000463686169454,-0.00217652609259,-0.0028450386746,0.0,0.0,0.0
1609055157082206011,104,1609055157082206011,0.034776228888,-0.0104076055487,-0.0030890688755,0.999465595981,-0.000652123375007,0.0326798123288,-0.000356442216247,-0.000444737338939,-0.00224136237512,-0.00177035329141,0.0,0.0,0.0
1609055157282342911,105,1609055157282342911,0.0348496388479,-0.0103741713254,-0.00357208929546,0.999467910312,-0.000609125893519,0.0326107511356,-0.000253244278196,0.00209884937648,0.000951513055961,-0.00308149227807,0.0,0.0,0.0
1609055157482376099,106,1609055157482376099,0.0372426193927,-0.0106846691855,-0.00312693389763,0.999471958393,-0.000593679710917,0.0324865283903,-0.000278216220727,0.000552324240674,0.00154473422508,-0.000912724498102,0.0,0.0,0.0
1609055157682424068,107,1609055157682424068,0.0364205770303,-0.0100514464623,-0.00262719211506,0.999463001223,-0.000673551700993,0.0327595347509,-0.000261528733928,0.000923576667592,0.00138036212977,0.0013226433237,0.0,0.0,0.0
1609055157882492065,108,1609055157882492065,0.0367742733702,-0.0099885971928,-0.00253319000114,0.999465477071,-0.000653387501331,0.0326841547087,-0.000281527985212,0.00199315167577,0.00189753040948,0.00141631365652,0.0,0.0,0.0
1609055158082509041,109,1609055158082509041,0.0368036392361,-0.0101463752855,-0.00208041585315,0.99946551748,-0.000659723110077,0.0326823326215,-0.000330557164289,-0.000180144570909,0.00106256163196,0.00171377256299,0.0,0.0,0.0
1609055158282591105,110,1609055158282591105,0.0365446216853,-0.0102407126986,-0.00194174186088,0.999459758328,-0.000714098652179,0.0328573634061,-0.000274256004015,-0.000325478454568,-0.000190679911753,0.000771576355738,0.0,0.0,0.0
1609055158482624054,111,1609055158482624054,0.0362772142604,-0.010255971839,-0.00195586368091,0.999466936514,-0.000693246561264,0.0326386689973,-0.000281975668848,-0.00148168640013,0.00090331446529,0.000942340908836,0.0,0.0,0.0
1609055158682637930,112,1609055158682637930,0.0363121455322,-0.0100808054622,-0.00198253543907,0.999466253863,-0.000762750921624,0.0326582537989,-0.000253097837133,-0.000822162327789,0.000552628110852,0.000816281883604,0.0,0.0,0.0
1609055158882735014,113,1609055158882735014,0.0361185867855,-0.0101329577213,-0.00205000356857,0.999463556927,-0.000692282500387,0.0327426854915,-0.000188855703772,0.000565899563701,0.00147216342355,-0.00082550418802,0.0,0.0,0.0
1609055159082766056,114,1609055159082766056,0.0369953190599,-0.0101649078764,-0.00225524981713,0.999470685549,-0.000675602190225,0.0325243758133,-0.000239308599495,0.00106941897792,0.00175057392302,-0.000140387127465,0.0,0.0,0.0
1609055159282891035,115,1609055159282891035,0.0366505368453,-0.0100292385776,-0.0021293810183,0.99946490992,-0.000699393705292,0.0327008408441,-0.000244326791707,-0.000816090996736,0.00285421930851,0.00127996034057,0.0,0.0,0.0
1609055159482952118,116,1609055159482952118,0.0365278765378,-0.0101190864593,-0.00217006980132,0.999463395704,-0.000745863510749,0.0327466694531,-0.000141331606397,0.000586355658714,0.00193327288748,-0.000295173978853,0.0,0.0,0.0
1609055159682960987,117,1609055159682960987,0.0366473574361,-0.0102765889509,-0.00205202291535,0.999468061002,-0.000704263477446,0.0326039563663,-0.000284743244701,-0.000636463884299,0.00127326291886,0.00157242258341,0.0,0.0,0.0
1609055159882992983,118,1609055159882992983,0.0366040618313,-0.0104331673178,-0.00183046433071,0.999460765702,-0.000659335237404,0.0328279046458,-0.000267909016753,1.53991212148e-05,0.000670059738069,-0.000145252955864,0.0,0.0,0.0
1609055160083081007,119,1609055160083081007,0.0369464049625,-0.0104458822108,-0.0019326033039,0.999467012054,-0.000712135934423,0.0326361748945,-0.000254491176398,0.00119573177129,0.0013138655123,0.000533230631794,0.0,0.0,0.0
1609055160283143997,120,1609055160283143997,0.036961220008,-0.0104080649748,-0.00189163639031,0.999468885339,-0.00073755554502,0.0325779826749,-0.000279813630795,-0.00116783448989,0.000461350270852,0.00124413617983,0.0,0.0,0.0
1609055160483222008,121,1609055160483222008,0.0369891580146,-0.0104195588318,-0.00189567044553,0.999464028431,-0.000765887318389,0.0327262008993,-0.000255076843959,0.000293033471816,0.000920620904449,-0.000308794448674,0.0,0.0,0.0
1609055160683373928,122,1609055160683373928,0.0371161580302,-0.010470662553,-0.00197719579674,0.999465234437,-0.000816930287689,0.0326887062506,-0.000162052338265,0.000522828318031,0.00113203006182,0.000352591652944,0.0,0.0,0.0
1609055160883251905,123,1609055160883251905,0.0369741002545,-0.010492867579,-0.00191753625024,0.999468117178,-0.000749326021893,0.0326016422674,-0.000232760906051,-0.00107843529112,0.000857055157855,0.00144515672899,0.0,0.0,0.0
1609055161083379984,124,1609055161083379984,0.0369325344148,-0.0104468603323,-0.00187003681821,0.99946067967,-0.000795460480728,0.0328280143903,-0.000196233133646,-0.00071983965037,0.00120675438797,-0.000371800824045,0.0,0.0,0.0
1609055161283437014,125,1609055161283437014,0.0369457503354,-0.0104575094555,-0.00185356439944,0.999465574545,-0.000756285099342,0.0326796264174,-0.000188014950452,2.91015090756e-05,0.00142173267602,0.000926930231178,0.0,0.0,0.0
1609055161483490944,126,1609055161483490944,0.0370420095094,-0.0104786155857,-0.00177960303741,0.999468047538,-0.000785911359049,0.0326033794919,-0.000154726560467,-0.00063276883467,0.00173594274109,0.00115753532471,0.0,0.0,0.0
1609055161683612108,127,1609055161683612108,0.0370487190558,-0.010454296771,-0.00178556147031,0.999463837377,-0.000910115921416,0.0327289262239,-0.000163868734388,0.000516713082645,0.00107928688914,-0.000178181722417,0.0,0.0,0.0
1609055161883737087,128,1609055161883737087,0.0373523288742,-0.0104668065488,-0.00196749719318,0.99946655091,-0.000987533153257,0.0326440814735,-4.83161325039e-05,0.000126423738928,-0.00102469730645,0.00129440872388,0.0,0.0,0.0
1609055162083658934,129,1609055162083658934,0.0371529081833,-0.0104407478355,-0.0018712767322,0.999467855498,-0.000500017380587,0.0326145454029,-0.000217342109299,-0.000766868960967,-0.00458773633523,0.00221288863836,0.0,0.0,0.0
1609055162283731937,130,1609055162283731937,0.036921435699,-0.0105569341623,-0.00172811527946,0.999465116474,-0.000449808376051,0.0326994047347,-0.000165993854121,-0.00168516591038,0.0062999645659,0.0013481348386,0.0,0.0,0.0
1609055162483791113,131,1609055162483791113,0.0373050001311,-0.0104721506846,-0.00189132061026,0.99946528875,-0.00124008014669,0.0326741183822,2.78122658102e-05,0.00124968439435,0.00701871758188,0.000168934964085,0.0,0.0,0.0
1609055162683841944,132,1609055162683841944,0.037122531006,-0.0104314235212,-0.0018190832902,0.999458905584,-0.000711485488758,0.0328843683616,-9.03034409977e-05,-0.00187891252185,-0.00490140162834,0.000718352103207,0.0,0.0,0.0
1609055162883960962,133,1609055162883960962,0.0371617857995,-0.0105291605081,-0.00178796387243,0.999451249889,-0.000433092124262,0.0331194791101,-0.000334109453811,0.000763295322292,0.00202269825054,0.000696272928299,0.0,0.0,0.0
1609055163083995104,134,1609055163083995104,0.037313338349,-0.0105406258247,-0.00177997745085,0.999448943616,-0.000991439635618,0.0331772769667,-0.000307318915011,-0.00033487188992,0.00593530939644,0.00269284714652,0.0,0.0,0.0
1609055163284032106,135,1609055163284032106,0.0373510991367,-0.0104294936168,-0.00185709563494,0.999442451315,-0.000884376374315,0.0333763210433,-0.000159944785665,-0.000987473589024,-0.00126728129278,0.00172166933008,0.0,0.0,0.0
1609055163484050989,136,1609055163484050989,0.0371607918234,-0.0105095319423,-0.00176921684042,0.999430509298,-0.000523910685762,0.033738040478,-0.000356687049143,-0.00212571915865,-0.00188465552299,0.00179046536381,0.0,0.0,0.0
1609055163684209108,137,1609055163684209108,0.0370437775605,-0.010642224875,-0.00172530394916,0.999424293842,-0.000568556650726,0.0339224906231,0.000149167120908,-0.00012816196426,0.00101019995999,-0.00302159609901,0.0,0.0,0.0
1609055163884248972,138,1609055163884248972,0.037002782888,-0.0106404607373,-0.00175149650591,0.999480124085,-0.000740021495675,0.0322323371129,-0.000101842851927,0.006874991629,0.00652781936895,-0.00928232020048,0.0,0.0,0.0
1609055164084351063,139,1609055164084351063,0.0370489147028,-0.0110084288253,-0.00223088720488,0.999563128921,0.000145026834292,0.0295499095447,-0.000577160231891,-0.00584270864918,-0.000159563875164,0.00448749960672,0.0,0.0,0.0
1609055164284324884,140,1609055164284324884,0.0365179978383,-0.0113938829839,-0.00451615821921,0.999527341745,0.000136844629764,0.0307310204873,-0.000823867651475,-0.0133274064021,-0.00321194051184,0.00842799409432,0.0,0.0,0.0
1609055164484424114,141,1609055164484424114,0.0382474357844,-0.00874681530609,-0.00209535198318,0.999514371725,-2.67606249274e-06,0.0311506759841,-0.000809995709051,-0.00574619283207,0.00698625922212,0.0139939586879,0.0,0.0,0.0
1609055164684422016,142,1609055164684422016,0.0368679046062,-0.00934484067229,-0.000346420316066,0.999484966662,0.000596560197888,0.0320433672829,-0.00163344608283,-0.0208558949974,-0.0071069352363,0.0185705405891,0.0,0.0,0.0
1609055164884488106,143,1609055164884488106,0.0274821503326,-0.0104162889541,0.00722555479636,0.999262539714,0.00418241849018,0.0375009125976,-0.00711095314376,-0.0632447607448,0.000745626767766,0.0627654568317,0.0,0.0,0.0
1609055165084578991,144,1609055165084578991,0.00755399577082,-0.010540243976,0.0119567035458,0.998969030873,0.0150138442681,0.0416225352608,-0.010150093413,-0.0749077633209,0.0451779005147,-0.013967342182,0.0,0.0,0.0
1609055165284657001,145,1609055165284657001,0.010136140394,0.00350291995905,0.0111544432688,0.998612421069,0.0262313421336,0.0443746151295,-0.0107723121135,0.0297207933068,0.038978538931,-0.0385613682618,0.0,0.0,0.0
1609055165484740019,146,1609055165484740019,0.0271804226272,0.00520317204714,0.00149100802305,0.999117046539,0.0225387204756,0.0352892203952,-0.0034357412807,0.0288118686403,-0.0112232855931,-0.0407659792971,0.0,0.0,0.0
1609055165684704065,147,1609055165684704065,0.0150900235966,0.00545747571887,0.00598932567238,0.999157032619,0.0216726252896,0.0343926011284,-0.00571580858573,-0.0358560458262,-0.0016742092166,0.0137622555382,0.0,0.0,0.0
1609055165884814978,148,1609055165884814978,0.00292886188753,0.00284199683695,0.0142171531527,0.998873941202,0.026148385935,0.0361961912112,-0.0160295740019,-0.116213481747,-0.022369538255,0.0954333245355,0.0,0.0,0.0
1609055166084986925,149,1609055166084986925,-0.0287404692963,-0.00739362071225,0.0484219745445,0.998586150381,0.0285746134525,0.0332537345662,-0.0300562950118,-0.222378049614,-0.110721144578,0.195843678364,0.0,0.0,0.0
1609055166285012960,150,1609055166285012960,-0.0782326856957,-0.0384677348363,0.0923875836174,0.999058619477,0.0289103227296,0.013844237556,-0.0292302099825,-0.280100300903,-0.216814329192,0.215749117647,0.0,0.0,0.0
1609055166484955072,151,1609055166484955072,-0.133314320784,-0.089809975035,0.141883258474,0.999297986597,0.0292453294843,-0.000746854515486,-0.0234027112713,-0.264069829647,-0.293226369911,0.271193635026,0.0,0.0,0.0
1609055166685431957,152,1609055166685431957,-0.182797133284,-0.156618458545,0.193534024882,0.999226959193,0.0283650698877,-0.0106279042412,-0.0250590200059,-0.218209576432,-0.376264513006,0.253834734385,0.0,0.0,0.0
1609055166885471106,153,1609055166885471106,-0.215530905441,-0.23789485235,0.241400997813,0.99898960348,0.0286459315726,-0.0252574734376,-0.0236905630883,-0.126521863372,-0.449207186762,0.262588068265,0.0,0.0,0.0
1609055167085805893,154,1609055167085805893,-0.252208806554,-0.352351703124,0.315169342445,0.998934613174,0.0288219862263,-0.0354488739725,-0.00650454041939,-0.0170242166925,-0.515382617959,0.318451488372,0.0,0.0,0.0
1609055167285286903,155,1609055167285286903,-0.229875652786,-0.440916192266,0.376004264336,0.998807542584,0.0320339343122,-0.0360644776706,0.00752817242732,0.154308004737,-0.44142023919,0.383002366124,0.0,0.0,0.0
1609055167485321999,156,1609055167485321999,-0.167629091037,-0.501824626486,0.446352013862,0.999101361248,0.0322675250353,-0.0258553470742,0.00931546070975,0.28011852677,-0.344842592189,0.440341978163,0.0,0.0,0.0
1609055167685362101,157,1609055167685362101,-0.104342300153,-0.562156626515,0.541289287363,0.999239813502,0.0320644911618,-0.0210172082109,0.00706685769392,0.354726577571,-0.264876159076,0.515168760909,0.0,0.0,0.0
1609055167885400057,158,1609055167885400057,-0.0357167762387,-0.644883012927,0.667009406068,0.99917577322,0.0307400364766,-0.0255114713693,0.00721035334734,0.419118516865,-0.222959674061,0.606569545057,0.0,0.0,0.0
1609055168085549116,159,1609055168085549116,0.0462832801639,-0.633418665701,0.777211324718,0.999098710709,0.0314292267796,-0.0285283634103,0.000320069950713,0.501324222496,-0.115947736935,0.62421383623,0.0,0.0,0.0
1609055168285536051,160,1609055168285536051,0.154018637531,-0.656935957189,0.902517045593,0.999189834109,0.0320310140462,-0.0235115129713,-0.00639517873562,0.582960668322,-0.0966805077453,0.604033722533,0.0,0.0,0.0
1609055168485591888,161,1609055168485591888,0.278394666529,-0.669735392721,1.01653526789,0.999388832067,0.0315537255396,-0.0128784736171,-0.00777622414694,0.612747472502,-0.0874992303453,0.566205571462,0.0,0.0,0.0
1609055168685666084,162,1609055168685666084,0.415768823746,-0.668609645523,1.1108994966,0.999504574706,0.0303695090807,-0.00596693357044,-0.00571784611237,0.603264684333,-0.0647233903029,0.50321940672,0.0,0.0,0.0
1609055168885701895,163,1609055168885701895,0.559181492945,-0.680905807504,1.18129702997,0.999511706508,0.0302660350774,-5.65236609304e-05,-0.00776611090629,0.594147287316,-0.0601871862687,0.39344715468,0.0,0.0,0.0
1609055169085753918,164,1609055169085753918,0.662772506037,-0.697610334629,1.25403913945,0.999516271796,0.0302817353059,-0.00299369523153,-0.00642469540282,0.546377400294,-0.064061727196,0.328644897532,0.0,0.0,0.0
1609055169285878897,165,1609055169285878897,0.763900592777,-0.72081692058,1.31665866808,0.999469466188,0.0310603339815,-0.00927501567252,-0.00316478979863,0.537235373544,-0.0587157617212,0.28149840898,0.0,0.0,0.0
1609055169485946894,166,1609055169485946894,0.85915724598,-0.750463567319,1.39188684514,0.999341610658,0.0322248013084,-0.0164416862288,0.00275287884888,0.524114905027,-0.038778041933,0.292726833359,0.0,0.0,0.0
1609055169686032057,167,1609055169686032057,0.964699619561,-0.814646570114,1.47043792678,0.998720864282,0.0327642693689,-0.0385078671125,-0.000531103432751,0.572783264978,-0.0282778179153,0.247325671713,0.0,0.0,0.0
1609055169885991096,168,1609055169885991096,1.09330470784,-0.818620649006,1.51937452709,0.997775617514,0.0332805006527,-0.0576054927274,-0.00422286374834,0.756176470659,0.00806579833791,0.346451593803,0.0,0.0,0.0
1609055170086066961,169,1609055170086066961,1.26980024422,-0.811458087708,1.59323129346,0.9987328375,0.0328946927544,-0.0375651982261,-0.00628604571253,0.936155049739,0.0295901486568,0.488740029801,0.0,0.0,0.0
1609055170286103010,170,1609055170286103010,1.46992919348,-0.798068306225,1.69269986882,0.999405986621,0.0323367830319,-0.0098207538369,-0.00674975287447,0.98430508643,0.0442448213552,0.539540387965,0.0,0.0,0.0
1609055170486186981,171,1609055170486186981,1.65645063676,-0.78444204451,1.79181795036,0.999431114548,0.0320602387119,-0.00179051765186,-0.0103141850741,0.937167128951,0.0556635111152,0.440001014492,0.0,0.0,0.0
1609055170686367989,172,1609055170686367989,1.8244563077,-0.773746466306,1.88049431307,0.999319896953,0.0315769081941,-0.0159144753947,-0.0104581018881,0.913408829997,0.0308915579375,0.356072438768,0.0,0.0,0.0
1609055170886264086,173,1609055170886264086,2.01111010716,-0.766763143946,1.95139973351,0.999318382881,0.0306665823955,-0.0154955378933,-0.0134988394086,0.964914274118,0.0192779169519,0.426262764108,0.0,0.0,0.0
1609055171086381912,174,1609055171086381912,2.19448236045,-0.76241359704,2.02572809547,0.999263812331,0.0306105598999,-0.011631181861,-0.0199885616309,0.984956839886,-0.0200944742361,0.397844497053,0.0,0.0,0.0
1609055171286660910,175,1609055171286660910,2.38465194647,-0.765887243017,2.10379534633,0.999451478392,0.0310329688796,-0.00399303993177,-0.0108513968663,0.979082428461,-0.0662491501925,0.404736632714,0.0,0.0,0.0
1609055171486494064,176,1609055171486494064,2.58054594173,-0.768031777117,2.17257226427,0.999500202632,0.0312962988872,0.00442136099128,0.000581533530095,0.97113554704,-0.0487075678677,0.436643278976,0.0,0.0,0.0
1609055171686579943,177,1609055171686579943,2.76408023786,-0.772807390733,2.2632583099,0.999431957766,0.0294590161856,0.0161723005256,0.00252682750707,0.885157588979,-0.0128280754358,0.344930030109,0.0,0.0,0.0
1609055171886715889,178,1609055171886715889,2.94753622326,-0.772358376667,2.32395152234,0.999506795583,0.0287172109417,0.0120618189618,-0.00399998782723,0.837775869298,0.0229084942598,0.295569124629,0.0,0.0,0.0
1609055172086637974,179,1609055172086637974,3.12349831129,-0.768175907965,2.38612552894,0.999476579743,0.02994122418,0.00220633092107,-0.0120507984345,0.816061120532,0.0133504844917,0.228388425183,0.0,0.0,0.0
1609055172286689043,180,1609055172286689043,3.28165447152,-0.770493414294,2.43166771206,0.999465476491,0.0306899127808,-0.00263840832944,-0.0109512262743,0.835323761055,-0.0196421054426,0.259461020254,0.0,0.0,0.0
1609055172486777067,181,1609055172486777067,3.42787859046,-0.75782870242,2.47846501541,0.999421123045,0.0314256617104,0.00705376858101,-0.0109586014418,0.824922360996,-0.0127464163264,0.330931599162,0.0,0.0,0.0
1609055172686912060,182,1609055172686912060,3.59950354016,-0.777145712024,2.56256578914,0.999220081057,0.0316870005144,0.0184817796136,-0.0146146308181,0.777511637313,-0.0603818818044,0.445719603872,0.0,0.0,0.0
1609055172886943102,183,1609055172886943102,3.78664988812,-0.780159449018,2.65201128708,0.999256517084,0.0303246067021,0.0202533425581,-0.0125153269716,0.708164261976,-0.0807012071996,0.423165232354,0.0,0.0,0.0
1609055173086972952,184,1609055173086972952,3.93366968582,-0.792404182543,2.72546971053,0.999396640571,0.0291669428441,0.0112633989288,-0.0151254786749,0.672844734605,-0.0954332222546,0.399575581531,0.0,0.0,0.0
1609055173287034035,185,1609055173287034035,4.06403289113,-0.815518809766,2.82164511057,0.99934338847,0.0303218213979,0.0108457734205,-0.0166056697263,0.653026972533,-0.136222502988,0.43483654179,0.0,0.0,0.0
1609055173487106085,186,1609055173487106085,4.18898097763,-0.831582897759,2.89407161374,0.99942132017,0.0312301799662,0.00895152660458,-0.0100782350213,0.619344261632,-0.146421402018,0.293662796014,0.0,0.0,0.0
1609055173687149048,187,1609055173687149048,4.3065947111,-0.861727407193,2.95482029975,0.999396370308,0.0321665109023,0.00993828517974,-0.00856977703674,0.591658888045,-0.150300136063,0.323563575181,0.0,0.0,0.0
1609055173887258053,188,1609055173887258053,4.41748537233,-0.881091930628,3.00947429894,0.999399986042,0.0320852609275,0.0105677579188,-0.00765025636927,0.554285482114,-0.146813818213,0.314889475999,0.0,0.0,0.0
1609055174087317944,189,1609055174087317944,4.53871616636,-0.907719017074,3.07901090784,0.999483880039,0.0313781173796,0.00598390661641,-0.0034029624249,0.533547343067,-0.14373034913,0.348994884216,0.0,0.0,0.0
1609055174287338018,190,1609055174287338018,4.65350972682,-0.92510181046,3.14800127824,0.999514950929,0.0302300032444,0.00662688376535,-0.0034776693755,0.522434388934,-0.138626288981,0.327523011714,0.0,0.0,0.0
1609055174487425089,191,1609055174487425089,4.76097602581,-0.947293374448,3.20614365042,0.999537254935,0.0292103662607,0.00826876031192,-0.00191261698395,0.492231231523,-0.125524351741,0.287772160463,0.0,0.0,0.0
1609055174687454939,192,1609055174687454939,4.85301092155,-0.968390112734,3.2628298336,0.999579657306,0.0287082906029,0.000616107788784,0.00399539251919,0.47611107809,-0.0950227082361,0.31055263134,0.0,0.0,0.0
1609055174887564898,193,1609055174887564898,4.92897799924,-0.966277788882,3.30267323565,0.999557333641,0.0288795380823,-0.000499569212467,0.00713158289497,0.47375245552,-0.0448222808863,0.341674713106,0.0,0.0,0.0
1609055175087563038,194,1609055175087563038,5.02784382599,-0.967954925225,3.352153206,0.999543393964,0.0293177617125,0.00498146343928,0.00535326571415,0.474839621924,0.0128621682565,0.33288623958,0.0,0.0,0.0
1609055175287702084,195,1609055175287702084,5.15155436021,-0.969322322418,3.41533944356,0.999485990821,0.0296710129157,0.0121246487852,-0.000614847127581,0.452270627339,0.0343607016613,0.353767630652,0.0,0.0,0.0
1609055175487688065,196,1609055175487688065,5.26226099974,-0.963402659537,3.4877668675,0.999504161545,0.0292376180526,0.0116620548711,0.000767607657152,0.414423584575,0.0461543129669,0.298075233941,0.0,0.0,0.0
1609055175687732935,197,1609055175687732935,5.33722302528,-0.949810773574,3.50571807663,0.999554558133,0.0281409203722,0.00989354671414,-0.000944272452889,0.389111731298,0.0653290541389,0.131941223003,0.0,0.0,0.0
1609055175887804031,198,1609055175887804031,5.42011640958,-0.933207153723,3.53116976552,0.999581848626,0.0277424041366,0.00699231800112,0.00419456791187,0.370833056221,0.0694962541499,0.0511713381526,0.0,0.0,0.0
1609055176087902069,199,1609055176087902069,5.51233751973,-0.917235115884,3.5495437939,0.999578228664,0.0276698814215,0.00385664228064,0.00792898189682,0.367269253807,0.117202337946,0.00220495865856,0.0,0.0,0.0
1609055176287951946,200,1609055176287951946,5.61336694175,-0.901233303713,3.58096950691,0.999586158365,0.0285975737975,0.000313428489659,0.00309718279006,0.374368878626,0.151701346815,0.0557632140877,0.0,0.0,0.0
1609055176487967968,201,1609055176487967968,5.69264882858,-0.867217181429,3.58505287492,0.999584693776,0.028359358587,-0.00168791882946,-0.00483090877278,0.403503775554,0.146656304966,0.0916877080252,0.0,0.0,0.0
1609055176688050985,202,1609055176688050985,5.78706443878,-0.839774826394,3.60354335372,0.999485013643,0.0287069998516,-0.00217494007301,-0.0141734011081,0.433702847101,0.140087466239,0.0901726866256,0.0,0.0,0.0
1609055176888081074,203,1609055176888081074,5.8861084286,-0.825143758037,3.62479501181,0.99914459626,0.0347307596171,-0.0029163441581,-0.0222563482344,0.46386259755,0.0888144921838,0.0588378816026,0.0,0.0,0.0
1609055177088174105,204,1609055177088174105,6.02342605529,-0.81198192152,3.6370496256,0.998824856906,0.043593937428,0.00267207687606,-0.0210079473479,0.493966561133,-0.00182950651784,0.0197588736231,0.0,0.0,0.0
1609055177288273096,205,1609055177288273096,6.10830855683,-0.815520991259,3.62558637691,0.998659591935,0.051131008096,0.00491376082195,-0.00636352117322,0.491012029023,-0.0281227324122,-0.0404495138285,0.0,0.0,0.0
1609055177488379002,206,1609055177488379002,6.18809477107,-0.817424365782,3.61479271178,0.997796304525,0.0652865165317,0.0100434475302,0.00627173002463,0.463940374089,0.00799916958965,-0.0678362798901,0.0,0.0,0.0
1609055177688338041,207,1609055177688338041,6.29825070304,-0.814264950454,3.59740078082,0.996680818942,0.0786562306109,0.0178889915842,0.0109784570373,0.430914508207,0.0627736599544,-0.0352584462877,0.0,0.0,0.0
1609055177888362885,208,1609055177888362885,6.41158757364,-0.789651692688,3.59130027511,0.995996993268,0.0862207374532,0.02347087707,0.00225649348384,0.38011824376,0.0790954418372,-0.0397477550779,0.0,0.0,0.0
1609055178088495016,209,1609055178088495016,6.49779568917,-0.764045112727,3.58632919647,0.995688845258,0.0897722937802,0.0232928640045,0.00144954640807,0.316609683518,0.0797502429526,-0.0544215857163,0.0,0.0,0.0
1609055178288522005,210,1609055178288522005,6.5666367621,-0.737537876044,3.58391964896,0.995685300937,0.0905181622971,0.0200634808475,0.00383412681079,0.262722694701,0.0874705739308,-0.0375776553701,0.0,0.0,0.0
1609055178488626957,211,1609055178488626957,6.61835768873,-0.708047072122,3.58955015525,0.995590069314,0.0922476910652,0.0155950531171,0.00689722367989,0.212358128917,0.132626431808,-0.0354777246382,0.0,0.0,0.0
1609055178688627958,212,1609055178688627958,6.66746203473,-0.677839583961,3.58430505359,0.994804603263,0.100319809354,0.0115766591771,0.0128731557908,0.186111399222,0.18973888084,-0.0308554719498,0.0,0.0,0.0
1609055178888685942,213,1609055178888685942,6.71122708374,-0.641932023975,3.57750863982,0.993297212148,0.114441642791,0.010952390471,0.0119918254024,0.165200103296,0.244911169642,-0.0214473454481,0.0,0.0,0.0
1609055179088804960,214,1609055179088804960,6.73814600117,-0.581601186447,3.58218212404,0.99158789079,0.128791899109,0.0107853695799,0.00705530765282,0.141750775785,0.286375324914,0.0322282120856,0.0,0.0,0.0
1609055179288789034,215,1609055179288789034,6.76450810454,-0.520645526461,3.58989909909,0.989804569558,0.1419500385,0.01162712277,-0.00138226925409,0.110504721683,0.316298770472,0.0561176588735,0.0,0.0,0.0
1609055179488950014,216,1609055179488950014,6.77973939306,-0.451658276609,3.60662499147,0.987724266694,0.155196092141,0.0130940552495,-0.0119788015301,0.0842832532051,0.289565272791,0.0833028345021,0.0,0.0,0.0
1609055179689094067,217,1609055179689094067,6.77470852556,-0.390118757198,3.62871890857,0.985208015746,0.170332800348,0.0135292926516,-0.0129946556268,0.0426312658081,0.241530392882,0.0755495416441,0.0,0.0,0.0
1609055179889054060,218,1609055179889054060,6.76862056853,-0.339559194097,3.64439519507,0.982389262595,0.186318391651,0.00906190148004,-0.0107086699429,0.0122553641179,0.197909872058,0.0783833645201,0.0,0.0,0.0
1609055180089117050,219,1609055180089117050,6.75119823675,-0.300911228711,3.66589987061,0.979438970335,0.201338408563,0.00798517676897,-0.0099189504838,0.00531564936567,0.148383684421,0.0763471286419,0.0,0.0,0.0
1609055180289163113,220,1609055180289163113,6.74837404023,-0.264006847269,3.67749213789,0.977187193635,0.211926474094,0.00888575229344,-0.010649017791,0.00651393815684,0.109942014284,0.0668493297353,0.0,0.0,0.0
1609055180489257097,221,1609055180489257097,6.75129007656,-0.238688440479,3.68186539718,0.974491713879,0.223891256482,0.00789229853832,-0.0132784214601,0.00921243221643,0.0880799612244,0.0458304407876,0.0,0.0,0.0
1609055180689362049,222,1609055180689362049,6.73702242956,-0.230961096664,3.69047875766,0.970435729651,0.240857319176,0.0109052062693,-0.0111050840732,-0.0147117821785,0.0680674716781,0.0227101580731,0.0,0.0,0.0
1609055180889322996,223,1609055180889322996,6.73239574713,-0.223866315189,3.68788416313,0.965123799778,0.261275014598,0.0155755448871,-0.00536844955792,-0.0344565317169,0.031510069556,-0.0362275979401,0.0,0.0,0.0
1609055181089349031,224,1609055181089349031,6.71174957836,-0.215041121242,3.67316875376,0.9599416663,0.279589786953,0.0184810208934,1.41042289561e-05,-0.0968932268276,0.0371150258002,-0.110751480072,0.0,0.0,0.0
1609055181289447069,225,1609055181289447069,6.68866425693,-0.196838089155,3.65099049893,0.954728672296,0.296871115693,0.0189592098522,-0.00111862641752,-0.16047004451,0.064669131957,-0.112418665642,0.0,0.0,0.0
1609055181489489079,226,1609055181489489079,6.64202061156,-0.185714865928,3.63185006704,0.949466556612,0.313451072334,0.016092783815,-0.0016448214208,-0.225279362378,0.0687739395206,-0.0623663321335,0.0,0.0,0.0
1609055181689548016,227,1609055181689548016,6.58410894234,-0.171793986129,3.62083483043,0.943654331833,0.330643841379,0.0134930929011,-0.00301473297884,-0.286147565288,0.0849409680064,-0.0553371330638,0.0,0.0,0.0
1609055181889734983,228,1609055181889734983,6.51410410585,-0.149922895501,3.61231350915,0.937070422173,0.348818377145,0.0148106821033,-0.00232537089647,-0.340441746746,0.102003537588,-0.0208953693033,0.0,0.0,0.0
1609055182089658976,229,1609055182089658976,6.43454600692,-0.121766393998,3.61326890806,0.9300766582,0.367021032019,0.015744151063,-0.00225690794187,-0.407822679575,0.132269729859,-0.00129667944486,0.0,0.0,0.0
1609055182289773941,230,1609055182289773941,6.3424250076,-0.0931824871882,3.61302200086,0.922973502836,0.384497856589,0.0124600511944,-0.0112275761462,-0.461251330377,0.1347369088,0.00589982210604,0.0,0.0,0.0
1609055182489768982,231,1609055182489768982,6.25936202025,-0.052721532997,3.61068535444,0.915793958329,0.401154650186,0.0112608532849,-0.0164184562659,-0.477257516197,0.128290952514,0.0414916045732,0.0,0.0,0.0
1609055182689860106,232,1609055182689860106,6.14036014258,-0.0386694505948,3.6317072137,0.908343691528,0.417621977609,0.0117484252026,-0.0191205749263,-0.519046434146,0.0757860843671,0.0655510967873,0.0,0.0,0.0
1609055182889942884,233,1609055182889942884,6.03240535946,-0.019432654833,3.64411839443,0.901177099831,0.43289758679,0.0116130757897,-0.0185647666861,-0.539564761313,0.0397384871601,0.0552739765216,0.0,0.0,0.0
1609055183089977980,234,1609055183089977980,5.92013512834,-0.00688985014954,3.65364772527,0.894585442078,0.446652333206,0.00957409796603,-0.0112657317077,-0.570476545775,0.0209934936493,0.0481744712236,0.0,0.0,0.0
1609055183290020943,235,1609055183290020943,5.78289119784,-0.0433491579216,3.65157715861,0.887931602187,0.459739081511,0.00973609126504,-0.0110749851415,-0.614329893078,-0.0316185259123,0.0594100975336,0.0,0.0,0.0
1609055183490055084,236,1609055183490055084,5.67566556286,0.00275262324154,3.68435154067,0.88169247436,0.471667508199,0.00820452764458,-0.00899044449009,-0.633424492227,0.0189251033498,0.11316954017,0.0,0.0,0.0
1609055183690144062,237,1609055183690144062,5.55882975233,0.0112074456487,3.70658611952,0.874989328176,0.483959523844,0.00547880421016,-0.012117655005,-0.643568347873,0.0206542614078,0.130144167543,0.0,0.0,0.0
1609055183890283108,238,1609055183890283108,5.43982455572,0.0182344955396,3.73400091315,0.867745630588,0.496721504559,0.00737034892152,-0.0151968898238,-0.647046902544,0.0106765918584,0.124105902579,0.0,0.0,0.0
1609055184090326071,239,1609055184090326071,5.33437663967,0.0208947839716,3.76009001062,0.860211437347,0.509628786192,0.00379266624572,-0.0173320230874,-0.632712381391,-0.0110219456684,0.1089185211,0.0,0.0,0.0
1609055184290316105,240,1609055184290316105,5.22369884325,0.0243342612899,3.78094371965,0.853292461271,0.521219138735,-0.00236550453885,-0.0147305581155,-0.59745496482,-0.0176885315567,0.11177865947,0.0,0.0,0.0
1609055184490360975,241,1609055184490360975,5.1156358347,0.0220548239914,3.79922078103,0.846672394386,0.531986221437,-0.00356908490823,-0.011125574947,-0.557564032693,-0.0112628888367,0.102431276858,0.0,0.0,0.0
1609055184690502882,242,1609055184690502882,5.00734709668,0.0232696935689,3.81197789195,0.839653515967,0.542990852869,-0.00423546580747,-0.0111788932524,-0.536941181555,0.0079810060424,0.0809891445265,0.0,0.0,0.0
1609055184890590906,243,1609055184890590906,4.90200743994,0.0238819745,3.82567743068,0.830835836874,0.556458726508,-0.000200707642113,-0.00809058563413,-0.523347844396,0.0249728147138,0.0779688522935,0.0,0.0,0.0
1609055185090631008,244,1609055185090631008,4.81846873413,0.0413454282191,3.82683976869,0.823673393187,0.567026660054,0.00375870957255,-0.00536472241951,-0.508838416764,0.0556198358027,0.0550425716967,0.0,0.0,0.0
1609055185290642023,245,1609055185290642023,4.72928581889,0.0574309876524,3.83413223299,0.81697016071,0.576543138273,0.0096236115298,-0.00807169878227,-0.514420787082,0.0667681497995,0.0665234969153,0.0,0.0,0.0
1609055185490664959,246,1609055185490664959,4.66188965248,0.0941626861303,3.83241872123,0.810619304365,0.5853792613,0.0115441126119,-0.00970552902064,-0.512513429352,0.0759266102842,0.0598914815335,0.0,0.0,0.0
1609055185690782070,247,1609055185690782070,4.54801557417,0.1026721334,3.85278795781,0.803651859305,0.594907897214,0.0125434776056,-0.00842282833607,-0.551951732313,0.0544091647823,0.0705950512844,0.0,0.0,0.0
1609055185890819073,248,1609055185890819073,4.44248654287,0.126953862713,3.8699746762,0.796112592599,0.604987514096,0.0131111172369,-0.00479022945218,-0.577564609357,0.0500997366732,0.0966717273783,0.0,0.0,0.0
1609055186090939045,249,1609055186090939045,4.31537343864,0.132956577876,3.89393684163,0.789254779322,0.613980260457,0.00954303241252,-0.00375014923335,-0.627018466124,0.0496966545506,0.110073469183,0.0,0.0,0.0
1609055186291012049,250,1609055186291012049,4.18355055625,0.13900058319,3.92267686954,0.78218256947,0.622988220934,0.00546315824884,-0.00680135994296,-0.6545304933,0.0569668888414,0.118749693232,0.0,0.0,0.0
1609055186490987062,251,1609055186490987062,4.05068960223,0.161057309823,3.9480033246,0.774613763435,0.632380799004,0.00448137383459,-0.00692530408242,-0.675594417882,0.0681154735037,0.0907341120301,0.0,0.0,0.0
1609055186691044092,252,1609055186691044092,3.9380813183,0.200493062877,3.96397169921,0.766564299998,0.642129320714,0.0042880497592,-0.00554274999484,-0.673267752221,0.0953481069429,0.084830517648,0.0,0.0,0.0
1609055186891139030,253,1609055186891139030,3.81146595352,0.218577725737,3.98533384143,0.756119136289,0.654350851567,0.00184805143953,-0.010266425706,-0.690408819023,0.102422838222,0.0895075509466,0.0,0.0,0.0
1609055187091265917,254,1609055187091265917,3.67674571243,0.2385064284,4.00410044862,0.742606056166,0.669602409354,0.00201495679546,-0.0128373938575,-0.690618209804,0.0979061325117,0.0803107981372,0.0,0.0,0.0
1609055187291239023,255,1609055187291239023,3.54030653342,0.260754208026,4.01700975542,0.729634711539,0.683710500225,0.00524525007331,-0.0120675992015,-0.689619373411,0.08701387956,0.0670685433265,0.0,0.0,0.0
1609055187491326094,256,1609055187491326094,3.41069068065,0.279385862657,4.02534257139,0.710403981392,0.703642850917,0.00513314978337,-0.0136591488834,-0.727328066728,0.0682672102578,0.0381860166639,0.0,0.0,0.0
1609055187691390991,257,1609055187691390991,3.27579798236,0.300767254592,4.02453428169,0.69174882255,0.721838926338,-0.00043203095725,-0.0207832690709,-0.680713256979,0.0563803647581,0.00506602566309,0.0,0.0,0.0
1609055187891385078,258,1609055187891385078,3.14017851561,0.323577799378,4.01968194493,0.675046858307,0.737535146909,0.00325353005345,-0.0185218979999,-0.655398605779,0.0404197494895,-0.00511683836381,0.0,0.0,0.0
1609055188091454029,259,1609055188091454029,3.00664133652,0.338664526435,4.01344848446,0.661547308574,0.749722338686,0.0111899348966,-0.0120978820675,-0.648527658023,0.0208568088648,-0.0322037374812,0.0,0.0,0.0
1609055188291588068,260,1609055188291588068,2.87877904343,0.354368949636,3.99792383498,0.650556270454,0.759074074299,0.0109275926267,-0.0215331469693,-0.675557691762,-0.00108090680965,-0.0204249357739,0.0,0.0,0.0
1609055188491684914,261,1609055188491684914,2.75268700371,0.361181098087,3.98193027892,0.639236820827,0.768110475482,0.0125856187378,-0.0349883774218,-0.653783447752,-0.0609901867336,-0.0502970994341,0.0,0.0,0.0
1609055188691672087,262,1609055188691672087,2.61121406483,0.34873800764,3.97156289184,0.626783984984,0.778421131277,0.0145312097042,-0.0314836861584,-0.62179496317,-0.153695344699,-0.130427464881,0.0,0.0,0.0
1609055188891810894,263,1609055188891810894,2.47540790745,0.310698263718,3.95118112009,0.614086395141,0.788918859562,0.0140106441797,-0.0175679873465,-0.632445304969,-0.216246897981,-0.134538862665,0.0,0.0,0.0
1609055189091773987,264,1609055189091773987,2.34310707506,0.26342718928,3.92820006347,0.601684829273,0.798501514039,0.016436366203,-0.0100271714307,-0.667720780613,-0.250964842025,-0.106371608003,0.0,0.0,0.0
1609055189291985989,265,1609055189291985989,2.2007980723,0.210272431717,3.90913859828,0.589067797,0.807823973993,0.0197303101031,-0.00550203989856,-0.739642078841,-0.291915139185,-0.0807530847214,0.0,0.0,0.0
1609055189491951942,266,1609055189491951942,2.05016308068,0.150331635039,3.89476236448,0.576383584072,0.817012967302,0.0153538094338,-0.00600298333709,-0.804990683838,-0.319112049662,-0.0595682802294,0.0,0.0,0.0
1609055189691988945,267,1609055189691988945,1.89733501947,0.0770546428062,3.87939643017,0.563132863916,0.826245830197,0.0105828268704,-0.0093385991805,-0.844507450116,-0.343586978748,-0.0491615505232,0.0,0.0,0.0
1609055189892002106,268,1609055189892002106,1.72580347533,0.0014244691426,3.87247013323,0.548302607599,0.8361299093,0.00344592833455,-0.0154645029962,-0.871613089366,-0.36532580736,-0.0434850251152,0.0,0.0,0.0
1609055190092562914,269,1609055190092562914,1.55391696654,-0.0821392108147,3.86586848628,0.530479088177,0.847480831066,-0.00262050149462,-0.0190081812674,-0.865936052598,-0.378010146402,-0.0414196857747,0.0,0.0,0.0
1609055190292206049,270,1609055190292206049,1.38460111022,-0.167494873315,3.86726901336,0.512158485815,0.858522775856,-0.00861063823729,-0.0236259529646,-0.826957877867,-0.370427457269,-0.00983626596437,0.0,0.0,0.0
1609055190492191076,271,1609055190492191076,1.21847281873,-0.252693674632,3.8643956283,0.494880523459,0.86825815407,-0.0140955293046,-0.0319743873343,-0.759782932941,-0.359430031126,-0.00589529932704,0.0,0.0,0.0
1609055190692338943,272,1609055190692338943,1.06968185881,-0.334469494185,3.86192032645,0.478930381994,0.876906804934,-0.015191417816,-0.0378069502627,-0.658305531824,-0.341611199558,0.00374294580669,0.0,0.0,0.0
1609055190892266989,273,1609055190892266989,0.935905008898,-0.410878352272,3.85447387437,0.463921332937,0.884656158607,-0.0128223464018,-0.0446773467918,-0.552693058674,-0.341033163294,-0.0182135859796,0.0,0.0,0.0
1609055191092371941,274,1609055191092371941,0.828018299672,-0.483039215584,3.85027138049,0.447937129599,0.89273851646,-0.00670598495571,-0.0482213533722,-0.43649106531,-0.369389994693,-0.108225021298,0.0,0.0,0.0
1609055191292403936,275,1609055191292403936,0.747018351384,-0.56075897586,3.83017939601,0.431121840847,0.901326229574,-0.00332626739512,-0.0416403911061,-0.342124883327,-0.402737123457,-0.136029422197,0.0,0.0,0.0
1609055191492532969,276,1609055191492532969,0.67146342304,-0.644788675944,3.80738914855,0.413810341026,0.909701313595,-0.00073738493907,-0.0346983856537,-0.278931656109,-0.431642889075,-0.120757185728,0.0,0.0,0.0
1609055191692627907,277,1609055191692627907,0.609033506884,-0.736963330231,3.78290067557,0.397335165972,0.917255941512,-0.000169247029673,-0.0276816725982,-0.238541983807,-0.451358818313,-0.124201154319,0.0,0.0,0.0
1609055191892690897,278,1609055191892690897,0.548312004828,-0.819594218266,3.75084107253,0.382806135153,0.923505764627,-0.00262165919571,-0.0242835848566,-0.212761731242,-0.443372337824,-0.121043728484,0.0,0.0,0.0
1609055192092741966,279,1609055192092741966,0.504589388218,-0.897725264891,3.72152710713,0.36944907692,0.929050619336,0.00228511319663,-0.0191599721123,-0.201800757527,-0.441949881854,-0.083149431035,0.0,0.0,0.0
1609055192292659998,280,1609055192292659998,0.459499399944,-0.982197964506,3.7009749557,0.356559504464,0.934065585412,0.00584482114939,-0.0187787110932,-0.215043893509,-0.46680202503,-0.040199129311,0.0,0.0,0.0
1609055192492777109,281,1609055192492777109,0.403071677067,-1.07956714899,3.69297046176,0.345325835526,0.938254894829,0.00523031868179,-0.0200115819882,-0.221359547939,-0.493604810477,-0.00858229557939,0.0,0.0,0.0
1609055192692780018,282,1609055192692780018,0.352704914246,-1.1829398815,3.68902299792,0.333639351856,0.942516864822,0.0034952751054,-0.0182900374873,-0.226687654803,-0.521015348398,0.00553084840059,0.0,0.0,0.0
1609055192892910957,283,1609055192892910957,0.299052340113,-1.28853530042,3.69084627111,0.322508160491,0.946431814763,0.00449146286998,-0.0153340530551,-0.23649514462,-0.536017828603,0.00904359790795,0.0,0.0,0.0
