%time,field.header.seq,field.header.stamp,field.pose.pose.position.x,field.pose.pose.position.y,field.pose.pose.position.z,field.pose.pose.orientation.x,field.pose.pose.orientation.y,field.pose.pose.orientation.z,field.pose.pose.orientation.w,field.twist.twist.linear.x,field.twist.twist.linear.y,field.twist.twist.linear.z,field.twist.twist.angular.x,field.twist.twist.angular.y,field.twist.twist.angular.z
1609045335880244017,13,1609045335880244017,-0.00267355100019,-0.00236693490742,-0.00438362907477,0.999687663449,0.000498971915585,0.0243552342221,-0.00558114155953,-0.00364298476946,0.00148442126062,-3.95767779487e-05,0.0,0.0,0.0
1609045336080286980,14,1609045336080286980,-0.00268256033294,-0.00230175097172,-0.00457631279098,0.999685378968,0.00052859129576,0.0244481575584,-0.00558133139963,-0.00551924534535,0.00241551221387,-0.000162047231958,0.0,0.0,0.0
1609045336280384064,15,1609045336280384064,-0.0030527771589,-0.00235195487279,-0.00474964174956,0.999684290864,0.000578096337391,0.0244877265642,-0.00559782567672,-0.00690022005561,0.00301236150108,0.000630152357406,0.0,0.0,0.0
1609045336481113911,16,1609045336481113911,-0.00355834028967,-0.00244823222529,-0.00453256842705,0.999684118306,0.000621340513222,0.0244846856314,-0.00563717231535,-0.00835295367152,0.00356908837017,0.000401697149286,0.0,0.0,0.0
1609045336681554079,17,1609045336681554079,-0.00398299163514,-0.00337453138756,-0.00445273733056,0.999687594788,0.000658878709422,0.0243415685624,-0.00563619954826,-0.00719717347416,0.000842220280005,0.000197271471474,0.0,0.0,0.0
1609045336880533934,18,1609045336880533934,-0.00588534654757,-0.00478098082352,-0.00424973390208,0.999688303763,0.000766481337674,0.024289621512,-0.00572032453625,-0.00709443796156,-0.00167255286823,-0.000863841656805,0.0,0.0,0.0
1609045337080552101,19,1609045337080552101,-0.00477368639547,-0.00366668932492,-0.00527485973096,0.999688306995,0.000629105563449,0.0243318403818,-0.00555469413655,-0.00757162081954,0.00140386499872,-0.00251530800053,0.0,0.0,0.0
1609045337280584097,20,1609045337280584097,-0.00524421998662,-0.00351790737048,-0.00592868791166,0.999688342619,0.00064766613476,0.0243210709081,-0.00559318074793,-0.0053001926586,0.0016304588481,-0.00293817954437,0.0,0.0,0.0
1609045337480870008,21,1609045337480870008,-0.00739008923106,-0.00493243679529,-0.00856518673579,0.99967895017,0.000761156083081,0.0246833594778,-0.00567000822973,-0.00946503081973,0.00207104046796,-0.00186617235289,0.0,0.0,0.0
1609045337680736065,22,1609045337680736065,-0.00486587321825,-0.00254311483688,-0.00301174184437,0.999691921721,0.000649673321849,0.0241593851327,-0.00565364308527,-0.00204671774136,0.00312426512562,0.000739817223029,0.0,0.0,0.0
1609045337880835056,23,1609045337880835056,-0.0050610303494,-0.00256798814501,-0.00291263674787,0.999691736568,0.000679957817182,0.0241538454758,-0.0057062461092,-0.000679091857864,0.00180628578635,0.000180863591356,0.0,0.0,0.0
1609045338080863953,24,1609045338080863953,-0.00655358692776,-0.00131302866784,-0.00319121990109,0.999691032165,0.000568090866797,0.0242042422766,-0.00562780047995,-0.00311503945187,0.00362196412394,0.000793351160318,0.0,0.0,0.0
1609045338280946970,25,1609045338280946970,-0.00717279083749,-0.00106881141393,-0.00342550824209,0.999689846681,0.000618196189135,0.0242464193811,-0.00565149740256,-0.00365851779942,0.00390014511024,0.000356517728239,0.0,0.0,0.0
1609045338481204987,26,1609045338481204987,-0.00795497078126,-0.000877897348439,-0.00359253790745,0.999689153064,0.000645385978588,0.024276033288,-0.00564401728913,-0.00449101626646,0.00330264215703,0.000380648880684,0.0,0.0,0.0
1609045338681103945,27,1609045338681103945,-0.00826567699931,-0.000560333387094,-0.00340556179164,0.999688506187,0.000634769515474,0.0243031372963,-0.00564315364937,-0.00438392275154,0.00285799840152,-0.000453846796644,0.0,0.0,0.0
1609045338881107092,28,1609045338881107092,-0.00911233682704,-0.000371093365644,-0.00393025470629,0.999688092663,0.000636686278176,0.0243234612591,-0.00562860994613,-0.00495409448051,0.00340189760008,-0.00108771924655,0.0,0.0,0.0
1609045339082134008,29,1609045339082134008,-0.00938671133517,-0.000487337360666,-0.00462251973634,0.999686620444,0.000641021412749,0.0243887873957,-0.00560687497494,-0.00589093630209,0.00337094366166,-0.00123289325918,0.0,0.0,0.0
1609045339281871080,30,1609045339281871080,-0.00967974193576,-0.000394321387502,-0.00466735719109,0.999687766618,0.000637954993022,0.0243479217123,-0.00558041187799,-0.00507876015146,0.00403979712839,-0.000216017560604,0.0,0.0,0.0
1609045339482429981,31,1609045339482429981,-0.00682344177465,-0.000473562336904,-0.00343671157191,0.999688391001,0.000651016175271,0.0243148248468,-0.00561127163563,-0.00199591267544,0.00412023766735,0.000378088079589,0.0,0.0,0.0
1609045339681329012,32,1609045339681329012,-0.00683833871428,-0.000673963158299,-0.00367277226653,0.999687838689,0.000620427602514,0.0243336626367,-0.00563143945652,-0.00432895635305,0.0032915560558,0.000533715218034,0.0,0.0,0.0
1609045339881434917,33,1609045339881434917,-0.00749289391664,-0.000394809544712,-0.00355726444622,0.999685305907,0.000602849564836,0.0244459653244,-0.0055964726092,-0.0059077127812,0.00339012795849,0.00103958777424,0.0,0.0,0.0
1609045340081413984,34,1609045340081413984,-0.00843619779426,-0.000312888055952,-0.00388804351355,0.999687089108,0.000599981305459,0.0243813426532,-0.00556003817705,-0.00666860463802,0.00330162259754,0.000717072076992,0.0,0.0,0.0
1609045340281518936,35,1609045340281518936,-0.0101412084838,0.000128835662864,-0.00446758784924,0.999687163028,0.000531188169243,0.0243821122281,-0.00555036201211,-0.00784388120346,0.00429476355563,0.000271003369034,0.0,0.0,0.0
1609045340482454062,36,1609045340482454062,-0.00887696216502,-0.00011980986799,-0.00433604205101,0.999674209717,0.000586797568059,0.0248997066956,-0.00557984780223,-0.00829879526727,0.0044102193347,-0.00048771121348,0.0,0.0,0.0
1609045340681811094,37,1609045340681811094,-0.00880380704309,6.73509761862e-06,-0.00380209299901,0.999687297097,0.000556188812214,0.0243874003612,-0.00550030731028,-0.00504153104001,0.00427634591389,0.000396519284008,0.0,0.0,0.0
1609045340881747007,38,1609045340881747007,-0.0068985082837,1.52225274175e-05,-0.00288104275826,0.999687866821,0.000521531899817,0.0243596232494,-0.00552319574993,-0.00192499089244,0.00276041064202,0.00161852776044,0.0,0.0,0.0
1609045341081804991,39,1609045341081804991,-0.0068461204226,-0.000102296919048,-0.00281009097451,0.99968958949,0.000501570462437,0.0242902631563,-0.00551871431733,-0.000419253272947,0.00302011922314,0.000847616082852,0.0,0.0,0.0
1609045341281811953,40,1609045341281811953,-0.00529254970768,-0.000157488151827,-0.00227098297075,0.99968954436,0.000459729928525,0.0242973940588,-0.00549910793137,-0.000157663297595,0.0024563534443,0.000448313229357,0.0,0.0,0.0
1609045341481837034,41,1609045341481837034,-0.00470054667663,-0.000228523725936,-0.00212470208735,0.999688504287,0.000452282555519,0.0243518334305,-0.00544775606214,4.77121705181e-05,0.00239521366205,0.000479875403432,0.0,0.0,0.0
1609045341681945086,42,1609045341681945086,-0.00498283714568,-0.000330508013533,-0.00235892154878,0.999689141349,0.000490979181607,0.0243330374507,-0.00541136730231,-0.00025589313819,0.0026771372079,0.000334967091022,0.0,0.0,0.0
1609045341882040977,43,1609045341882040977,-0.00514388325373,-0.000369077923125,-0.00258334141622,0.999677582673,0.000614242380336,0.0247860632264,-0.00547763432539,-0.00177387488754,0.00321398755307,0.000234643755679,0.0,0.0,0.0
1609045342082076073,44,1609045342082076073,-0.00508775320371,-0.000268961864287,-0.0024211920137,0.999686849507,0.000520425055459,0.0244125719196,-0.00547342790668,-0.000635311827616,0.00305005562407,0.000966641775918,0.0,0.0,0.0
1609045342282278061,45,1609045342282278061,-0.00496311768403,-0.000349679710243,-0.00233841740107,0.999685397963,0.00063389014624,0.0244648467926,-0.00549313692975,-0.000817139388543,0.00300912931338,0.00108646945523,0.0,0.0,0.0
1609045342482223988,46,1609045342482223988,-0.00504682927047,-0.000372582752251,-0.00240890259909,0.999686700665,0.00063817930199,0.0244041961515,-0.00552525578261,-0.00108512866075,0.00195260503703,0.000146944637763,0.0,0.0,0.0
1609045342682180882,47,1609045342682180882,-0.00511183656509,-0.00039324775336,-0.00248271119408,0.999687950336,0.000627403184419,0.0243648732096,-0.00547368903526,-0.000286582694258,0.00235365132078,0.00028357270683,0.0,0.0,0.0
1609045342882376909,48,1609045342882376909,-0.00503827777909,-0.000362486893238,-0.00239752431418,0.999688623703,0.000656661911369,0.0243394386258,-0.00546041759613,-0.000605071913303,0.00298894062929,0.000475146178786,0.0,0.0,0.0
1609045343082406044,49,1609045343082406044,-0.00529522845055,-0.000359578706128,-0.00244568197059,0.999689416857,0.000586038550443,0.0243076735337,-0.00546474067916,-0.000951759055992,0.00316623413487,0.000264313709727,0.0,0.0,0.0
1609045343282392979,50,1609045343282392979,-0.00508299597273,-0.000285631968675,-0.00202882874614,0.999690000679,0.000553356691933,0.0242862431697,-0.00545662262807,-0.000694832235212,0.00275745598302,0.00121586979561,0.0,0.0,0.0
1609045343483612061,51,1609045343483612061,-0.00532333171399,-0.000378390061368,-0.00241792494793,0.999689255099,0.000623789861764,0.0243023817494,-0.00551347137578,6.15551144852e-05,0.00287285396183,-6.1742870981e-05,0.0,0.0,0.0
1609045343682560921,52,1609045343682560921,-0.00549501244684,-0.000383498449916,-0.00262606875613,0.999690796959,0.000577822454593,0.0242493690152,-0.00547217506153,0.000198710791054,0.00242682758592,0.000952946493702,0.0,0.0,0.0
1609045343882622957,53,1609045343882622957,-0.00462757232404,-0.000284536486966,-0.00182501303916,0.999690724292,0.00060590440267,0.0242352625468,-0.00554442901529,0.000273708071034,0.00290580177179,0.000406640539433,0.0,0.0,0.0
1609045344082623959,54,1609045344082623959,-0.00450806882608,-0.000314515588076,-0.00183392310155,0.999690479928,0.000640640207294,0.0242583220172,-0.00548340540715,-0.000211450599254,0.00272240428089,0.000198330786571,0.0,0.0,0.0
1609045344282672882,55,1609045344282672882,-0.00589871270811,-0.000563863371298,-0.00239033586305,0.999688792735,0.000745467471838,0.0243394841454,-0.00541769963184,-0.00275460774774,0.00209319926541,0.000488025178831,0.0,0.0,0.0
1609045344482925892,56,1609045344482925892,-0.00574027904258,-0.000388369719931,-0.00249692903467,0.999688644637,0.000645861733533,0.0243542405727,-0.00539143887055,-0.00201085461228,0.00348757238172,0.000441402443996,0.0,0.0,0.0
1609045344683011055,57,1609045344683011055,-0.00638912356507,-0.000720355338685,-0.00177745983885,0.999689827888,0.000566671879934,0.0242998505831,-0.00542624755766,-0.00469239138759,0.00193987623761,-0.000121101819073,0.0,0.0,0.0
1609045344882925034,58,1609045344882925034,-0.00639360895743,-0.000475250382242,-0.0028902592484,0.999687621757,0.000546716771336,0.0244134388193,-0.00532390949157,-0.00369389152485,0.00363166388875,0.000623235541825,0.0,0.0,0.0
1609045345082917929,59,1609045345082917929,-0.00631230721601,-0.000546605857371,-0.0030390714898,0.999684996055,0.000586581609904,0.0245229497918,-0.00530938010279,-0.00220572874076,0.00267134185252,0.000600345543644,0.0,0.0,0.0
1609045345283163071,60,1609045345283163071,-0.00607600770924,-0.000889612590828,-0.00329502278395,0.999675113365,0.000644102460507,0.0249122328752,-0.0053510283891,-0.0025619426529,0.00177755558332,-0.000272534291474,0.0,0.0,0.0
1609045345483622074,61,1609045345483622074,-0.00583675523589,-0.00065065239504,-0.00295631167739,0.999684141808,0.000652338269388,0.0245707379224,-0.00524117448199,-0.00146106586448,0.00310525636914,-0.000655926389793,0.0,0.0,0.0
1609045345683077097,62,1609045345683077097,-0.00584889436468,-0.000661846133234,-0.0030906774533,0.999680809102,0.000669651455913,0.0247100251891,-0.00521978313698,-0.00190512625658,0.00286411626219,0.00067707240336,0.0,0.0,0.0
1609045345883173943,63,1609045345883173943,-0.00592804714989,-0.000620894952353,-0.00307322210028,0.999681038093,0.000693907687787,0.0247082358987,-0.00518108565442,-0.0024658979439,0.00280326673237,0.000218367030568,0.0,0.0,0.0
1609045346084256887,64,1609045346084256887,-0.00607404718625,-0.00060001169296,-0.00315591046796,0.999681464872,0.000661022684716,0.0247106654706,-0.00509066328349,-0.00266959762358,0.00385623141712,0.000324885353604,0.0,0.0,0.0
1609045346285012007,65,1609045346285012007,-0.00616087365393,-0.000574227679596,-0.00317420494726,0.999681213416,0.00065803627407,0.0247244539882,-0.00507345104761,-0.00280884827458,0.00270705751099,0.000868676898105,0.0,0.0,0.0
1609045346483335018,66,1609045346483335018,-0.0061851288369,-0.000575617439893,-0.00320512596533,0.999680486463,0.000660384436908,0.0247531020675,-0.00507669332981,-0.00271844436118,0.00460872076806,0.000792844834519,0.0,0.0,0.0
1609045346683574915,67,1609045346683574915,-0.00633172617973,-0.000589653211181,-0.00325787612707,0.99967973442,0.000650985050578,0.0247796504465,-0.00509644318666,-0.00277556777923,0.00316329327013,8.15396937912e-05,0.0,0.0,0.0
1609045346883477926,68,1609045346883477926,-0.00621812237125,-0.00064536827674,-0.00326053431582,0.999679791165,0.000694431679058,0.0247788343758,-0.00508352910769,-0.00269576662976,0.00277069571131,1.50129170755e-05,0.0,0.0,0.0
1609045347083628893,69,1609045347083628893,-0.00638779738248,-0.000652599199832,-0.00325973951474,0.9996799114,0.000712711862167,0.0247736840438,-0.00508245642413,-0.0032606185601,0.00272718601489,0.000351248491465,0.0,0.0,0.0
1609045347283540010,70,1609045347283540010,-0.00647504131389,-0.000614095302872,-0.00332278164273,0.999679268087,0.000707623229685,0.0248146186654,-0.00500948369025,-0.00296417493365,0.00331635308723,0.000542501079006,0.0,0.0,0.0
1609045347483680964,71,1609045347483680964,-0.00646689257181,-0.000665752895241,-0.00327025235009,0.999679562823,0.000711197362773,0.024800446717,-0.00502033012683,-0.00221981204894,0.00248642649255,0.000567858017651,0.0,0.0,0.0
1609045347683832884,72,1609045347683832884,-0.00649009113116,-0.000587448868131,-0.00336852772304,0.999680508656,0.000652770655091,0.0247869975217,-0.0049050236862,-0.00277099899552,0.00362396225778,0.000868717874938,0.0,0.0,0.0
1609045347883948088,73,1609045347883948088,-0.00668853651734,-0.000635680872515,-0.0033395437276,0.99968029994,0.000677863902009,0.0247980869633,-0.00488807680834,-0.00348842347719,0.00267794560644,0.000663391599138,0.0,0.0,0.0
1609045348083857059,74,1609045348083857059,-0.00665905248829,-0.000653736927044,-0.00334903494993,0.999681182487,0.000665641888037,0.0247693983129,-0.00485460697473,-0.00263208592392,0.00334448265059,2.55255924186e-05,0.0,0.0,0.0
1609045348283957005,75,1609045348283957005,-0.00668968932238,-0.000658495409998,-0.00329608643576,0.999681024543,0.000682383368077,0.0247768270427,-0.00484689219467,-0.00241818782469,0.00246793488401,0.000259688787761,0.0,0.0,0.0
1609045348486120939,76,1609045348486120939,-0.00675757669858,-0.000647942399266,-0.00329476568245,0.999681180613,0.000687249681761,0.0247650786914,-0.00487398132395,-0.00223790200997,0.00301492312796,0.00060332596352,0.0,0.0,0.0
1609045348687112093,77,1609045348687112093,-0.00678021693606,-0.000652064288958,-0.00330764152613,0.999680840017,0.000664624183948,0.0247700520301,-0.00492147333929,-0.00262092051758,0.00231175399922,0.000548536519756,0.0,0.0,0.0
1609045348884100914,78,1609045348884100914,-0.00687444977408,-0.000593230929923,-0.00329446858541,0.99968047482,0.000655235557277,0.0247810611097,-0.00494145131401,-0.0026750207054,0.00320523372472,0.00107633903048,0.0,0.0,0.0
1609045349084155083,79,1609045349084155083,-0.00724067010204,-0.000566954932249,-0.0033311980663,0.999679995333,0.000632028918151,0.0247982825075,-0.00495506356598,-0.00420741407437,0.003243033252,0.00117625676221,0.0,0.0,0.0
1609045349284252882,80,1609045349284252882,-0.00729206541444,-0.000617489250196,-0.00335674426589,0.999679581043,0.000672693080762,0.0248113256061,-0.0049679826545,-0.00289642522206,0.00289843803825,-7.62838995124e-05,0.0,0.0,0.0
1609045349485532045,81,1609045349485532045,-0.00708581094576,-0.000674249234863,-0.00337233512292,0.999679684614,0.000654738837692,0.0248107840427,-0.00495221991844,-0.00229552199388,0.00195469468428,5.5497307726e-05,0.0,0.0,0.0
1609045349684266090,82,1609045349684266090,-0.00717455772384,-0.000573458018613,-0.0034986959206,0.999678703863,0.000536204214051,0.0248638207412,-0.00489815731588,-0.00336396932739,0.00261102786847,0.000839665866931,0.0,0.0,0.0
1609045349884310007,83,1609045349884310007,-0.00723550596329,-0.000690135515443,-0.0034073482462,0.999678797235,0.000667566207046,0.0248492388613,-0.00493680476559,-0.00220144898508,0.00206676594938,0.000379189323472,0.0,0.0,0.0
1609045350084520102,84,1609045350084520102,-0.0073585127517,-0.000601148136655,-0.00334688419213,0.999676402476,0.000652479608094,0.0249443384899,-0.004944145991,-0.00164489662845,0.00183865465164,0.00125157066613,0.0,0.0,0.0
1609045350284482002,85,1609045350284482002,-0.00697675803795,-0.000551387974169,-0.00315628250216,0.999678298078,0.000606663859857,0.0248793621092,-0.00489383824818,-0.00120485495409,0.00284340960993,0.000151047616282,0.0,0.0,0.0
1609045350484580994,86,1609045350484580994,-0.00796034103822,-0.000594652725146,-0.0036662553447,0.999665563969,0.000655917533481,0.0253790772803,-0.00492264385517,-0.00328427929482,0.0014602217838,-9.3558814062e-05,0.0,0.0,0.0
1609045350684601068,87,1609045350684601068,-0.00752886634526,-0.000681351930413,-0.00378907162617,0.999676074904,0.000651204246397,0.0249976811982,-0.00473678510237,-0.00162557548782,0.00251336452948,0.000100222203801,0.0,0.0,0.0
1609045350884615898,88,1609045350884615898,-0.00783609964639,-0.000664403779032,-0.00403580133866,0.999672819947,0.000655783803962,0.0251292246592,-0.00472705781133,-0.00141206070589,0.0021470485442,-0.000590797979473,0.0,0.0,0.0
1609045351084646940,89,1609045351084646940,-0.00762042608387,-0.000737372034523,-0.00398280020571,0.999674055999,0.00066359125835,0.0250805199413,-0.00472323285129,-0.00165911637079,0.00204203207409,-0.000417896184503,0.0,0.0,0.0
1609045351284723043,90,1609045351284723043,-0.00755545570858,-0.000708591030908,-0.00402941944985,0.999674529122,0.00066617754321,0.0250712131918,-0.00467186277111,-0.00113424333357,0.00302731431051,-0.000496876711924,0.0,0.0,0.0
1609045351484905958,91,1609045351484905958,-0.00751604560047,-0.000727138659312,-0.00399859835649,0.999673919047,0.000672678705961,0.0251011656042,-0.00464053508471,-0.000897484219796,0.00218864346387,-0.000186333638469,0.0,0.0,0.0
1609045351684850931,92,1609045351684850931,-0.00749343372334,-0.000818354033517,-0.00398398718741,0.999675167852,0.000672498388533,0.025055071801,-0.00462059562989,-0.00123570846673,0.000972987515737,-9.59961662046e-05,0.0,0.0,0.0
1609045351885142088,93,1609045351885142088,-0.00758607500534,-0.00079101349218,-0.00396160776656,0.999674988431,0.000660012413919,0.0250804638617,-0.00452241318904,-0.000951611331133,0.00176722244411,-0.000166374497992,0.0,0.0,0.0
1609045352084970951,94,1609045352084970951,-0.00766408744046,-0.000768526386532,-0.00396043132106,0.999673987439,0.000677685050596,0.0251230524349,-0.00450464384329,-0.000660158063761,0.00213118631965,0.00015958910799,0.0,0.0,0.0
1609045352284923077,95,1609045352284923077,-0.00768930046393,-0.000771563189283,-0.00396357412517,0.999672428527,0.000681542651687,0.0251843382931,-0.00450779843729,-0.000984186311605,0.00204073585198,0.000896584859626,0.0,0.0,0.0
1609045352485578060,96,1609045352485578060,-0.00767652390569,-0.000788268592752,-0.0039457707128,0.99967326777,0.000687815977644,0.0251631993358,-0.00443824461648,-0.00019873081423,0.00143731524022,0.000437565000413,0.0,0.0,0.0
1609045352685723066,97,1609045352685723066,-0.00758607164212,-0.00085655746782,-0.00393749419635,0.999673670423,0.000711657255721,0.0251521957566,-0.00440604764857,0.000565472957372,0.00118477825957,0.000499601076877,0.0,0.0,0.0
1609045352885206938,98,1609045352885206938,-0.00754337648699,-0.000768719406746,-0.00392827092149,0.999673147561,0.000593150249779,0.0251906874619,-0.00432151395446,-0.000156830722811,0.00187226128675,0.000654012542847,0.0,0.0,0.0
1609045353085241079,99,1609045353085241079,-0.0076346177009,-0.00082212238202,-0.00395778713642,0.999673442151,0.000711568462333,0.0251821273131,-0.00428522948444,-0.000764244589642,0.00196235432129,0.000234286484097,0.0,0.0,0.0
1609045353285371065,100,1609045353285371065,-0.00767898812299,-0.000829372604805,-0.00396684473321,0.9996731504,0.000705876023181,0.025191732365,-0.00429775866343,-0.000782675835461,0.00230566775443,8.20908021794e-05,0.0,0.0,0.0
1609045353487437963,101,1609045353487437963,-0.00754061485754,-0.000912339510605,-0.00402148135503,0.999671720212,0.000790500177511,0.0252412279563,-0.00432519691177,-0.00099961408555,0.00293399448911,0.000204528523316,0.0,0.0,0.0
1609045353685456991,102,1609045353685456991,-0.00750557760651,-0.000838007966051,-0.00397219042959,0.999671284637,0.00065875506375,0.0252551472903,-0.00436649166433,-0.000933400857536,0.00316507310882,0.000562238169901,0.0,0.0,0.0
1609045353885458946,103,1609045353885458946,-0.00757863201362,-0.000813057396133,-0.00397096588167,0.999669582139,0.000690469897762,0.0253158378877,-0.0043997896659,-0.00108759688697,0.0042499736919,3.84528134522e-05,0.0,0.0,0.0
1609045354086061001,104,1609045354086061001,-0.0076537929218,-0.000780589376464,-0.00395089183545,0.999668421495,0.00069993760845,0.025359471663,-0.00441070858157,-0.00182718419051,0.00289749775894,0.00016324853646,0.0,0.0,0.0
1609045354286147118,105,1609045354286147118,-0.00769345279883,-0.000782474027135,-0.00394434029766,0.999668772898,0.000676176948337,0.0253445610118,-0.00442046429936,-0.00148657405785,0.00272144332629,0.000354724510397,0.0,0.0,0.0
1609045354486316919,106,1609045354486316919,-0.00764909430408,-0.000765870567292,-0.00395940618802,0.999668762792,0.000660600981619,0.0253490504934,-0.00439931162076,-0.00233937460646,0.0025712259295,0.000211463931943,0.0,0.0,0.0
1609045354686389923,107,1609045354686389923,-0.00765556335808,-0.000753951291628,-0.003962261695,0.999669432527,0.000638247714348,0.0253273030516,-0.00437561786008,-0.0019832029107,0.00236745234139,-0.000257783227401,0.0,0.0,0.0
1609045354886342049,108,1609045354886342049,-0.0077383878837,-0.000746834264223,-0.00395345358288,0.999669058978,0.000652152237207,0.0253506150466,-0.00432360220496,-0.00164692624816,0.00281252254,-7.66445424689e-06,0.0,0.0,0.0
1609045355085828066,109,1609045355085828066,-0.00803315280023,-0.000735723816977,-0.00408686043183,0.9996640676,0.000669188799462,0.0255449763041,-0.00433108786924,-0.0016211145758,0.00141878463496,-0.000275524698787,0.0,0.0,0.0
1609045355285896063,110,1609045355285896063,-0.00767698474379,-0.000765619439689,-0.00408853601991,0.999664832114,0.000633526520331,0.0255242655715,-0.00428181559716,-0.00139795395684,0.00224080525745,-0.000366840913963,0.0,0.0,0.0
1609045355486027002,111,1609045355486027002,-0.00765880150625,-0.000730482116682,-0.0040835028597,0.999663428764,0.000620895921165,0.0255832559316,-0.00425918960679,-0.00172755868399,0.00287069426737,0.000576380704843,0.0,0.0,0.0
1609045355686250925,112,1609045355686250925,-0.00781261658199,-0.00073468847383,-0.00399344813782,0.999661132749,0.000660198170752,0.0256671545645,-0.00428730530397,-0.00252770839367,0.0021929823757,0.00113263117903,0.0,0.0,0.0
1609045355887100935,113,1609045355887100935,-0.00778304127767,-0.000710978586535,-0.00396052429839,0.999660238653,0.000632557156948,0.0257131819947,-0.0042236712991,-0.00245268132119,0.00252298070228,0.000985630416673,0.0,0.0,0.0
1609045356086218119,114,1609045356086218119,-0.00906484922332,-0.000765289362313,-0.00395611317452,0.999647726759,0.000746227312497,0.026167491711,-0.00437354629532,-0.00508252712164,0.00153671543862,0.000559264994991,0.0,0.0,0.0
1609045356286205053,115,1609045356286205053,-0.00789234039821,-0.000897127850059,-0.00399209180217,0.999659212831,0.00065847933829,0.0257545927957,-0.00421017292833,-0.000330903256697,0.00132993009384,-0.000270474909862,0.0,0.0,0.0
1609045356486398935,116,1609045356486398935,-0.00807088905033,-0.000999416521484,-0.00399389404362,0.999655274153,0.00074068639872,0.0259054020733,-0.00420646942463,-0.00115864061384,0.00163693898072,-0.000267653511031,0.0,0.0,0.0
1609045356686481953,117,1609045356686481953,-0.00803041091738,-0.000962575442647,-0.00391981153144,0.999655165495,0.00072898030379,0.0259177135974,-0.0041582217127,-0.00112015052499,0.00242576651677,0.000862416767211,0.0,0.0,0.0
1609045356886425972,118,1609045356886425972,-0.00803338363512,-0.000977699600344,-0.00383863644078,0.999654491055,0.000714976425079,0.0259455252534,-0.00414934241543,-0.00147791720935,0.00247627860668,0.000652197464116,0.0,0.0,0.0
1609045357086494923,119,1609045357086494923,-0.00801679405872,-0.000939508705637,-0.00382276769142,0.99965401548,0.000735822484582,0.0259619090157,-0.00415778541386,-0.00166986001285,0.00244739088019,0.000650192886334,0.0,0.0,0.0
1609045357286544085,120,1609045357286544085,-0.00809919443425,-0.000928788035047,-0.00381389883076,0.999652696781,0.000705130263042,0.0260139730068,-0.00415473439013,-0.00238710329421,0.00241615889704,0.00079012991496,0.0,0.0,0.0
1609045357486608982,121,1609045357486608982,-0.00822317775619,-0.00095954503381,-0.00375767368253,0.999652390202,0.00075310465123,0.0260275298983,-0.00413512806812,-0.002563533753,0.00251482764294,0.000916053946298,0.0,0.0,0.0
1609045357686759949,122,1609045357686759949,-0.00817600722775,-0.00135014233227,-0.00377571151206,0.999650602709,0.000793478932716,0.0261033326009,-0.00408153429871,-0.00260393020379,0.00185850379987,0.000352725102859,0.0,0.0,0.0
1609045357886737108,123,1609045357886737108,-0.00857290034641,-0.00126845787409,-0.00390077481725,0.999641498193,0.000809918423462,0.0264542893063,-0.00404841935685,-0.00313969438619,0.00258212162095,0.000835638095153,0.0,0.0,0.0
1609045358086795092,124,1609045358086795092,-0.00783227863424,-0.00127570435684,-0.00379860501274,0.999649593475,0.000710222666871,0.0261542746438,-0.00401743282035,-0.00145614815111,0.00269052289782,0.000808997335638,0.0,0.0,0.0
1609045358286808968,125,1609045358286808968,-0.00821100254676,-0.00153691341696,-0.00407096961405,0.999646463715,0.000734216857677,0.0262790876947,-0.00397719211165,-0.00233388377776,0.0024496206029,0.000122321725441,0.0,0.0,0.0
1609045358486879110,126,1609045358486879110,-0.00877967628007,-0.00102304062153,-0.00411369352269,0.999643791691,0.000687281055584,0.0263839983747,-0.00396257584287,-0.00314992544457,0.00149223717008,0.000233666042809,0.0,0.0,0.0
1609045358686996937,127,1609045358686996937,-0.00981618632084,-0.00115366216506,-0.0043031571311,0.999632559517,0.000640110039978,0.026809636847,-0.00394709821365,-0.00539923773826,0.0021740226602,0.00117037873623,0.0,0.0,0.0
1609045358887295961,128,1609045358887295961,-0.00952024475698,-0.000901063755236,-0.00401499174159,0.99964193208,0.000645144784108,0.0264615944457,-0.00392115236747,-0.00294887662186,0.00330999303823,0.00115392405281,0.0,0.0,0.0
1609045359087146044,129,1609045359087146044,-0.0108962660842,-0.000519778429615,-0.00390394280267,0.999638331791,0.000598803577443,0.0265988233308,-0.00391786234493,-0.00556386620646,0.00221998639036,0.00139721764794,0.0,0.0,0.0
1609045359287118912,130,1609045359287118912,-0.0112523500487,-0.000610066333155,-0.00376932003564,0.999638877576,0.000619145698828,0.0265934965135,-0.00381012338414,-0.00568301468261,0.00315483275018,0.00120154172662,0.0,0.0,0.0
1609045359487543106,131,1609045359487543106,-0.0130991137157,0.000100594493762,-0.0036956163862,0.999636281256,0.000584931054712,0.0267006974088,-0.00374643956883,-0.00776897625457,0.00386138513514,0.00108947827748,0.0,0.0,0.0
1609045359687218904,132,1609045359687218904,-0.0136807709687,0.000200908851584,-0.00329774585049,0.999637068199,0.000575001818526,0.0266750476811,-0.00372062992519,-0.00706127356407,0.00425574746946,0.000871390791358,0.0,0.0,0.0
1609045359887398005,133,1609045359887398005,-0.0166464995408,0.0012077609769,-0.00337540586606,0.999621581267,0.000480346540532,0.027257168909,-0.00367563268995,-0.0118491111953,0.0053541059037,0.000814396777789,0.0,0.0,0.0
1609045360087399960,134,1609045360087399960,-0.0179556667181,0.00230724959067,-0.00225334438809,0.999632485901,0.000463932766461,0.0268612855722,-0.00362618736351,-0.0110758909687,0.00619987569551,0.00265961699275,0.0,0.0,0.0
1609045360287447929,135,1609045360287447929,-0.0229028136749,0.00600800859423,-0.00172406005786,0.999628456632,0.00038281707643,0.0270232775762,-0.00354183744941,-0.0158681758647,0.00859609376736,0.00340335510428,0.0,0.0,0.0
1609045360487519979,136,1609045360487519979,-0.0274731567448,0.0106185907926,-0.000737743590444,0.999626164227,0.00025952102818,0.0271199993816,-0.00345977977629,-0.0191764604211,0.0133847409991,0.00439893863284,0.0,0.0,0.0
1609045360687805891,137,1609045360687805891,-0.0308457552938,0.0118600680847,-0.000752942504364,0.99961464648,0.000213140548671,0.0275380580686,-0.00348833357065,-0.0215190804257,0.0114178757434,0.00259411077125,0.0,0.0,0.0
1609045360887841940,138,1609045360887841940,-0.0354370930728,0.0164084201964,0.00111571954315,0.999623791687,0.000154179915289,0.0272149681338,-0.00340541195089,-0.02291717142,0.0141774936197,0.00476020465491,0.0,0.0,0.0
1609045361087624073,139,1609045361087624073,-0.0419844643456,0.0202625169396,0.00235639963746,0.999620682998,2.85179793961e-05,0.0273354067335,-0.00335631471225,-0.0273050649885,0.0155071597292,0.00634151551675,0.0,0.0,0.0
1609045361287683964,140,1609045361287683964,-0.0494825940399,0.0252843312019,0.00376132635557,0.999618486132,-7.2445437294e-05,0.0274203970123,-0.00331643835163,-0.030724810166,0.0164500992348,0.00558257867142,0.0,0.0,0.0
1609045361487725973,141,1609045361487725973,-0.0548750333977,0.0296805466409,0.00459648734111,0.999618937506,-0.000107827886801,0.0274135198812,-0.00323528669307,-0.0319400790999,0.0192316483723,0.00584707089134,0.0,0.0,0.0
1609045361688085079,142,1609045361688085079,-0.0620147499508,0.029998431727,0.00355493140573,0.99960396254,-0.000146758138211,0.0279381620874,-0.00336981248394,-0.0371300635748,0.0120548205759,0.00194965371269,0.0,0.0,0.0
1609045361887913942,143,1609045361887913942,-0.0713356396349,0.0304875730167,0.00750004229942,0.999612081497,-4.93632960455e-05,0.0276538239924,-0.00330909466731,-0.0403313252269,0.0145352842323,0.00586477572893,0.0,0.0,0.0
1609045362087954998,144,1609045362087954998,-0.0811476344639,0.035629249436,0.00852603827986,0.999608957534,-0.000157904983518,0.0277739549235,-0.003242608902,-0.0456031595885,0.0164517758982,0.00623687262034,0.0,0.0,0.0
1609045362288012981,145,1609045362288012981,-0.0906116822127,0.0394601439776,0.00994572182785,0.99960771515,-0.000225991607711,0.0278229395603,-0.00320137069866,-0.0497485677256,0.016934750725,0.00695124059418,0.0,0.0,0.0
1609045362488084078,146,1609045362488084078,-0.100104016688,0.0442555986392,0.0112797971012,0.999607823938,-0.000238342978759,0.0278248548519,-0.00314943900709,-0.0521923366242,0.019288224324,0.00593932427499,0.0,0.0,0.0
1609045362688250065,147,1609045362688250065,-0.0976780641412,0.0315241402585,0.00967124412622,0.999596352584,-0.000134079310188,0.0281986169172,-0.00345715607651,-0.0469730836362,0.00707376181582,0.000879448699682,0.0,0.0,0.0
1609045362888199091,148,1609045362888199091,-0.124840149838,0.0551615028661,0.0165750120939,0.999602866233,-0.000368336279718,0.028007157833,-0.00309406823244,-0.0614253926106,0.0226395769744,0.00839983597314,0.0,0.0,0.0
1609045363088479042,149,1609045363088479042,-0.129520933163,0.0555379029945,0.0214210675342,0.999605776592,-0.000413153993579,0.0279004379002,-0.00311227765035,-0.0574315088693,0.0216502316149,0.0113015984451,0.0,0.0,0.0
1609045363288374901,150,1609045363288374901,-0.144776140915,0.0602695004328,0.0228275108088,0.999603454096,-0.000421591555389,0.02798706048,-0.00307916627718,-0.0640295388175,0.0212245350681,0.00997270152731,0.0,0.0,0.0
1609045363488368034,151,1609045363488368034,-0.158061745552,0.0650399764641,0.0253124282401,0.99960207039,-0.000392333406128,0.0280376492372,-0.00307199791027,-0.0674721032939,0.0231289684154,0.0112331126368,0.0,0.0,0.0
1609045363688412905,152,1609045363688412905,-0.14497474786,0.0321026540777,0.0181917820146,0.999591425782,-0.000175852804889,0.0283900406461,-0.00331001071369,-0.0562226732444,0.00510054458938,0.00203584354358,0.0,0.0,0.0
1609045363888463020,153,1609045363888463020,-0.179598910364,0.0572996483552,0.0306650972548,0.999599195998,-0.000410514092539,0.0281318126459,-0.00314323961571,-0.0719233931923,0.018117011707,0.0112597792084,0.0,0.0,0.0
1609045364088536024,154,1609045364088536024,-0.181916234923,0.0573074295334,0.0370422353235,0.999603504338,-0.000468880101848,0.0279866510134,-0.00305967841934,-0.0651009899901,0.0172938410346,0.0132719908605,0.0,0.0,0.0
1609045364288593054,155,1609045364288593054,-0.200695729711,0.053152229142,0.037672752824,0.999600703201,-0.000351972778502,0.0280811994488,-0.00312354175995,-0.071431917454,0.0102503637157,0.0103357448576,0.0,0.0,0.0
1609045364488691092,156,1609045364488691092,-0.201437083664,0.0445743807412,0.034424520721,0.999592687324,-0.000297309464642,0.0283505390667,-0.00325852587358,-0.0658209274552,0.00457544280778,0.00252503481775,0.0,0.0,0.0
1609045364688767910,157,1609045364688767910,-0.232156496622,0.0568271062646,0.0427224636125,0.999599909356,-0.000273962145611,0.0281149745582,-0.00308129285437,-0.0785187292677,0.0127273498131,0.00899439279211,0.0,0.0,0.0
1609045364888803959,158,1609045364888803959,-0.247206550206,0.0573607427694,0.0438468883772,0.999601201959,-0.000251044261752,0.0280753009377,-0.00302514392567,-0.0800449057433,0.0132759144678,0.009399883966,0.0,0.0,0.0
1609045365088877916,159,1609045365088877916,-0.257309013683,0.0603897794703,0.0480416963007,0.99960394492,-0.000346214031562,0.0279931294573,-0.00286672977552,-0.0767729138669,0.0161553596956,0.00988717910448,0.0,0.0,0.0
1609045365288950920,160,1609045365288950920,-0.278646156751,0.0602936054086,0.0483166217331,0.999601232094,-0.000256367381674,0.0280883559803,-0.00289055866818,-0.0842395167666,0.0132034198751,0.00871900263098,0.0,0.0,0.0
1609045365488995075,161,1609045365488995075,-0.25666778685,0.0483424951997,0.0453035215148,0.999596805585,-0.000229854640212,0.0282311582076,-0.00302904894571,-0.0626888453589,0.0065326772057,0.00278984871823,0.0,0.0,0.0
1609045365688999891,162,1609045365688999891,-0.311786071695,0.0687301277689,0.0541259477701,0.999600993941,-0.000236128136753,0.0281010310026,-0.00285117730061,-0.0867400071567,0.0168695220136,0.010359318348,0.0,0.0,0.0
1609045365889074087,163,1609045365889074087,-0.324757763238,0.0676464503404,0.056066505776,0.999601852068,-0.000225578524798,0.0280729059665,-0.00282814547099,-0.0857475301651,0.0164333563627,0.0102897800336,0.0,0.0,0.0
1609045366089149952,164,1609045366089149952,-0.33103127062,0.0686403943844,0.0630353420053,0.99960525297,-0.0002489552193,0.0279618448442,-0.00272240515227,-0.0780128057886,0.020899013432,0.0122492953782,0.0,0.0,0.0
1609045366289175987,165,1609045366289175987,-0.355528106189,0.0748904284947,0.0614041499758,0.999599976908,-0.000239190071387,0.0281431976361,-0.00279094607295,-0.0858064339156,0.0224963056791,0.00945991994908,0.0,0.0,0.0
1609045366489259005,166,1609045366489259005,-0.309164451888,0.0515489900379,0.0594281559787,0.999594697865,-0.000173169148335,0.0283049640079,-0.00303957662202,-0.05394172135,0.00736361492621,0.00229369606603,0.0,0.0,0.0
1609045366689404964,167,1609045366689404964,-0.384825274189,0.0760926380853,0.066276294393,0.999597995848,-0.000207102439057,0.0282122397428,-0.0028059461623,-0.0869633297048,0.0191621657457,0.007996903689,0.0,0.0,0.0
1609045366889483929,168,1609045366889483929,-0.397131314948,0.0763634750867,0.0680943112349,0.9995983984,-0.000207699393353,0.0282040813709,-0.00274382406408,-0.0858319237876,0.0194036056439,0.0079715424295,0.0,0.0,0.0
1609045367089402914,169,1609045367089402914,-0.407729044644,0.077478241997,0.0719517760406,0.999599193467,-0.000229571964884,0.0281780600202,-0.00271967823489,-0.0820566162526,0.0203463329501,0.0082662943338,0.0,0.0,0.0
1609045367289437056,170,1609045367289437056,-0.424613562399,0.0808672135723,0.0727168836318,0.999597380329,-0.000191379808658,0.0282379809365,-0.00276713679359,-0.0834419444109,0.0222485426524,0.00849821710616,0.0,0.0,0.0
1609045367489526987,171,1609045367489526987,-0.361453806199,0.0514731109271,0.0729790045029,0.999594200278,-0.000148649005145,0.028327964143,-0.00298983646027,-0.0448068986009,0.00712698870643,0.00258650529498,0.0,0.0,0.0
1609045367689614058,172,1609045367689614058,-0.449555013449,0.0833757519635,0.0774821272035,0.999596067327,-0.000172798440528,0.0282823650293,-0.00278929275293,-0.0821301002639,0.0222822604681,0.00893692524001,0.0,0.0,0.0
1609045367889620066,173,1609045367889620066,-0.460417658719,0.0841930412745,0.0790105682333,0.999595339426,-0.000186500405663,0.0283094203941,-0.00277476719253,-0.0796558924545,0.0222294722665,0.0075013234133,0.0,0.0,0.0
1609045368089764118,174,1609045368089764118,-0.465576145007,0.0762707391457,0.0821354109389,0.999594377781,-0.00016678218918,0.0283376005025,-0.00283416475237,-0.0765226217215,0.0178974315373,0.00782725989937,0.0,0.0,0.0
1609045368289760113,175,1609045368289760113,-0.48124821385,0.085851255519,0.0836994093378,0.999594743761,-0.000204890862769,0.0283308283963,-0.00276955380854,-0.0771463488276,0.0239959040534,0.00852540169548,0.0,0.0,0.0
1609045368489800930,176,1609045368489800930,-0.442017177692,0.0635355943117,0.0796949972921,0.999588332924,-0.000151590571037,0.0285319252078,-0.00301180112147,-0.0520990453497,0.0117488435463,0.000677901076589,0.0,0.0,0.0
1609045368689857006,177,1609045368689857006,-0.501902483657,0.0899788925107,0.0895786163016,0.999594428197,-0.0002510917179,0.028335304782,-0.00283312073116,-0.0744537834294,0.0263051573752,0.00938403632522,0.0,0.0,0.0
1609045368890006065,178,1609045368890006065,-0.508325756357,0.0859223637751,0.093156942456,0.999593930676,-0.000179424200057,0.0283494721137,-0.00287210599715,-0.0718261464955,0.0231205940464,0.0089823643659,0.0,0.0,0.0
1609045369089982986,179,1609045369089982986,-0.512143430048,0.0781629111149,0.0951346187518,0.999592458937,-0.000179799013146,0.0283964279187,-0.0029200325812,-0.0681769952016,0.0186892927025,0.00690568241903,0.0,0.0,0.0
1609045369290018082,180,1609045369290018082,-0.525139683705,0.0837816713221,0.097269747697,0.999592690042,-0.000197987088291,0.0283907891038,-0.00289446183233,-0.0686588581891,0.0216210099148,0.00708894756862,0.0,0.0,0.0
1609045369490113020,181,1609045369490113020,-0.493241072109,0.0647127115775,0.0934368177847,0.999587619567,-0.000161089494441,0.028553110422,-0.00304708769799,-0.0461240036367,0.00993287705774,9.7282124886e-05,0.0,0.0,0.0
1609045369690160036,182,1609045369690160036,-0.547650253923,0.0880883849768,0.10402511365,0.999593413699,-0.000210438163805,0.0283641592762,-0.00290473310972,-0.0674262597146,0.0229872866991,0.00929236309422,0.0,0.0,0.0
1609045369890276909,183,1609045369890276909,-0.554337904152,0.0877452576727,0.108330679887,0.999593948003,-0.000236879369752,0.0283462359461,-0.002893771339,-0.0646973781309,0.0234973834382,0.0111500055577,0.0,0.0,0.0
1609045370090321064,184,1609045370090321064,-0.558610254945,0.0832006980527,0.112760824155,0.999593350292,-0.000218129983159,0.0283597537253,-0.00296830581519,-0.0614513490889,0.0210185756794,0.012469296817,0.0,0.0,0.0
1609045370290327072,185,1609045370290327072,-0.564097156716,0.0827094181548,0.116647403854,0.999595314625,-0.000131949211821,0.0282861232606,-0.00301410016465,-0.0581580230313,0.0213830336809,0.0130627105118,0.0,0.0,0.0
1609045370490374088,186,1609045370490374088,-0.540754197129,0.0677294991315,0.108713045591,0.99958620628,-0.00010285932646,0.0285808906803,-0.00324627826549,-0.0414749252489,0.011478300503,0.00304555739577,0.0,0.0,0.0
1609045370690433979,187,1609045370690433979,-0.587331160885,0.0912056440697,0.121021906898,0.999592554547,-0.000214515848359,0.0283725518573,-0.00311081638063,-0.0598637696417,0.0234222915188,0.0130198827673,0.0,0.0,0.0
1609045370890566111,188,1609045370890566111,-0.595984874833,0.0919346356259,0.124180335201,0.99959347884,-0.000195997417773,0.0283309858062,-0.00319278693571,-0.0587140003451,0.0227560215166,0.0132048569251,0.0,0.0,0.0
1609045371090600967,189,1609045371090600967,-0.600432361401,0.0926608066814,0.128204345111,0.999593501789,-0.000287029366745,0.028328433483,-0.00320135142559,-0.0555438537422,0.0213971875401,0.0127732344312,0.0,0.0,0.0
1609045371290604115,190,1609045371290604115,-0.613719866885,0.0946588273172,0.130791964902,0.999592564759,-0.00018841469257,0.0283497443449,-0.00331073613209,-0.0563040354061,0.0203056051704,0.0125741634772,0.0,0.0,0.0
1609045371490675926,191,1609045371490675926,-0.581762510851,0.0799277244705,0.124598564997,0.999587407228,-0.000253249784784,0.0285169952097,-0.003425224027,-0.0330408088609,0.011341917304,0.00314540915939,0.0,0.0,0.0
1609045371690723896,192,1609045371690723896,-0.630756669996,0.0970455597953,0.136869771517,0.999593204257,-0.000223229094783,0.0283176628671,-0.00338912122572,-0.0540150260314,0.0181014120758,0.0119453334493,0.0,0.0,0.0
1609045371890764952,193,1609045371890764952,-0.638026769906,0.0948747321248,0.139577011277,0.999592224769,-0.000210562288521,0.0283382393251,-0.00350485895152,-0.0522544643477,0.015464007582,0.012536065818,0.0,0.0,0.0
1609045372090867996,194,1609045372090867996,-0.620742231857,0.0734132442391,0.149036544459,0.999595442248,-6.60230759077e-05,0.0281982125641,-0.00371595028258,-0.0377529248894,0.00186862990217,0.0150057487125,0.0,0.0,0.0
1609045372291059971,195,1609045372291059971,-0.647887106821,0.107394520479,0.145802070054,0.999594437357,-0.000331531153528,0.0282705834079,-0.00340954628622,-0.0453538715013,0.0237620798975,0.0132334671382,0.0,0.0,0.0
1609045372490956068,196,1609045372490956068,-0.628329039978,0.0835464604769,0.137187989804,0.99958510821,-0.000281623917864,0.0285566327995,-0.003748447095,-0.0331109403195,0.00433299446741,0.00236994000152,0.0,0.0,0.0
1609045372691056967,197,1609045372691056967,-0.677359345525,0.103375892814,0.149719473531,0.999590480701,-0.00022771594798,0.0283907423065,-0.00357558216265,-0.0552934060028,0.013333287227,0.0111861013095,0.0,0.0,0.0
1609045372891067982,198,1609045372891067982,-0.686158502413,0.10398881157,0.149751097454,0.999590014999,-0.000233148873247,0.0284032116688,-0.00360626167342,-0.0546568184602,0.012647679209,0.0100056871487,0.0,0.0,0.0
1609045373091223001,199,1609045373091223001,-0.68452493175,0.0919998784159,0.15937841862,0.999591785085,-0.000204150502605,0.028323420904,-0.00374237111741,-0.0482437966525,0.00363435673466,0.0140218061448,0.0,0.0,0.0
1609045373291260004,200,1609045373291260004,-0.711542663607,0.107637049767,0.155585259446,0.999588221932,-0.000227082907431,0.0284574199617,-0.00367563028971,-0.0594313662798,0.0120679610877,0.0100776109495,0.0,0.0,0.0
1609045373491334915,201,1609045373491334915,-0.677705178141,0.0870726964403,0.14643605625,0.999585150183,-0.000258486371237,0.0285402865273,-0.00386170464405,-0.034301202858,0.00189463565042,-0.00245335145891,0.0,0.0,0.0
1609045373691334963,202,1609045373691334963,-0.735177791312,0.102269072527,0.156940426718,0.999586637658,-0.000142379899356,0.028486263794,-0.0038815356486,-0.0614790279212,0.00566547325005,0.00592697558905,0.0,0.0,0.0
1609045373891372919,203,1609045373891372919,-0.745985256964,0.109841689405,0.159773759661,0.999588986335,-0.000196350278768,0.0284114468754,-0.00382224165258,-0.0609798880738,0.0115421676614,0.00708386146364,0.0,0.0,0.0
1609045374091481924,204,1609045374091481924,-0.746703952385,0.103206504939,0.165906928701,0.999593379762,-0.00021931899698,0.0282509779176,-0.00386125401606,-0.0531551380261,0.00509712795012,0.0102208712685,0.0,0.0,0.0
1609045374291538954,205,1609045374291538954,-0.76605711808,0.112419709132,0.164644364147,0.9995914013,-0.000234032603086,0.0283233180557,-0.00384256821506,-0.0586613165645,0.0105268761906,0.00892789888009,0.0,0.0,0.0
1609045374491626978,206,1609045374491626978,-0.738890736904,0.0973207624215,0.15794502296,0.999588694545,-0.000209136145131,0.0284026920548,-0.00396043998596,-0.0368740944345,0.0027882824352,-0.00118787426455,0.0,0.0,0.0
1609045374691632986,207,1609045374691632986,-0.785835600709,0.113204158834,0.169422279778,0.999594082462,-0.000193406061067,0.0282196939876,-0.00390919072849,-0.0571458518411,0.00735825326842,0.00719318162606,0.0,0.0,0.0
1609045374891716003,208,1609045374891716003,-0.797654517578,0.114009144873,0.169590980051,0.999594156459,-0.000158673756143,0.0282179840604,-0.00390417364607,-0.0577314842479,0.00633512208143,0.00589519704231,0.0,0.0,0.0
1609045375091737032,209,1609045375091737032,-0.808911464147,0.121406172569,0.171955393192,0.999596519321,-0.000248082066127,0.0281411769346,-0.00384852913545,-0.056459727321,0.00965280436816,0.0060512193545,0.0,0.0,0.0
1609045375291837931,210,1609045375291837931,-0.79620607344,0.102372668544,0.17649452692,0.999599408115,-0.000183194925744,0.0280159286414,-0.00401216628027,-0.0431513899944,-0.00340084589211,0.00706759753856,0.0,0.0,0.0
1609045375492098093,211,1609045375492098093,-0.831125942108,0.12681459109,0.176079827404,0.999597676127,-0.000293605562737,0.028100363762,-0.00384307601181,-0.0569987437563,0.0105607793637,0.00737784602879,0.0,0.0,0.0
1609045375691972971,212,1609045375691972971,-0.800070826603,0.111402394932,0.167142711336,0.999593338672,-0.000284449649018,0.0282321942656,-0.00400244659849,-0.0344022865841,0.00260575695619,-0.00164059353763,0.0,0.0,0.0
1609045375892020941,213,1609045375892020941,-0.849422056304,0.130947387361,0.181053253398,0.999600032793,-0.000285446695235,0.028007076762,-0.00391108820943,-0.0538270428698,0.0113647810786,0.00927594228527,0.0,0.0,0.0
1609045376091986895,214,1609045376091986895,-0.856548098551,0.132276280211,0.185054389209,0.999601499708,-0.000309564095481,0.0279620621111,-0.00385603861991,-0.0518223297944,0.0106049961673,0.00967537448084,0.0,0.0,0.0
1609045376292114019,215,1609045376292114019,-0.85286511936,0.121563581085,0.192555271692,0.999602516192,-0.000218832896194,0.0279038226389,-0.00401726497268,-0.0434446186952,0.00347376292812,0.012293370374,0.0,0.0,0.0
1609045376492224932,216,1609045376492224932,-0.872590735617,0.134109758467,0.191699270783,0.999601248951,-0.000221941185364,0.0279529792021,-0.00399058791819,-0.0494204883814,0.0105676488676,0.00998011281444,0.0,0.0,0.0
1609045376692554951,217,1609045376692554951,-0.848659160988,0.12070130643,0.182914196291,0.999596503267,-0.000278532239222,0.0281156629651,-0.00403268793484,-0.0325678387616,0.00255105253024,-0.000297963185532,0.0,0.0,0.0
1609045376892302990,218,1609045376892302990,-0.888294585816,0.135359573152,0.196969540538,0.999603553962,-0.000270675603441,0.0278653544755,-0.00402289218763,-0.0467334775256,0.00852659008965,0.0105056584925,0.0,0.0,0.0
1609045377092336893,219,1609045377092336893,-0.893552329246,0.13491529485,0.200686433893,0.999604872232,-0.000262300693197,0.0278169031076,-0.00403119223067,-0.0444447894497,0.007600666561,0.0107510428629,0.0,0.0,0.0
1609045377292407990,220,1609045377292407990,-0.891583717024,0.124392418389,0.203756894427,0.999605894154,-0.00018366852405,0.0277537169451,-0.0042135299282,-0.0378797890915,-0.000980619615033,0.00979472552779,0.0,0.0,0.0
1609045377492547989,221,1609045377492547989,-0.910420960017,0.139899674578,0.204653063118,0.999605872511,-0.000224087892046,0.0277750561012,-0.0040737802421,-0.0440339177725,0.00948629694771,0.00890573935654,0.0,0.0,0.0
1609045377692677021,222,1609045377692677021,-0.889793613605,0.127016020944,0.195519608528,0.999599556173,-0.000259668281313,0.0279849544835,-0.00418356240443,-0.0286393330232,0.00118843155699,-0.00125895759796,0.0,0.0,0.0
1609045377892591953,223,1609045377892591953,-0.928321930976,0.142596240726,0.208847967842,0.999606548635,-0.000243973933271,0.0277458203004,-0.00410583223552,-0.0451358163687,0.00823207735561,0.0097945207949,0.0,0.0,0.0
1609045378092611074,224,1609045378092611074,-0.935725419623,0.143466747591,0.212090867443,0.999606503262,-0.000227037171868,0.0277413582052,-0.00414778671417,-0.0434219255246,0.00682174311636,0.00969797881655,0.0,0.0,0.0
1609045378292722940,225,1609045378292722940,-0.93622475685,0.147930538789,0.211825622031,0.999608251117,-0.000332132045025,0.0276923881231,-0.00404544512363,-0.0372936102813,0.0112841194906,0.00689411018494,0.0,0.0,0.0
1609045378492813110,226,1609045378492813110,-0.951420875589,0.146186544846,0.216415172375,0.999607000944,-0.00023829854126,0.0277145439485,-0.00420605880027,-0.0411969032886,0.00666950961092,0.0109455337222,0.0,0.0,0.0
1609045378693046093,227,1609045378693046093,-0.936615665005,0.13848389083,0.208629332013,0.999599300719,-0.000271205082136,0.027972698361,-0.00432349345688,-0.0284566068803,0.000939728467221,0.00189412697923,0.0,0.0,0.0
1609045378893153906,228,1609045378893153906,-0.968533176297,0.146255434593,0.22375791979,0.999608176889,-0.000222274433646,0.0276593422723,-0.00428999714434,-0.0404697645186,0.000943646402795,0.0108990909344,0.0,0.0,0.0
1609045379092988968,229,1609045379092988968,-0.978347957165,0.154192823443,0.22458253578,0.999609010136,-0.000260041700462,0.0276370822119,-0.00423685250976,-0.0407809382602,0.00581428663723,0.00948602707681,0.0,0.0,0.0
1609045379293112040,230,1609045379293112040,-0.982594267731,0.151175005855,0.22878335789,0.999609792425,-0.000230880821388,0.0275880606237,-0.00437132625498,-0.0362551056676,1.59202095564e-06,0.0104396976646,0.0,0.0,0.0
1609045379493189096,231,1609045379493189096,-0.992281605934,0.160431102428,0.229885740093,0.999609917085,-0.000272497435446,0.0275929847412,-0.00430889827884,-0.0368124558877,0.00664889422728,0.00994715131573,0.0,0.0,0.0
1609045379693196058,232,1609045379693196058,-0.978867557747,0.150228595912,0.220388758956,0.999602828551,-0.000421380394972,0.02783051958,-0.00441245642469,-0.0242299736689,-0.00198612043375,-1.81718969747e-05,0.0,0.0,0.0
1609045379893230915,233,1609045379893230915,-1.00900135243,0.163558281262,0.232747521917,0.999610094886,-0.000259625206883,0.0275775409855,-0.00436692461367,-0.0352602955873,0.00412328747105,0.00944324084903,0.0,0.0,0.0
1609045380093319893,234,1609045380093319893,-1.01552279834,0.160839044512,0.234539107778,0.999611022796,-0.000282226774353,0.0275299018555,-0.00445285940093,-0.0344437051993,0.0017494045468,0.0094271911406,0.0,0.0,0.0
1609045380293308020,235,1609045380293308020,-1.01931029352,0.157566146447,0.239526588513,0.999611944319,-0.000265594314673,0.0274820329843,-0.00454181659913,-0.0310641907871,-0.00278005958787,0.0104389948969,0.0,0.0,0.0
1609045380493343115,236,1609045380493343115,-1.02840782008,0.155430365973,0.236481239124,0.999610481731,-0.000143900943697,0.0275374992887,-0.00453323706185,-0.0330159358595,-0.00295178236222,0.00759140998097,0.0,0.0,0.0
1609045380693406105,237,1609045380693406105,-1.01835286324,0.154867628279,0.226660649787,0.999603363375,-0.000199297946136,0.0277872945839,-0.0045762943432,-0.0219452080666,-0.00515301557917,-0.0020468476916,0.0,0.0,0.0
1609045380893428087,238,1609045380893428087,-1.03947669313,0.167989825546,0.24022508328,0.999615296801,-0.000193956474435,0.0273744123812,-0.00445671723979,-0.0268194400746,0.00289350212222,0.00857156105156,0.0,0.0,0.0
1609045381093558073,239,1609045381093558073,-1.05327156797,0.166424207558,0.239301056233,0.999614226453,-0.000154850326477,0.0274096302626,-0.00448179233596,-0.0308694406127,-0.00253668750405,0.00653317762063,0.0,0.0,0.0
1609045381293576956,240,1609045381293576956,-1.05914342534,0.166110050136,0.240115538602,0.99961477783,-0.000114893286045,0.0273877793054,-0.00449358308179,-0.0296390646895,-0.00492047279057,0.00586156999207,0.0,0.0,0.0
1609045381493673086,241,1609045381493673086,-1.06238838031,0.1636119074,0.242278131531,0.999616132138,-0.000138569890062,0.027342584045,-0.00446679580866,-0.0267152238485,-0.00856196674795,0.00629829770748,0.0,0.0,0.0
1609045381693701029,242,1609045381693701029,-1.07235855538,0.168101945325,0.242108007129,0.999616580618,-0.000155714216039,0.0273323505542,-0.00442833144792,-0.0280257392344,-0.00642242007473,0.00536693810386,0.0,0.0,0.0
1609045381893836975,243,1609045381893836975,-1.05582831999,0.167312667298,0.237245791657,0.999611569666,-0.000289243059606,0.0275099532672,-0.00445293154098,-0.0148007095827,-0.00530205525495,-0.000505036062645,0.0,0.0,0.0
1609045382093858957,244,1609045382093858957,-1.05650792562,0.139094748693,0.231801668266,0.999619415101,0.000187752551624,0.0272378011227,-0.00436942697241,-0.017896762711,-0.0131723988298,-0.000269012205865,0.0,0.0,0.0
1609045382293979883,245,1609045382293979883,-1.08532256178,0.150541928549,0.233822456202,0.999620221792,0.000396043427725,0.0272231044033,-0.00426121130115,-0.0236208638127,-0.0084484901141,0.000872833976537,0.0,0.0,0.0
1609045382493988037,246,1609045382493988037,-1.0932863109,0.148849214198,0.235847287486,0.999621267648,0.000423630586723,0.0271861729255,-0.0042489768518,-0.0242085243956,-0.0100926040129,0.00134809345241,0.0,0.0,0.0
1609045382693979979,247,1609045382693979979,-1.09226596889,0.150052158828,0.240440941086,0.99962274918,0.000457942494382,0.0271374968804,-0.0042078347684,-0.0178223503329,-0.00783459789831,0.00428448634528,0.0,0.0,0.0
1609045382894036055,248,1609045382894036055,-1.10578474454,0.150517079903,0.239461120761,0.999621052297,0.000507038468338,0.0271950918616,-0.00423340223456,-0.022361255621,-0.00813440467589,0.00223090812897,0.0,0.0,0.0
1609045383094149113,249,1609045383094149113,-1.09544872713,0.153862972131,0.23141732354,0.9996143599,0.000436624560324,0.0274376702288,-0.00425618298113,-0.0143171387136,-0.00307584472478,-0.0058513015336,0.0,0.0,0.0
1609045383294266939,250,1609045383294266939,-1.10636342127,0.150065858009,0.242775169142,0.999624664791,0.000572277901492,0.0270620777851,-0.00422445097714,-0.0147494969807,-0.0059029658386,0.00326567247936,0.0,0.0,0.0
1609045383495126009,251,1609045383495126009,-1.1036968129,0.151310515376,0.248112951003,0.99962623398,0.000618117212474,0.0270007616936,-0.00423900198162,-0.0100425123891,-0.00396567584656,0.00616004545066,0.0,0.0,0.0
1609045383695096016,252,1609045383695096016,-1.10433713891,0.151002001221,0.245853500985,0.999625597212,0.000385532985131,0.0270409987347,-0.00415946515725,-0.00736504805776,-0.0063275861673,0.00482939590333,0.0,0.0,0.0
1609045383894352913,253,1609045383894352913,-1.10585360767,0.151608197803,0.246051862264,0.999626448814,0.000586080653502,0.0270057951059,-0.00416009284955,-0.00472867726899,-0.00625595459086,0.00342937045314,0.0,0.0,0.0
1609045384094408989,254,1609045384094408989,-1.11042317437,0.151115918098,0.247986518164,0.999625378003,0.000590126342151,0.0270428813952,-0.00417587945191,-0.0053766697918,-0.00620670582942,0.00436971343581,0.0,0.0,0.0
1609045384294465065,255,1609045384294465065,-1.10917387816,0.153025278307,0.24788204389,0.999626621473,0.000416499264907,0.0270103717569,-0.00410901311353,-0.00139141348532,-0.00700735180883,0.00289751700086,0.0,0.0,0.0
1609045384494659901,256,1609045384494659901,-1.10423970024,0.152202932638,0.246283582093,0.999628128704,0.000562250040056,0.0269649561913,-0.00402235206912,0.00364959003483,-0.00451866440019,0.00276466376249,0.0,0.0,0.0
1609045384694868088,257,1609045384694868088,-1.10253413605,0.152809346896,0.244269889406,0.999625620622,0.000469927661616,0.0270489276907,-0.00409307641544,0.00529332797771,-0.00354433037631,3.49542537972e-05,0.0,0.0,0.0
1609045384894613981,258,1609045384894613981,-1.1028898507,0.152020259354,0.246361642908,0.999626049161,0.000553201826928,0.0270517201852,-0.00395730230152,0.00663478409031,-0.00639607105156,0.00164441583674,0.0,0.0,0.0
1609045385094672918,259,1609045385094672918,-1.09701339765,0.152771424366,0.244144884751,0.999630033697,0.00052455259431,0.0269027026277,-0.00397053742392,0.0131461564463,-0.00565057792382,0.00239417234405,0.0,0.0,0.0
1609045385294747114,260,1609045385294747114,-1.09200730292,0.152143660182,0.246834088515,0.999631593381,0.000384694914125,0.0268210412985,-0.00414261615819,0.0110382847987,-0.0059956542935,-0.00195505509504,0.0,0.0,0.0
1609045385495218992,261,1609045385495218992,-1.09201019032,0.160607855048,0.2525591989,0.999746153281,0.000280328113055,0.0221243665034,-0.00425003800646,0.0184690303134,-0.00351765503914,-0.00875579308986,0.0,0.0,0.0
1609045385695164919,262,1609045385695164919,-1.10137493842,0.161193720106,0.245934116863,0.999691370468,-1.93234313417e-05,0.0245021927243,-0.00409951095693,-0.0110379969969,-0.00473448300289,0.00709623172209,0.0,0.0,0.0
1609045385895032883,263,1609045385895032883,-1.10124593913,0.160426430807,0.247691720981,0.999673041687,0.000733200241255,0.0252526838569,-0.00394640326226,0.0208595717826,-0.00035224298076,-0.0135064894934,0.0,0.0,0.0
1609045386095037937,264,1609045386095037937,-1.09658441579,0.157607620212,0.259502765426,0.999748638485,0.000475745370937,0.0219270803266,-0.00465152246086,0.0197255594088,-0.00596004250048,0.00495270663661,0.0,0.0,0.0
1609045386295114040,265,1609045386295114040,-1.10788665027,0.161314395185,0.256615426611,0.999704675182,0.000907924673672,0.022214232994,-0.00981152105362,-0.00554004238338,-0.00677446471712,0.117954372066,0.0,0.0,0.0
1609045386495553017,266,1609045386495553017,-1.1069683913,0.156988050004,0.308566498131,0.999375808425,0.00175196081641,0.0256181200675,-0.0242618237826,-0.0397584936859,-0.068384027373,0.398341468975,0.0,0.0,0.0
1609045386695239067,267,1609045386695239067,-1.11535241287,0.136090040247,0.409706584783,0.99911658388,0.00146015219853,0.0274908388111,-0.0317517488284,-0.0857770245119,-0.163616427001,0.62413776318,0.0,0.0,0.0
1609045386895278931,268,1609045386895278931,-1.13328176149,0.0909985645689,0.521489283904,0.999392158421,0.000991881563994,0.0230203241035,-0.0261609353174,-0.132944511659,-0.252555842155,0.457816820779,0.0,0.0,0.0
1609045387095287085,269,1609045387095287085,-1.17094995611,0.0336132508952,0.597112523555,0.999674959892,0.000966943893505,0.0196662884936,-0.0161949585307,-0.157861943184,-0.295998240504,0.247415411131,0.0,0.0,0.0
1609045387295496941,270,1609045387295496941,-1.19582275215,-0.0189973235787,0.623752543198,0.999651005098,0.00141308661662,0.0258068143876,-0.00546621659827,-0.158408485875,-0.294894277491,0.121730618875,0.0,0.0,0.0
1609045387495359898,271,1609045387495359898,-1.23025683051,-0.0783186036969,0.63197108712,0.999253439388,0.00151352153213,0.0380143479663,0.00672179084625,-0.21963507673,-0.264383940336,-0.0119692379393,0.0,0.0,0.0
1609045387695524931,272,1609045387695524931,-1.28717898549,-0.131180639804,0.628557485812,0.999146887515,0.00188068898713,0.0398416601219,0.010705246266,-0.335615591924,-0.186647367395,-0.142807315368,0.0,0.0,0.0
1609045387895523071,273,1609045387895523071,-1.3641061442,-0.163689882036,0.591858486723,0.999768775772,0.00151335194635,0.00908796829127,-0.0194297089308,-0.364117326819,-0.170345306914,-0.128090630433,0.0,0.0,0.0
1609045388095546961,274,1609045388095546961,-1.42653260184,-0.207727537425,0.568923023072,0.999663922401,0.0017746084142,0.00242104817093,-0.0257493988213,-0.283728445706,-0.248242512015,-0.0388001746616,0.0,0.0,0.0
1609045388295631886,275,1609045388295631886,-1.4810770277,-0.277744786716,0.566790402287,0.999855506712,0.00166399672321,0.00321769606201,-0.0166085293041,-0.230049251965,-0.336388117186,0.0278229585713,0.0,0.0,0.0
1609045388495765924,276,1609045388495765924,-1.53079416751,-0.350433293983,0.559579813708,0.999523524824,0.0026147429089,0.0181535254242,0.0248261144438,-0.213044960573,-0.292241777884,0.0918118750492,0.0,0.0,0.0
1609045388695822001,277,1609045388695822001,-1.56432409098,-0.389655599555,0.613895166123,0.998632189463,0.00325218992102,0.0218977297088,0.0473673185145,-0.235840886164,-0.0668054139291,0.318378094886,0.0,0.0,0.0
1609045388895904064,278,1609045388895904064,-1.65737010303,-0.402646375118,0.698709564206,0.999339645342,0.00216333582386,0.0196560201483,0.0304833413288,-0.297603536254,0.158485146197,0.471283226905,0.0,0.0,0.0
