%time,field.header.seq,field.header.stamp,field.pose.pose.position.x,field.pose.pose.position.y,field.pose.pose.position.z,field.pose.pose.orientation.x,field.pose.pose.orientation.y,field.pose.pose.orientation.z,field.pose.pose.orientation.w,field.twist.twist.linear.x,field.twist.twist.linear.y,field.twist.twist.linear.z,field.twist.twist.angular.x,field.twist.twist.angular.y,field.twist.twist.angular.z
1609043647294951916,9,1609043647294951916,0.000283969773171,0.00122741577319,-0.000208555865265,0.999893864519,7.05968495439e-05,0.0141732230387,-0.00337260475448,0.000384563049418,0.00345541934617,0.000969557177635,0.0,0.0,0.0
1609043647495004892,10,1609043647495004892,0.000266711230218,0.00123708425744,-0.000199426265915,0.999893148488,9.87435717701e-05,0.0142095600354,-0.00343078125929,0.000496263890822,0.00299268102622,0.000831297036294,0.0,0.0,0.0
1609043647695060968,11,1609043647695060968,0.000251677031128,0.00125881326321,-0.000213842397536,0.999893468949,0.000165001522003,0.0141987591264,-0.00337916645695,0.00026858753466,0.00428003653041,0.000486505693107,0.0,0.0,0.0
1609043647895090103,12,1609043647895090103,0.000222034265826,0.00126962676097,-0.000238648235748,0.999893962744,0.000143145457435,0.0141722976973,-0.00334495965696,0.000501850043103,0.00332715238713,0.000816919262043,0.0,0.0,0.0
1609043648095155001,13,1609043648095155001,0.000236319415474,0.0012620282601,-0.000240266362949,0.99989436152,0.000133417439301,0.0141530306385,-0.00330752532904,0.000872817232776,0.00390393812437,0.000512524557144,0.0,0.0,0.0
1609043648295316935,14,1609043648295316935,0.000218304295187,0.00125863300017,-0.000202760646729,0.999888872655,0.000147950203254,0.0145040094352,-0.00344298720603,0.000332472597506,0.0036015289353,0.0009262836846,0.0,0.0,0.0
1609043648495242119,15,1609043648495242119,0.000227627345789,0.00126261032813,-0.000204722434106,0.999893526734,0.000138839973278,0.0141815890421,-0.00343488727958,0.000408133946058,0.00275635487993,0.00107582088842,0.0,0.0,0.0
1609043648695324898,16,1609043648695324898,0.000220880692466,0.00126385323052,-0.000192900333718,0.999893120589,0.000148154172296,0.0141998353921,-0.00347708561952,-5.18133072159e-05,0.00351500983245,0.000978370177591,0.0,0.0,0.0
1609043648895385027,17,1609043648895385027,0.000220659879243,0.00126239659,-0.000199079913678,0.999893723106,0.00015664192076,0.0141645780009,-0.00344712739258,0.000978701017852,0.00330984938694,0.0010230834519,0.0,0.0,0.0
1609043649095496893,18,1609043649095496893,0.000206335313587,0.00126202409872,-0.000192171103239,0.999893338679,0.000200422152541,0.014183707315,-0.00347757710661,0.000370515704917,0.00321149650328,0.00104754860281,0.0,0.0,0.0
1609043649295500040,19,1609043649295500040,0.000209262496184,0.00127921848131,-0.000213580708569,0.999893468219,0.000156573349349,0.0141966712031,-0.00338854325741,0.000232042902345,0.00405804922579,0.000595966812161,0.0,0.0,0.0
1609043649495596886,20,1609043649495596886,0.000214304468547,0.00126150760574,-0.000207818255132,0.99989325362,0.000180165541838,0.0142027744993,-0.00342492354339,0.000194370580419,0.00278075193543,0.000550298793436,0.0,0.0,0.0
1609043649695723057,21,1609043649695723057,0.000218841047679,0.00125986280844,-0.000231720967435,0.999888457799,0.000155622434774,0.0145494445136,-0.00337066841451,-2.84062582268e-05,0.00421491418576,0.000679178725622,0.0,0.0,0.0
1609043649895673037,22,1609043649895673037,0.000591421264042,0.000990731437821,-1.21653998617e-05,0.999893527186,0.000128412666893,0.0141781280792,-0.00344941826965,0.00251721131075,0.00208251671215,0.00184210998822,0.0,0.0,0.0
1609043650095752954,23,1609043650095752954,0.000226683940751,0.000969243657339,-0.00010469907267,0.999893064025,0.000258952411472,0.0142161348206,-0.00341979081558,0.000820732848534,0.00205162815382,0.00174038828014,0.0,0.0,0.0
1609043650295825005,24,1609043650295825005,0.000299712596052,0.000568848268442,5.43771788451e-05,0.999893349096,0.000267918911151,0.0142040776684,-0.00338568022665,0.000718647675045,0.00200558643012,0.00214302257674,0.0,0.0,0.0
1609043650495888948,25,1609043650495888948,8.83403270334e-05,0.000158653859434,-8.87048159551e-05,0.999888389723,0.000252767549113,0.0145368912964,-0.0034384584107,-0.000580848818828,0.00179982577956,0.00183142816644,0.0,0.0,0.0
1609043650695945024,26,1609043650695945024,0.000237219763185,9.17979343433e-05,8.27772972304e-05,0.999893206544,0.000336055254235,0.014203004882,-0.0034259634737,0.000285286353572,0.00226203059626,0.0024660237925,0.0,0.0,0.0
1609043650895976067,27,1609043650895976067,5.51206307655e-05,7.98072953729e-05,5.17229578331e-05,0.999893034638,0.000359425499648,0.0142201112623,-0.0034027241198,0.00060494754876,0.00410175771442,0.00178405515698,0.0,0.0,0.0
1609043651096054077,28,1609043651096054077,8.73879664252e-06,0.000526627368693,-5.09264933526e-05,0.999893461331,0.000340313498612,0.014194251605,-0.00338724005413,0.000772486426748,0.00422970796979,0.00161444411038,0.0,0.0,0.0
1609043651296087027,29,1609043651296087027,-6.3064936258e-05,0.000410638105792,-0.000207305953845,0.999892804506,0.00041740957115,0.0142249082161,-0.00344343612533,8.40579361326e-05,0.00243734114492,-8.40507972778e-05,0.0,0.0,0.0
1609043651496215105,30,1609043651496215105,-0.000118680142066,0.000365664360039,-0.000216176642399,0.999892871035,0.000525196392387,0.0142088654794,-0.00347545163032,-0.000216248131797,0.00308536002384,0.000741328555231,0.0,0.0,0.0
1609043651696211100,31,1609043651696211100,0.000540965518154,0.000809787631547,4.35965166361e-05,0.999893109074,0.000362498106151,0.0141997372465,-0.00346503739183,0.000873812163328,0.00479905611051,0.00196215280166,0.0,0.0,0.0
1609043651896246910,32,1609043651896246910,-0.000170818395038,4.73850703332e-05,-0.000225992819433,0.99988916463,0.000279037586826,0.0144550883597,-0.00355401372976,-7.35208211692e-05,0.00279105041345,0.000900516059561,0.0,0.0,0.0
1609043652096399069,33,1609043652096399069,-0.000238742483028,-1.07738631615e-05,-0.000178851207877,0.999893638739,0.000387172774554,0.0141680081426,-0.00343930983038,-0.000122592225149,0.00212146281994,0.000553676117801,0.0,0.0,0.0
1609043652296380043,34,1609043652296380043,-0.000654546124082,-0.000743168795512,-0.000299110664982,0.999893672823,0.000455378984206,0.0141688872388,-0.00341735452939,-0.000125900233334,0.00252709908283,7.11306835873e-05,0.0,0.0,0.0
1609043652496428967,35,1609043652496428967,-0.00084221987123,-0.00085637852583,-0.000359738142243,0.999893477723,0.000458909108178,0.0141811568486,-0.00342306877614,-0.0002185812512,0.00324686955044,0.000623588601597,0.0,0.0,0.0
1609043652696552038,36,1609043652696552038,-0.000995433002509,-0.00115206993154,-0.000387136894623,0.999893476268,0.000474479720169,0.0141788236793,-0.00343102663785,-9.59226086183e-05,0.00377397778053,-6.60825046652e-08,0.0,0.0,0.0
1609043652896626949,37,1609043652896626949,-0.00110882024104,-0.00126331455485,-0.000369890635154,0.999894067047,0.000473297836508,0.0141321260293,-0.00345162099458,-0.000768039325169,0.005087915462,0.000882929885473,0.0,0.0,0.0
1609043653096590042,38,1609043653096590042,-0.000920607277047,-0.00146885642102,-0.000198892869583,0.999894634766,0.000488043242271,0.01409177103,-0.00345009706535,0.00037120736286,0.00510896889243,0.00112652595659,0.0,0.0,0.0
1609043653296838999,39,1609043653296838999,-0.000335014177222,0.000201936277409,-0.000282390010018,0.99989426666,0.00018817149737,0.0141231664773,-0.00345778269863,-0.000443856492565,0.0049923063809,0.000958416661512,0.0,0.0,0.0
1609043653496706009,40,1609043653496706009,-0.000976917843855,-0.00127280057128,-0.00151401274268,0.999886455812,0.000317877151681,0.0146406903179,-0.00355311494336,-0.00398345142498,0.00447817676898,0.000470537627423,0.0,0.0,0.0
1609043653696933031,41,1609043653696933031,-0.00102230581904,-0.00084685364083,-0.000285172704688,0.999894396362,0.000450193195391,0.014094684704,-0.00351188169659,-0.000811415557643,0.00357818595638,0.00119098375801,0.0,0.0,0.0
1609043653896936893,42,1609043653896936893,-0.000946334917506,-0.000831674432805,-0.000316798171078,0.999894375394,0.000537587994711,0.0140879132459,-0.00353266976189,7.7319511514e-05,0.00318765951721,0.000661710443509,0.0,0.0,0.0
1609043654097011089,43,1609043654097011089,-0.000847743264408,-0.000960523872499,-0.000439687487233,0.999894275674,0.00061062532233,0.0140959562026,-0.00351690620523,0.000405160611559,0.0022194800096,-0.000121907251541,0.0,0.0,0.0
1609043654297209978,44,1609043654297209978,-0.000868888481695,-0.00123172498301,-0.00038360808489,0.99989460012,0.000635766603183,0.0140690389142,-0.00352797335774,0.000614899440884,0.00181730394522,-0.00014920652219,0.0,0.0,0.0
1609043654498790026,45,1609043654498790026,-0.000736644699878,-0.00133497557482,-0.000341253393524,0.999895054226,0.000668250570035,0.0140488551688,-0.00347327574199,0.0012924646552,0.00113876996288,0.000431406905771,0.0,0.0,0.0
1609043654697191000,46,1609043654697191000,-0.000590882903535,-0.00166662325165,-0.000179460442056,0.99989532503,0.000765783117694,0.0140243506949,-0.00347421165252,0.00150705271878,0.00212823623046,0.000519028887395,0.0,0.0,0.0
1609043654897207975,47,1609043654897207975,-0.000592052567414,-0.00141424661613,-0.000352839530708,0.999895035979,0.000617229070527,0.0140507904572,-0.00348013497524,0.00156859321366,0.00378795273557,0.000313610658198,0.0,0.0,0.0
1609043655097187042,48,1609043655097187042,-0.00072659476718,-0.00153700407541,-0.000375603513661,0.99989471925,0.000625095717754,0.0140553516301,-0.00355060034366,0.00188690940895,0.00484521265716,0.000612542617109,0.0,0.0,0.0
1609043655297527075,49,1609043655297527075,-0.00080221975809,-0.00155671846971,-0.000396222831461,0.999894797614,0.000581698118129,0.0140548209738,-0.00353798515178,0.00159743386029,0.00401060229936,8.78867782576e-05,0.0,0.0,0.0
1609043655497313023,50,1609043655497313023,-0.000911976851171,-0.00136287032797,-0.000503229810419,0.999894728796,0.000582362466793,0.0140516730596,-0.00356968692792,0.00075157730288,0.00261447595388,-0.00093021027779,0.0,0.0,0.0
1609043655697511911,51,1609043655697511911,-0.000653264078104,-0.00164739569791,-0.00035469651706,0.999895408947,0.000709050263358,0.0139999383452,-0.00355951424813,0.00124268519818,0.00176392462372,2.28442245278e-06,0.0,0.0,0.0
1609043655897449017,52,1609043655897449017,-0.000434530366373,-0.000831054400978,-0.000287134485437,0.999895056171,0.00071500777347,0.0140272806883,-0.00354976119428,0.000319754969746,0.00414342449348,0.00106266826567,0.0,0.0,0.0
1609043656097760916,53,1609043656097760916,-0.000361754060874,-0.000961063142842,-0.000260094923002,0.999895890847,0.000658726490377,0.0139774885004,-0.00352184067633,0.000753366496462,0.00289603112416,0.00104436893844,0.0,0.0,0.0
1609043656297993898,54,1609043656297993898,-0.000322966435551,-0.000810241412753,-0.00023167419107,0.999895844466,0.000713258008507,0.0139827833475,-0.00350332022398,0.00085799155504,0.00353720634452,0.000807716417231,0.0,0.0,0.0
1609043656497663021,55,1609043656497663021,-0.00033757507039,-0.000609676134444,-0.0002526899825,0.999895727673,0.000778114129683,0.0139874005543,-0.00350441803168,0.000513204589804,0.00379134853929,0.000883434697517,0.0,0.0,0.0
1609043656697721958,56,1609043656697721958,-0.000350707523829,-0.000300544270013,-0.000251830633404,0.999895500773,0.000791013396079,0.0139958510904,-0.00353241908004,0.000511175608484,0.00381755395464,-4.36862582487e-05,0.0,0.0,0.0
1609043656898504019,57,1609043656898504019,-0.000323276245582,-0.000354100702287,-0.000230103881131,0.99989547492,0.000724738872194,0.0139914208281,-0.00357129274282,0.000543508137496,0.00261606973887,0.000694913494046,0.0,0.0,0.0
1609043657098016024,58,1609043657098016024,-0.000352874433123,-0.000246739763173,-0.000250291828853,0.999895487091,0.000753307363535,0.0139890101846,-0.00357141656364,0.000182567305867,0.00298967274918,3.19730861378e-05,0.0,0.0,0.0
1609043657297848940,59,1609043657297848940,-0.000365507216702,-0.000244225273696,-0.000247137971095,0.999895422927,0.000750757716404,0.0139860038266,-0.00360156494641,0.000680294791046,0.00420595484118,0.000357323944848,0.0,0.0,0.0
1609043657498125076,60,1609043657498125076,0.00228369281526,0.00326597266206,-0.00036265858244,0.999895666212,0.00033380317913,0.0139843063627,-0.00360339295957,0.00139995524033,0.00473981592973,0.000164152166593,0.0,0.0,0.0
1609043657698132992,61,1609043657698132992,0.00104445508812,-0.00257438490871,-0.000158702912818,0.999895651709,0.000567672660996,0.0139723948146,-0.00362431019667,0.00191044299014,0.00359100223495,0.00156039680551,0.0,0.0,0.0
1609043657898030043,62,1609043657898030043,0.0010272508562,-0.000632685955499,-0.00271595578681,0.9998854417,0.000432602250888,0.0146501621877,-0.00378008984381,-0.0104413911003,0.000697502582476,0.000718771014734,0.0,0.0,0.0
1609043658098062038,63,1609043658098062038,0.00196521399079,-0.00227956091187,0.000223202322121,0.999895374422,0.000566126683318,0.0139753007112,-0.00368926539115,0.00203186916161,0.00230025035497,0.00162903299717,0.0,0.0,0.0
1609043658298145056,64,1609043658298145056,0.00147684632419,-0.00213824057524,0.00116757650372,0.999895709188,0.000557948593258,0.0139546699114,-0.00367785662527,0.00225729033605,0.00200330371555,0.00204093050923,0.0,0.0,0.0
1609043658498234987,65,1609043658498234987,0.000833315910464,-0.00304341130837,0.00152998795746,0.999896346954,0.00051694509,0.0139137535414,-0.0036654574603,0.00228172324783,0.000770887493496,0.000836648032441,0.0,0.0,0.0
1609043658698287010,66,1609043658698287010,0.000144750924264,-0.00148040740691,0.00194573073076,0.999896312375,0.000490515865214,0.0139155626899,-0.00367164917911,0.00267310807514,0.000276772842697,0.000675911788316,0.0,0.0,0.0
1609043658898313999,67,1609043658898313999,0.000124717673529,-0.00742161417012,0.00174902648489,0.999896170226,0.000457395094809,0.0139245022871,-0.00368073261613,0.00220699006788,-0.0020564097794,0.00159416992705,0.0,0.0,0.0
1609043659098392963,68,1609043659098392963,0.000473644212106,-0.00589918975174,0.00197098857215,0.999895837843,0.000470748676422,0.0139489309424,-0.00367684443668,0.000613972844981,-0.00192383055255,0.00248381725765,0.0,0.0,0.0
1609043659298552990,69,1609043659298552990,0.000592028045606,-0.00673597071513,0.00214966522624,0.999896765692,0.000629160393113,0.013895539841,-0.00360223374361,0.00145036017787,0.000388305876057,0.00218192695357,0.0,0.0,0.0
1609043659498611927,70,1609043659498611927,0.000403420951702,-0.00701896306517,0.00253686279358,0.999897250699,0.000507713508826,0.0138663789836,-0.00359913945458,0.00199552734933,0.000869067133379,0.00134190082759,0.0,0.0,0.0
1609043659698587894,71,1609043659698587894,0.000819217939785,-0.00785450870539,0.0029047837039,0.999897970466,0.000525269075973,0.0138186921146,-0.00358001389266,0.00264898018835,0.00208409157759,0.00123402597765,0.0,0.0,0.0
1609043659898719072,72,1609043659898719072,0.00108445353888,-0.00847462605329,0.00283257167233,0.999897815354,0.00056297137428,0.0138133225818,-0.00363786103762,0.00251609950916,0.00174037121705,0.000987431029372,0.0,0.0,0.0
1609043660099241972,73,1609043660099241972,0.00094211217226,-0.00728970574436,0.00234484538311,0.999898311303,0.000536023566627,0.0137974355026,-0.00356517950493,0.00273399765485,0.00323932991389,0.00121972094976,0.0,0.0,0.0
1609043660298799992,74,1609043660298799992,0.00069448770413,-0.00708019848385,0.00214431707148,0.999897913176,0.000521829883858,0.0138163133054,-0.00360560765095,0.00243297587133,0.00256368741395,0.00127330322148,0.0,0.0,0.0
1609043660498759031,75,1609043660498759031,0.000832166260987,-0.00759593150027,0.00236907629563,0.999898207721,0.000501125828765,0.013801424026,-0.00358381985787,0.0028632671172,0.00278991316827,0.00169711867896,0.0,0.0,0.0
1609043660698879957,76,1609043660698879957,0.00117345362245,-0.00502569212143,0.00205579505195,0.999898081717,0.000561502083059,0.0137936065487,-0.00363968563904,0.00232417636157,0.00300523264777,0.00157862691724,0.0,0.0,0.0
1609043660899269104,77,1609043660899269104,-0.00115892566308,-0.00600966372219,0.00222952341982,0.999898039488,0.000618313530461,0.0137987325046,-0.00362260913907,0.000361939677301,0.00245609784764,0.00276321387845,0.0,0.0,0.0
1609043661099124908,78,1609043661099124908,-0.00159365031325,-0.0082995051044,0.00211208911057,0.999897901714,0.000588498079144,0.0138109809248,-0.00361892591322,0.000574589913968,0.00248360203258,0.00212785811953,0.0,0.0,0.0
1609043661299046993,79,1609043661299046993,-0.00134430270789,-0.00812348488991,0.00210644646301,0.999898453124,0.000585463518567,0.0137703430867,-0.00362192257426,0.00167739808256,0.00267701616629,0.00252978631973,0.0,0.0,0.0
1609043661499207973,80,1609043661499207973,-0.000855727291101,-0.00805581830277,0.00208937922818,0.999898739994,0.000562659494084,0.0137554691392,-0.00360281011739,0.00264297917999,0.00179884869726,0.00143068341335,0.0,0.0,0.0
1609043661699306011,81,1609043661699306011,-7.7704811575e-05,-0.00751660448148,0.00182011136085,0.999898707145,0.000590817735432,0.0137594942108,-0.00359203334502,0.00316568454095,0.00328127788788,0.00137872791258,0.0,0.0,0.0
1609043661899305105,82,1609043661899305105,0.000613793294578,-0.00638630003953,0.00180535716612,0.999899060251,0.000619588194337,0.0137305430571,-0.0035996675005,0.00355715235644,0.00412475702198,0.00130743818849,0.0,0.0,0.0
1609043662099315882,83,1609043662099315882,0.000212394326817,-0.00744418933975,0.00209824514978,0.999899382991,0.000603417948829,0.0137169587374,-0.00356438272866,0.00435861198421,0.00406780982604,0.00142061257612,0.0,0.0,0.0
1609043662299319029,84,1609043662299319029,-0.000371255521332,-0.0071397900825,0.0021624029154,0.999899260472,0.000534777306971,0.0137249555214,-0.00357889893717,0.00345975416684,0.00560041254182,0.000914225441823,0.0,0.0,0.0
1609043662499526024,85,1609043662499526024,-0.000710550031548,-0.00854129091972,0.00254251947531,0.999899399696,0.000546343545426,0.0137145690845,-0.00357807080173,0.00476169853535,0.00494136493353,0.00197611219178,0.0,0.0,0.0
1609043662699539900,86,1609043662699539900,-0.000562282811429,-0.00886499056504,0.00249005231227,0.999899506954,0.000570141135487,0.0136958061406,-0.00361605108072,0.00443724904805,0.00691783465044,0.00116102467137,0.0,0.0,0.0
1609043662899502039,87,1609043662899502039,-0.000651602638892,-0.00962599707164,0.00252350269326,0.999899638741,0.000577166041616,0.013686963569,-0.0036119737216,0.00537533865372,0.00651693011871,0.00213582814097,0.0,0.0,0.0
1609043663099813938,88,1609043663099813938,-0.000596231987218,-0.010202552791,0.0024645612819,0.999899392171,0.000578613473636,0.0136976174151,-0.00363950828438,0.0044751399761,0.00670587886068,0.00173179013188,0.0,0.0,0.0
1609043663299635887,89,1609043663299635887,-0.000628923214149,-0.0108854289523,0.00214974037617,0.999899136801,0.000626947314802,0.0136929346322,-0.00371842750696,0.00397209047015,0.00667950342448,0.000822551293786,0.0,0.0,0.0
1609043663499643087,90,1609043663499643087,-1.59582131518e-05,-0.00928017796192,0.00222602195476,0.999900092433,0.000638712408204,0.0136439254598,-0.00363874931937,0.00627847458761,0.00901869715711,0.000267711286692,0.0,0.0,0.0
1609043663699713945,91,1609043663699713945,-0.000554310196881,-0.0110537976999,0.00261353522121,0.999899846505,0.00060072820469,0.0136521069427,-0.00368185563272,0.00536607913484,0.00856076816152,-0.000413949914977,0.0,0.0,0.0
1609043663899801016,92,1609043663899801016,-0.00174180847664,-0.012944799945,0.0030697789006,0.999899898523,0.000563213271828,0.0136482673322,-0.00368788865606,0.00507687423418,0.00981155698205,0.000321229591296,0.0,0.0,0.0
1609043664101102114,93,1609043664101102114,-0.00279159428398,-0.0143938326716,0.0035865325142,0.999900179885,0.00053434004403,0.0136328295532,-0.0036729694419,0.0050284649572,0.00890640307311,0.000636505738438,0.0,0.0,0.0
1609043664399909973,94,1609043664399909973,-0.00272764922405,-0.0135189083338,0.00358499869659,0.999900553936,0.000515399617494,0.0136066701207,-0.00367084878179,0.00584685479299,0.00834991195674,0.000235439856315,0.0,0.0,0.0
1609043664600100994,95,1609043664600100994,-0.00333841380118,-0.0148027970535,0.00390561636712,0.999900565604,0.000554453067235,0.0136004398076,-0.00368504061237,0.00628418451812,0.00819527132333,0.00059557588928,0.0,0.0,0.0
1609043664800188065,96,1609043664800188065,-0.00316268326625,-0.0133215563901,0.00368583409011,0.999900698326,0.000541220389504,0.0135881445938,-0.00369633529832,0.00658074773193,0.00995785951647,0.000513956125389,0.0,0.0,0.0
1609043665000232935,97,1609043665000232935,-0.00279148509985,-0.0128796261383,0.00384596001099,0.99990038005,0.000570975116257,0.0135896894705,-0.00377151219948,0.00771712889291,0.0098351824726,0.000601318421556,0.0,0.0,0.0
1609043665200365067,98,1609043665200365067,-0.00288373876174,-0.0131963748141,0.00401599856122,0.999900459021,0.000559036198494,0.0135909179488,-0.00374786298402,0.00639025417151,0.00969617432159,0.00120370051004,0.0,0.0,0.0
1609043665400310040,99,1609043665400310040,-0.00357863073642,-0.0135399860951,0.00407273254866,0.999900312401,0.000543488127807,0.0135923288677,-0.00378397637216,0.00705185151888,0.00929609159331,0.000685743649057,0.0,0.0,0.0
1609043665600285053,100,1609043665600285053,-0.00330811632411,-0.0132963931409,0.00397520675854,0.999900231909,0.000557363612059,0.0135900118794,-0.00381144991097,0.00728195814938,0.0106287484527,0.000762362459558,0.0,0.0,0.0
1609043665800410032,101,1609043665800410032,-0.00261308579911,-0.0138956402975,0.00392770449216,0.999900078957,0.000614459188185,0.0135895627884,-0.00384425876887,0.00838429151718,0.0114414163847,0.00244303322872,0.0,0.0,0.0
1609043666000401974,102,1609043666000401974,-0.00268253198407,-0.0139781847693,0.00396463246556,0.999900132752,0.000590012845557,0.0135898953521,-0.00383290383411,0.0074450355894,0.0110627809362,0.00260810969546,0.0,0.0,0.0
1609043666200505972,103,1609043666200505972,-0.00414179576966,-0.0199369103243,0.00513350497625,0.999899913067,0.000609904590384,0.0135892663959,-0.00388892065721,0.00740261988867,0.00826255746678,0.00289081516356,0.0,0.0,0.0
1609043666400510073,104,1609043666400510073,-0.00300415840089,-0.0147344637505,0.0042561612128,0.999900156193,0.000628728580662,0.0135830981486,-0.00384470936736,0.00731464846868,0.0112690149784,0.00342240714013,0.0,0.0,0.0
1609043666600564957,105,1609043666600564957,-0.00210371803168,-0.0133817775478,0.00358807909229,0.999899522354,0.000508690022132,0.0136381842948,-0.00383227869514,0.00510505578115,0.0118105001109,0.0021579277788,0.0,0.0,0.0
1609043666800676107,106,1609043666800676107,5.83778828336e-05,-0.00554328570017,0.00108222396026,0.999891625577,8.73688046575e-05,0.0141231979823,-0.00415508692187,-0.00525276116983,0.00348447645234,0.000666051732116,0.0,0.0,0.0
1609043667000874043,107,1609043667000874043,0.00135339496769,-0.00425577134127,0.00116639262916,0.999897492704,0.00051313885557,0.0137394357584,-0.0039960827471,0.00144619584063,0.00605717649567,0.000337837186586,0.0,0.0,0.0
1609043667201020002,108,1609043667201020002,0.00136102639449,-0.00750863003118,0.000900455717648,0.999897117569,0.000423601956135,0.013766869964,-0.00400601182223,0.00087557065065,0.00519861255069,0.00114041637221,0.0,0.0,0.0
1609043667400875092,109,1609043667400875092,0.0013643286748,-0.00915047114681,0.000618603273036,0.999897219196,0.000463370871565,0.0137498554449,-0.00403457632681,0.000162720846784,0.00513643748539,0.00111505196338,0.0,0.0,0.0
1609043667600842953,110,1609043667600842953,0.00189352807211,-0.00808968378662,-0.00046947767677,0.999892873831,0.000414172106248,0.0140299119566,-0.00415101127106,-0.000296564243824,0.00265492681287,0.00106510425579,0.0,0.0,0.0
1609043667802927017,111,1609043667802927017,0.0015513771103,-0.00934154100806,-3.49347952432e-05,0.999896879539,0.000473687230364,0.0137603919868,-0.00408136255703,0.00113234606462,0.00216065453344,0.00126670707517,0.0,0.0,0.0
1609043668001852036,112,1609043668001852036,0.00214262395356,-0.010141186252,0.000687246062644,0.999897592664,0.000419197476047,0.0137191552924,-0.00405132530978,0.00234732833785,0.0052357762821,0.00300373587986,0.0,0.0,0.0
1609043668201304913,113,1609043668201304913,0.00168647006891,-0.0118631783825,0.000712205433404,0.99989721153,0.000303516808911,0.0137507014765,-0.00404876051433,0.00108968430571,0.00347027435329,0.00245242402594,0.0,0.0,0.0
1609043668401530981,114,1609043668401530981,0.00258695487984,-0.0118071928877,-0.000709084684461,0.999896234563,0.000315123686117,0.0138011656605,-0.00411687151527,0.000930724283281,0.00251217655804,0.000847211939243,0.0,0.0,0.0
1609043668601224899,115,1609043668601224899,0.00208067113271,-0.0114200066963,-0.000373916336731,0.999896737492,0.000334532379894,0.0137541214132,-0.00415049204028,0.000919143512944,0.00299252266609,0.00110925721933,0.0,0.0,0.0
1609043668802249908,116,1609043668802249908,0.00223988836576,-0.0116273203395,-0.00126369196378,0.999892221439,0.000241846563598,0.0140542504027,-0.00423852124113,-0.000368220068368,-0.00138471042869,8.76009578209e-05,0.0,0.0,0.0
1609043669001341105,117,1609043669001341105,0.00198247899222,-0.0126217970729,-0.0007928333888,0.999896823753,0.00035065922014,0.013753121716,-0.00413164977321,0.00099495642792,-0.000628740932681,0.000699643594218,0.0,0.0,0.0
1609043669201507092,118,1609043669201507092,0.00140296912613,-0.0142240800841,-0.000293806082226,0.999896551373,0.000319124498581,0.013763766974,-0.00416454445791,0.00105493638847,-0.000328651293463,0.00164262323584,0.0,0.0,0.0
1609043669401724100,119,1609043669401724100,0.00144300690772,-0.0134275669732,-0.0004011368328,0.999896013274,0.000309944585448,0.0138126142911,-0.00413258501972,-0.000225995651962,0.00193073861039,0.00158053243246,0.0,0.0,0.0
1609043669601883888,120,1609043669601883888,0.00131656753263,-0.0131946762849,-0.000596593424651,0.999895839832,0.000311767329283,0.0138229716427,-0.00413977567508,-0.000164320024232,0.0021223576101,0.000542619121638,0.0,0.0,0.0
1609043669801610947,121,1609043669801610947,0.000906020353232,-0.0119092892207,-0.000445110335114,0.999896192813,0.000337751467335,0.0138118454514,-0.00408930895185,-0.000335114020614,0.00379227897089,0.000797907485007,0.0,0.0,0.0
1609043670101592064,122,1609043670101592064,0.00065996765625,-0.0117406051589,-0.000530664359197,0.999896284791,0.000356552957626,0.0138068029267,-0.00408224501799,-0.00123653657665,0.00354679533096,0.000198205588599,0.0,0.0,0.0
1609043670301863909,123,1609043670301863909,0.000737963155056,-0.0121748036584,-0.000530730165511,0.999896125693,0.000378704144052,0.0138155943943,-0.00408946934114,-0.000295244996888,0.00347505222347,-0.000249767239019,0.0,0.0,0.0
1609043670501749039,124,1609043670501749039,0.000698077858487,-0.0116286230201,-0.000652999094666,0.999896914598,0.000308423076306,0.0137678695656,-0.00406335082023,-5.35112340424e-05,0.00194491921019,0.000105063327596,0.0,0.0,0.0
1609043670701916933,125,1609043670701916933,0.00101128141484,-0.0126317246652,-0.000555662639099,0.99989442087,0.000340365581233,0.0139446821628,-0.00407149906626,-0.000475151408563,0.00248695841672,0.000533219161321,0.0,0.0,0.0
1609043670901910067,126,1609043670901910067,0.00117549181312,-0.012345184341,-0.000564915869424,0.999897181413,0.000307659442819,0.0137550295586,-0.00404117668221,-0.000258922296323,0.00171328440262,-0.000376243114676,0.0,0.0,0.0
1609043671102144957,127,1609043671102144957,0.00139237564168,-0.0128735256471,-0.000416694242041,0.999896968437,0.000328700053395,0.0137632652311,-0.00406411078125,7.0521547294e-05,0.00268590526774,0.00033155248386,0.0,0.0,0.0
1609043671302812099,128,1609043671302812099,0.00139113569102,-0.012592857887,-0.000430539562989,0.99989676803,0.000314587630351,0.0137768050996,-0.00406865577957,-4.63523254421e-05,0.0018531564281,-0.000182028374834,0.0,0.0,0.0
1609043671502064943,129,1609043671502064943,0.00144120319437,-0.0122425650271,-0.00047400671592,0.999897115011,0.00027157158186,0.0137599944632,-0.0040432899356,0.000204476479185,0.00257891779494,-0.00032815780663,0.0,0.0,0.0
1609043671702326059,130,1609043671702326059,0.00142720951409,-0.012115893272,-0.000443344290831,0.999897510807,0.000236452269579,0.0137423194091,-0.00400757149749,0.000905665263853,0.00321466022231,-0.000541558089543,0.0,0.0,0.0
1609043671902108908,131,1609043671902108908,0.00132171410958,-0.0118969859763,-0.000433201345898,0.999897147085,0.000243361005187,0.0137577632483,-0.00404474681924,0.00068658021061,0.00172257949872,0.000907151678511,0.0,0.0,0.0
1609043672102133989,132,1609043672102133989,0.00147197531036,-0.0117934566026,-0.000257640659751,0.999897118058,0.000478505742184,0.0137549474502,-0.00404051397222,0.00102982741648,0.00218932328707,0.0014891971853,0.0,0.0,0.0
1609043672302262068,133,1609043672302262068,0.00157811412722,-0.0117696429719,-0.000244587937727,0.999896490657,0.000335620476449,0.0137877604855,-0.00409792515712,0.000253619217662,0.00174426156516,0.00123237647338,0.0,0.0,0.0
1609043672502238989,134,1609043672502238989,0.00221248098726,-0.0112208193411,-0.000283409125303,0.999896238715,0.000348374553556,0.0138068964468,-0.0040939039647,0.000868829339985,0.00349515784125,0.00195651815863,0.0,0.0,0.0
1609043672702316999,135,1609043672702316999,0.00223086310837,-0.0115408914488,-0.000320222209572,0.999896177787,0.000385679000834,0.0138078741913,-0.00410213478772,0.000193374873117,0.00138457082974,1.71915549709e-05,0.0,0.0,0.0
1609043672902668953,136,1609043672902668953,0.00199612909268,-0.0118774492793,-0.000363702730955,0.999895986938,0.00038765268917,0.0138195557658,-0.00410912505344,-0.000492582897266,0.00169371230404,0.000520855687643,0.0,0.0,0.0
1609043673102663994,137,1609043673102663994,0.00455756519166,-0.0122747447667,-0.00096857976342,0.999896534237,0.00114505984821,0.013720492526,-0.00416626245443,0.0109390890215,0.000978685269353,-0.00321855250955,0.0,0.0,0.0
1609043673302599907,138,1609043673302599907,0.0026282912365,-0.0114156583633,-0.000860461499514,0.99989556526,0.000447220054463,0.0138559218586,-0.0040831356735,-0.000786172537307,0.00191403306944,0.000600842198995,0.0,0.0,0.0
1609043673504841089,139,1609043673504841089,0.00225986384601,-0.0115726076958,-0.000915105705985,0.999891164623,0.000500793160271,0.01413370342,-0.00420077880788,-0.00204008637624,0.000569690604899,0.000377194913729,0.0,0.0,0.0
1609043673702614069,140,1609043673702614069,0.00192058934879,-0.01206260147,-0.000749995175279,0.999894810933,0.000577615224654,0.0138802946955,-0.00416783512636,-0.00248561009823,0.000437635478662,0.0011622474622,0.0,0.0,0.0
1609043673902672052,141,1609043673902672052,0.00121466010309,-0.0126140497666,-0.000640662182456,0.999894458676,0.000641001243772,0.0138939861492,-0.00419735325296,-0.00251093604384,-0.000716803762971,0.00106390457232,0.0,0.0,0.0
1609043674102869987,142,1609043674102869987,0.00185696200087,-0.0116812379799,-0.000770180747582,0.999894490672,0.000622618704205,0.0138840844837,-0.00422517080343,-0.00169582751024,0.000589407364317,0.000974151957491,0.0,0.0,0.0
1609043674302997112,143,1609043674302997112,0.00386729015791,-0.0106739210537,-0.000843499116801,0.999894351971,0.00082307192558,0.0138928440093,-0.00419479847703,0.000118025429553,0.00211536328146,0.00034711378282,0.0,0.0,0.0
1609043674502871037,144,1609043674502871037,0.00364504023571,-0.0109918200138,-0.000803745133722,0.999894542178,0.000856349240229,0.0138753754261,-0.00420061260358,0.000559289424395,0.00120189888944,0.000191631407194,0.0,0.0,0.0
1609043674703428030,145,1609043674703428030,0.00400798981798,-0.0105381934782,-0.00103122054219,0.999889110065,0.000854011944136,0.0142414825291,-0.00426830326115,-0.000985893376694,0.000525357569515,-1.2845737231e-05,0.0,0.0,0.0
1609043674903127909,146,1609043674903127909,0.00408844486233,-0.0105419282335,-0.000893375258392,0.999893702962,0.000887455536509,0.0139492920467,-0.00414878908021,0.000263127738525,0.00143346633578,0.000632517015069,0.0,0.0,0.0
1609043675104522943,147,1609043675104522943,0.0038630284188,-0.0107835294022,-0.000940247329225,0.999892854726,0.00104992864396,0.0139891257497,-0.0041810380823,-0.00132150668236,0.000573946116949,-0.000309262669091,0.0,0.0,0.0
1609043675303531885,148,1609043675303531885,0.0038870061067,-0.0106467440241,-0.00101964141736,0.999892961273,0.00102152714815,0.01397888979,-0.00419679876825,-0.00204952737293,0.000136856936,-0.000662635120078,0.0,0.0,0.0
1609043675503326893,149,1609043675503326893,0.00371417113669,-0.0107927311919,-0.00109888426758,0.999893479642,0.00106941536155,0.0139463921538,-0.00416939638707,-0.00114051038771,0.000724513017336,-0.000414799941994,0.0,0.0,0.0
1609043675703361034,150,1609043675703361034,0.00352450147593,-0.01117527345,-0.000941971201056,0.999893594473,0.00112901771752,0.0139230658846,-0.00420396100761,-0.00111482710037,0.000914869150025,0.000130562748298,0.0,0.0,0.0
1609043675903266907,151,1609043675903266907,0.00402008636862,-0.0106468232785,-0.00094819816605,0.999894064581,0.00105896644615,0.0139162519034,-0.00413232853828,-0.00043633613712,0.0015443070685,4.1101858178e-05,0.0,0.0,0.0
1609043676103353024,152,1609043676103353024,0.00396579748853,-0.0107633863603,-0.000960959842134,0.99989353323,0.00108754586211,0.0139418139254,-0.00416716608571,-0.00089925821084,0.000443987348653,-0.000248496596738,0.0,0.0,0.0
1609043676303344965,153,1609043676303344965,0.00379330784042,-0.0108902197082,-0.000894711081271,0.999893240946,0.00113492023362,0.0139498645889,-0.00419761187016,-0.000805737174641,0.001463032109,0.000721965831238,0.0,0.0,0.0
1609043676503408909,154,1609043676503408909,0.00373207181318,-0.0109619871032,-0.000887414578438,0.999893277328,0.0011575048284,0.0139484307598,-0.00418753110092,-1.98127365364e-05,0.000590558334953,0.000379995361663,0.0,0.0,0.0
1609043676704020023,155,1609043676704020023,0.00353304777155,-0.01112158105,-0.000884395369505,0.999893517589,0.00110857768257,0.0139558404907,-0.00411813723896,-0.00114676595854,0.00058609041882,0.000681377706942,0.0,0.0,0.0
1609043676903743029,156,1609043676903743029,0.00403255519667,-0.010327938872,-0.000979504229745,0.999893479505,0.00107902317336,0.0139654182857,-0.00410273629485,-0.00115387742769,0.000962938771091,0.000249116761949,0.0,0.0,0.0
1609043677103647947,157,1609043677103647947,0.00502702494104,-0.00935119191489,-0.00132189248557,0.999893494283,0.00100224625699,0.0139809934745,-0.00406539223101,-0.00108320773852,0.000338664028579,0.000505442619548,0.0,0.0,0.0
1609043677303639889,158,1609043677303639889,0.00504170116255,-0.0093551661422,-0.00119253369751,0.999893768882,0.00120148932646,0.0139625793665,-0.00400671342973,-0.000902688059105,0.000921796156231,0.0005950106579,0.0,0.0,0.0
1609043677503734112,159,1609043677503734112,0.00462801813994,-0.00964526183577,-0.00138535376631,0.99988384724,0.00135858575694,0.0145426930825,-0.00435388931182,-0.00482183573646,-0.00149208639813,0.000782721945581,0.0,0.0,0.0
1609043677703759909,160,1609043677703759909,0.00591089571048,-0.00872844946263,-0.00124033351727,0.999893042974,0.00144317778923,0.0139538151348,-0.00413653166456,0.00177245718006,0.00249202616406,-0.000225758866954,0.0,0.0,0.0
1609043677903846979,161,1609043677903846979,0.00662588116123,-0.00825991213702,-0.00134894218226,0.999892467836,0.00142865508578,0.0139807242243,-0.00418939838452,0.00258038914486,0.00328576480388,0.000186908447471,0.0,0.0,0.0
1609043678103878975,162,1609043678103878975,0.00609357841718,-0.0087788387079,-0.00125043339629,0.999892928268,0.00143224377747,0.013976771898,-0.00409029638566,0.0019092367247,0.00361924914322,-0.000387959916768,0.0,0.0,0.0
1609043678303961992,163,1609043678303961992,0.00694249075142,-0.00791340059526,-0.00135178449042,0.99989248136,0.00140232959912,0.0140105428355,-0.00409437182074,0.00248656079605,0.00426845374346,0.00070761311207,0.0,0.0,0.0
1609043678504158020,164,1609043678504158020,0.00776799840353,-0.0071728805185,-0.00147627566304,0.999891432325,0.00140080549089,0.0140557881025,-0.00419477396688,0.00273496905664,0.00547187021678,0.000438123908466,0.0,0.0,0.0
1609043678704086065,165,1609043678704086065,0.0073839774979,-0.007491700427,-0.00140916265815,0.999884235792,0.00142798868259,0.0144835766601,-0.00443867887445,0.0013963309009,0.00349087963585,1.60374407543e-05,0.0,0.0,0.0
1609043678904141903,166,1609043678904141903,0.00860105814898,-0.00643343140841,-0.00157367610703,0.999889426144,0.00145637495849,0.0141549379088,-0.00431881826,0.00385348246975,0.00541801603613,-0.000563399663818,0.0,0.0,0.0
1609043679104244947,167,1609043679104244947,0.00851746874235,-0.00645046396614,-0.00158809061258,0.999887494563,0.00142828356053,0.0142745826239,-0.00438115431558,0.00193131858285,0.00330018711149,-0.00029061650074,0.0,0.0,0.0
1609043679304220915,168,1609043679304220915,0.00718803922896,-0.0079622084599,-0.00141217479027,0.999888164699,0.00156903001444,0.0142115236715,-0.00438506958302,0.00292578844674,0.0030117707153,-0.000286841163355,0.0,0.0,0.0
1609043679504347086,169,1609043679504347086,0.00783894213854,-0.00726576617218,-0.00149988529891,0.999886832186,0.00140772245261,0.014331811852,-0.00435204636161,0.000660660875067,0.00184650476106,0.00020992556859,0.0,0.0,0.0
1609043679704381943,170,1609043679704381943,0.00775669938244,-0.00726204534807,-0.0015129538373,0.999886813031,0.00137770337668,0.0143431545393,-0.00432862314759,0.000144997448746,0.00180900746745,0.000133249584465,0.0,0.0,0.0
1609043679904500008,171,1609043679904500008,0.0080574581098,-0.00687500779709,-0.00163592461163,0.999880931286,0.00142238344028,0.0147059311615,-0.00445372483141,-0.00169450659417,0.00103568866948,0.000899681796057,0.0,0.0,0.0
1609043680104552031,172,1609043680104552031,0.00797168643552,-0.00692535794634,-0.0015122557653,0.999886578554,0.00145429677361,0.0143413073612,-0.0043637083961,0.000605555498968,0.001674843299,0.000727115533904,0.0,0.0,0.0
1609043680304516077,173,1609043680304516077,0.00731938169779,-0.00755116426808,-0.00141676836167,0.99988539575,0.00147797700701,0.0144135089841,-0.00438881642026,-0.000321765719704,0.00129233585987,0.000540248592304,0.0,0.0,0.0
1609043680504617929,174,1609043680504617929,0.00727065261163,-0.00770329237318,-0.00144894614014,0.999885521965,0.001494946807,0.0144162777505,-0.00434500108214,-0.000741600300055,9.53717315357e-05,0.000407947272766,0.0,0.0,0.0
1609043680704659939,175,1609043680704659939,0.00683177185292,-0.00820746085812,-0.00133477626695,0.999884997346,0.00152367463165,0.0144442826634,-0.00436270505821,-0.00175082890235,-0.000539109582023,0.00060281457228,0.0,0.0,0.0
1609043680904825926,176,1609043680904825926,0.00791999338275,-0.00708166968266,-0.00150137195815,0.999884153254,0.00146259815611,0.0144959648902,-0.0044054375222,-0.00118140461453,-0.000336229139236,-0.000249627313028,0.0,0.0,0.0
1609043681104860067,177,1609043681104860067,0.00759859928706,-0.00740607051128,-0.00144413817028,0.999884402128,0.00146950681932,0.0144832326921,-0.00438849642975,-6.56019374423e-05,0.00108439480294,0.000845327626709,0.0,0.0,0.0
1609043681304908037,178,1609043681304908037,0.00829328852163,-0.0067993845946,-0.00152806253761,0.999884109023,0.00145452134814,0.0145134633641,-0.00436030649781,9.63718365859e-05,0.00172823117541,-0.000132275278594,0.0,0.0,0.0
1609043681504951954,179,1609043681504951954,0.00851819899793,-0.00653310518848,-0.00157990651971,0.999883913913,0.00146914571905,0.0145338305551,-0.00433221409434,0.000878391962903,0.00197075626954,-0.00046537181167,0.0,0.0,0.0
1609043681704956055,180,1609043681704956055,0.00834695452094,-0.00657275677981,-0.00159326877896,0.999879058663,0.00141343489769,0.0148529641112,-0.00438858819792,-0.00102683069557,0.0013422927212,0.000573268948,0.0,0.0,0.0
1609043681905019045,181,1609043681905019045,0.00842814202609,-0.00668411229723,-0.00156781834889,0.999884159825,0.00148356982098,0.0145288676227,-0.00428695202885,-0.000369468387392,0.00149137395192,0.000360661605879,0.0,0.0,0.0
1609043682105083942,182,1609043682105083942,0.0086208233754,-0.00645768659966,-0.00159987991189,0.99988475616,0.00144319937781,0.0144970877126,-0.00426919449024,0.000365002490616,0.00191457815565,3.25718737945e-05,0.0,0.0,0.0
1609043682305253029,183,1609043682305253029,0.00859700033914,-0.00645595955191,-0.00160681674147,0.999884583945,0.00148202070964,0.0145061576867,-0.00426541820592,-9.86553695842e-05,0.000527391398423,6.06231606258e-05,0.0,0.0,0.0
1609043682505235910,184,1609043682505235910,0.00850387882127,-0.00656532642443,-0.00165256892429,0.999884662474,0.00145638666348,0.014527617145,-0.00418198832593,-0.000619338891982,0.000922751702251,-0.000603776184297,0.0,0.0,0.0
1609043682705248117,185,1609043682705248117,0.0086765394112,-0.00637337804498,-0.00163042656675,0.99988452514,0.001480839921,0.014526346483,-0.00421055292033,4.64247692951e-05,0.00123157868413,-5.56014653414e-05,0.0,0.0,0.0
1609043682905358076,186,1609043682905358076,0.00867005999559,-0.00638193243867,-0.00162754729495,0.999884301766,0.00149699435566,0.0145399371386,-0.00421097592733,0.000301512257154,0.00204943245552,0.000178291410287,0.0,0.0,0.0
1609043683105448961,187,1609043683105448961,0.00867333405786,-0.00637934799163,-0.00162208578864,0.999883777199,0.00151045326185,0.0145710707367,-0.00422309399176,-4.862224796e-05,0.0012199926096,0.000356853113687,0.0,0.0,0.0
1609043683305444956,188,1609043683305444956,0.00888402012297,-0.00616355040158,-0.00164526585735,0.999878554029,0.00152250193978,0.0149196230106,-0.00423839947405,-0.000248216998097,0.00159928810477,-0.000124174407832,0.0,0.0,0.0
1609043683505487919,189,1609043683505487919,0.00883734108279,-0.00620994629314,-0.00166310193474,0.999883442054,0.00151145428174,0.014613193866,-0.00415600505365,0.00033994875987,0.00134578374615,2.32151126452e-05,0.0,0.0,0.0
1609043683705712080,190,1609043683705712080,0.00895115955035,-0.00607613026654,-0.00166432416258,0.999882544316,0.00158125411001,0.0146453133887,-0.00423225740165,0.000364023299302,0.00159211357513,0.000145071326215,0.0,0.0,0.0
1609043683905606985,191,1609043683905606985,0.00902806988026,-0.00600078208776,-0.00167402644727,0.999882192979,0.0015490261665,0.014672358218,-0.00423350740887,0.000243850359576,0.00125422430379,-5.25346972076e-05,0.0,0.0,0.0
1609043684105724096,192,1609043684105724096,0.00883388202869,-0.00620912858678,-0.0016606369028,0.999882085334,0.00157030880553,0.0146864025003,-0.00420227792509,0.000156253472022,0.00135385288501,-0.000568550345894,0.0,0.0,0.0
1609043684305732965,193,1609043684305732965,0.00884076945631,-0.00620396402022,-0.00165467053363,0.999881277918,0.00150163238048,0.0147509449174,-0.00419342271308,0.000429253016909,0.00116164688368,0.000202667796364,0.0,0.0,0.0
1609043684505896091,194,1609043684505896091,0.00885603497208,-0.00620262794453,-0.00165221660412,0.999880304304,0.00146283705967,0.0148231971034,-0.00418449514306,3.32613269773e-05,0.000767855347046,0.000298140602301,0.0,0.0,0.0
1609043684706088066,195,1609043684706088066,0.00884933031171,-0.00620416483624,-0.00165233973352,0.999879426673,0.00148668771268,0.0148818215409,-0.00417771038539,0.000160121626931,0.00189203156679,0.000182938580763,0.0,0.0,0.0
1609043684907479048,196,1609043684907479048,0.00881397487291,-0.00625125800441,-0.001625755168,0.99987842826,0.00154898890622,0.0149299915313,-0.00422192916359,0.000317314691423,0.00113392341198,0.000559996774103,0.0,0.0,0.0
1609043685106046915,197,1609043685106046915,0.00882585733883,-0.00622825448753,-0.00165060968744,0.999877824899,0.00155922712522,0.0149812443631,-0.00417928258747,-3.57296361625e-05,0.000794129340896,0.000325705822992,0.0,0.0,0.0
1609043685306031942,198,1609043685306031942,0.0089417422585,-0.006099039114,-0.00168217004931,0.999873862029,0.00156433239276,0.0152498935003,-0.00415375053138,-0.000250622044412,0.00198085212942,-0.000456319275186,0.0,0.0,0.0
1609043685506140947,199,1609043685506140947,0.00889990457619,-0.00618858598416,-0.00161928947406,0.999876884871,0.00164642555507,0.0150201381988,-0.00423081920732,-0.000190235773413,0.00122927023796,9.22785984847e-05,0.0,0.0,0.0
1609043685706449986,200,1609043685706449986,0.00889480260244,-0.00615864610047,-0.00164743864416,0.999877033684,0.00167056529435,0.0150083408926,-0.00422805230617,0.00015363632131,0.00105068109325,5.36510427492e-05,0.0,0.0,0.0
1609043685906235933,201,1609043685906235933,0.00889137844148,-0.00612658478518,-0.00165114513771,0.999876660539,0.0016468742111,0.0150282429272,-0.00425481240276,0.000160359048338,0.00126867948553,-0.000939589057526,0.0,0.0,0.0
1609043686107481003,202,1609043686107481003,0.00896553953218,-0.00627401585654,-0.0014681667339,0.999876121591,0.00169529855549,0.0150720951433,-0.0042070635564,0.000106551526101,0.000786477651887,0.000498522112777,0.0,0.0,0.0
1609043686306436062,203,1609043686306436062,0.00891292474328,-0.0062103787163,-0.00160386478446,0.999876172164,0.00165264597084,0.0150734836806,-0.00420704048875,0.000619347928568,0.00177624142648,0.000276086370423,0.0,0.0,0.0
1609043686507358074,204,1609043686507358074,0.0088901414743,-0.00618796778977,-0.00163365825342,0.999875749225,0.00160545532533,0.0150949423119,-0.0042486871328,7.60897595673e-05,0.000242272419417,-0.000340292755664,0.0,0.0,0.0
1609043686706988096,205,1609043686706988096,0.00888278105034,-0.00617589778003,-0.00165190188698,0.99987472846,0.00160591244089,0.0151618400237,-0.00425053403298,0.000274557003438,0.000853243153004,6.0910900874e-05,0.0,0.0,0.0
1609043686906577110,206,1609043686906577110,0.00888934753555,-0.00617294181637,-0.00167121976253,0.99987342606,0.00157994266194,0.0152626874691,-0.00420547408324,3.81321744673e-06,0.000931590520537,-0.00074292762686,0.0,0.0,0.0
1609043687106585026,207,1609043687106585026,0.00890590984233,-0.00617886581111,-0.00166321474746,0.999867800145,0.00151840086748,0.0156195385903,-0.00425519754682,-5.39974581618e-05,0.0011539350463,0.000711376741909,0.0,0.0,0.0
1609043687306606054,208,1609043687306606054,0.00890140805616,-0.0061746603127,-0.00167690799429,0.999871420146,0.00155149724931,0.0153959871157,-0.00420709067425,9.75154246327e-05,0.000951886264186,0.000114411682484,0.0,0.0,0.0
1609043687506820917,209,1609043687506820917,0.00891775811459,-0.006173424562,-0.00168057184456,0.999870712067,0.00148936814697,0.0154450158418,-0.00421810613369,0.000433882865005,0.00124141947764,0.000262042864096,0.0,0.0,0.0
1609043687706762075,210,1609043687706762075,0.00891674673314,-0.00617500697691,-0.0016552403216,0.999869156407,0.00148666397585,0.0155163229087,-0.00432476806287,-0.000183211180624,0.00134349804775,-0.000273744687351,0.0,0.0,0.0
1609043687909061909,211,1609043687909061909,0.00892538364077,-0.00616991299273,-0.0016834001754,0.999868706361,0.00145582261247,0.0155625998468,-0.00427271650297,-5.26526940438e-05,0.000225931397696,-0.000445217364362,0.0,0.0,0.0
1609043688106796026,212,1609043688106796026,0.00892657562873,-0.00617086618941,-0.00168495933129,0.999863049694,0.00142206624965,0.0159127120775,-0.00431800635957,-0.000190283115479,0.00112915168655,0.000657074378884,0.0,0.0,0.0
1609043688306921959,213,1609043688306921959,0.00894324593552,-0.00616986234771,-0.00168266358101,0.999866361661,0.0013873626817,0.0157073071984,-0.00431445748769,0.000142053696905,0.00139674526969,-0.000915480187984,0.0,0.0,0.0
1609043688506946087,214,1609043688506946087,0.00893792911011,-0.00617025542198,-0.00168402090346,0.999865588058,0.00140800626389,0.0157530064977,-0.00432043068552,0.000190377062475,0.00143028029366,0.000558492513015,0.0,0.0,0.0
1609043688807598114,215,1609043688807598114,0.00893565738848,-0.00619120085836,-0.0017459142161,0.999867940353,0.00144715138675,0.0155419050925,-0.00452291860268,0.000133763179792,0.00110969657766,-0.000350547754981,0.0,0.0,0.0
1609043689007081032,216,1609043689007081032,0.00894685770066,-0.00615834955568,-0.00169769496476,0.999864804323,0.00133593032301,0.0157862448801,-0.0044025944595,5.36263882056e-06,0.000817658009226,0.00011672412536,0.0,0.0,0.0
1609043689208097935,217,1609043689208097935,0.00894281033436,-0.00616018568281,-0.00168611146524,0.999858217482,0.00131509767908,0.0161619016396,-0.00453964619081,-0.000484789241323,0.000921539159642,-0.000197947843981,0.0,0.0,0.0
1609043689407212019,218,1609043689407212019,0.00891467160016,-0.00616022065899,-0.00167752598704,0.999863534815,0.00143832696952,0.0158105597463,-0.00456827785089,0.000144524281147,0.000271515380395,-0.000259811224842,0.0,0.0,0.0
1609043689607682943,219,1609043689607682943,0.00892408701944,-0.00616409155161,-0.00165193269153,0.999862160354,0.00141718712854,0.0158603718555,-0.00470111446345,6.91836315145e-05,0.00148034141681,-3.96811770446e-05,0.0,0.0,0.0
1609043689807446003,220,1609043689807446003,0.00894197804737,-0.00616096641619,-0.00166464777769,0.99986143512,0.00134787012725,0.0158846604992,-0.00479284542403,-0.00014587707164,0.000442287738419,2.27420062657e-05,0.0,0.0,0.0
1609043690007541895,221,1609043690007541895,0.00892850662039,-0.00616130663579,-0.00167426162966,0.99986136708,0.00140131920365,0.0158690503936,-0.00484315650553,-0.000209364603809,0.000969102890285,-0.000111033957031,0.0,0.0,0.0
1609043690207556963,222,1609043690207556963,0.00892222531215,-0.00616391426382,-0.00165533815617,0.99986002001,0.00142388355075,0.0159117431866,-0.00497286339281,-2.04015928098e-05,0.000747691954164,0.000433892546793,0.0,0.0,0.0
1609043690407740116,223,1609043690407740116,0.00889254096912,-0.00616711599016,-0.00164805010593,0.99985972003,0.00153612121481,0.0159000833946,-0.00503665978877,0.000128125653959,0.000645354896317,-0.000250431265297,0.0,0.0,0.0
1609043690608131886,224,1609043690608131886,0.00887078504062,-0.00616884382452,-0.00164808543239,0.999854631563,0.00158991346938,0.0161793780633,-0.00513961510757,8.57129676013e-05,0.000313017741923,8.85432194948e-05,0.0,0.0,0.0
1609043690807789087,225,1609043690807789087,0.00884410498939,-0.00617111494526,-0.00164547490748,0.999858055612,0.00171713219591,0.0159237598223,-0.00523010120108,0.000319989918555,0.00127134057299,-0.000142105196517,0.0,0.0,0.0
1609043691007757902,226,1609043691007757902,0.00884294820133,-0.00617368699635,-0.00162611619181,0.999857245919,0.00171965787629,0.0159304783121,-0.00536194181571,-0.000280721725781,0.00079111375081,0.000219845792037,0.0,0.0,0.0
1609043691207712889,227,1609043691207712889,0.0088547750002,-0.00617060185633,-0.00164446514944,0.9998577483,0.00168094346262,0.0158979356117,-0.00537710293644,0.000238065400064,0.000543155610303,-0.000323856690759,0.0,0.0,0.0
1609043691407892942,228,1609043691407892942,0.00887281117975,-0.00617045495221,-0.00163420942679,0.999857199416,0.00161441645067,0.0158987370077,-0.00549587099154,0.000254110745525,0.000110955564027,-0.000119814589115,0.0,0.0,0.0
1609043691607806921,229,1609043691607806921,0.00887489487551,-0.00616740179212,-0.00165791828395,0.999856504157,0.00160206813669,0.0159536573048,-0.00546674419107,-0.000168713555373,0.000132388720769,-0.000793360061249,0.0,0.0,0.0
1609043691808063984,230,1609043691808063984,0.00886339436726,-0.00616556241149,-0.00168266851805,0.999856747317,0.00164949569769,0.0159244819963,-0.00549316677428,-9.59596476915e-06,0.00118431147334,0.000157085577325,0.0,0.0,0.0
1609043692007982969,231,1609043692007982969,0.00886385669561,-0.00616529129773,-0.00168290001223,0.999856970053,0.00165447731673,0.0158901055504,-0.00555037717753,-9.63007400253e-05,0.00092765803691,-0.000370838727288,0.0,0.0,0.0
1609043692208028078,232,1609043692208028078,0.00885739235272,-0.00616844911265,-0.00167547344886,0.999854177095,0.00170128678948,0.0160513997911,-0.00557518916825,0.000166213131994,0.000397499951611,-1.19145794576e-05,0.0,0.0,0.0
1609043692408072948,233,1609043692408072948,0.00883947237571,-0.00616690407825,-0.00169406891684,0.999856715306,0.00175080734867,0.0158848320674,-0.00558172378958,-3.34258555989e-05,0.00112518708355,-0.000461850777663,0.0,0.0,0.0
1609043692608107090,234,1609043692608107090,0.00884206162414,-0.00616659875562,-0.00168522405621,0.999856288675,0.00174130970988,0.0158898631936,-0.00564642234561,-3.68929972393e-05,4.24307592162e-05,-0.000216533446603,0.0,0.0,0.0
1609043692808156013,235,1609043692808156013,0.00884787527501,-0.0061626135011,-0.00171690055708,0.999856975269,0.00172557294541,0.0158706312086,-0.00558341006883,0.000281514337896,0.00116074391352,9.61361331613e-05,0.0,0.0,0.0
1609043693008270025,236,1609043693008270025,0.00884036316262,-0.00616321269251,-0.00171477393901,0.999856449574,0.00175528193794,0.0158778781535,-0.00564731944563,0.000281232320441,0.000231468908605,-0.000788592585983,0.0,0.0,0.0
1609043693208753109,237,1609043693208753109,0.00881580300849,-0.00616233718661,-0.0017323611946,0.999850250697,0.00180575644515,0.0162442490379,-0.00568680907594,3.08270524024e-05,0.000294518172294,-0.000408952449213,0.0,0.0,0.0
1609043693408430099,238,1609043693408430099,0.00859659276353,-0.00615080567212,-0.00182673157934,0.999850068459,0.00181485934506,0.0162554163341,-0.00568404144391,-0.00215256485469,0.000380662889908,-0.000933728977625,0.0,0.0,0.0
1609043693608467102,239,1609043693608467102,0.00889051568263,-0.0061513033335,-0.00174349429024,0.999855926789,0.00165044119571,0.0159153293424,-0.00566603929003,1.75665187088e-05,0.00108793090389,2.79036046812e-05,0.0,0.0,0.0
1609043693808794975,240,1609043693808794975,0.00884060369896,-0.00599555848576,-0.00176455655836,0.999855122194,0.00164187165952,0.0159681793835,-0.00566181311627,-0.000349564292166,0.00160214988922,-0.000275392768707,0.0,0.0,0.0
1609043694008610010,241,1609043694008610010,0.00883265268436,-0.00604331382167,-0.00177313467802,0.999848493737,0.00165970041653,0.0163200638787,-0.0058215530913,-0.000454781183985,0.000792349043124,5.03728745093e-05,0.0,0.0,0.0
1609043694208609104,242,1609043694208609104,0.00873913869587,-0.00592276876402,-0.00188130409422,0.999852315894,0.0017098689377,0.0160641437558,-0.00586225507163,-0.00020876127198,0.000508084043398,-0.000629528217647,0.0,0.0,0.0
1609043694408636093,243,1609043694408636093,0.00879951498473,-0.00593744446662,-0.00178044204198,0.999851887666,0.00167248275064,0.0160959546702,-0.00585882030547,-7.13027867913e-05,0.00171433037361,0.000142541289375,0.0,0.0,0.0
1609043694608756065,244,1609043694608756065,0.00834835155553,-0.00424373043947,-0.00171910303954,0.999851257396,0.00171201541414,0.0161236515847,-0.00587877090882,-0.000830229314011,0.00432447145322,0.000192935566459,0.0,0.0,0.0
1609043694808799982,245,1609043694808799982,0.00793037912107,-0.00335896877626,-0.0025370493656,0.999848994162,0.00173858886507,0.0162102304681,-0.00601619566893,-0.00152302015887,0.00498711493499,-0.0012458947527,0.0,0.0,0.0
1609043695008829117,246,1609043695008829117,0.00628886027706,-0.00198120738156,-0.00306154639141,0.999847965396,0.00176839446806,0.0162428083691,-0.00609016021991,-0.00372498957304,0.00654506188355,-0.000861801288059,0.0,0.0,0.0
1609043695208887100,247,1609043695208887100,0.00763821798302,-0.00520374319309,-0.00273785754165,0.999841564366,0.00173147903808,0.0165566904901,-0.00630270950049,-0.00329303914362,0.00142399565799,-0.00208120143478,0.0,0.0,0.0
1609043695408965111,248,1609043695408965111,0.0082839377082,-0.00522621764487,-0.00213978590013,0.99984675102,0.00174689535176,0.0162302307262,-0.00632474843382,-0.0012701342739,0.000128249530698,-0.000435954581651,0.0,0.0,0.0
1609043695609004974,249,1609043695609004974,0.00818417212288,-0.00516828674573,-0.00212105434643,0.999847465443,0.00177258830938,0.0161962641243,-0.0062916457011,-0.00056742547559,0.000765715132509,5.36866898719e-05,0.0,0.0,0.0
1609043695809071064,250,1609043695809071064,0.00818224965155,-0.00509434081933,-0.00194969823971,0.999846785945,0.00185140375403,0.0161734511071,-0.00643400483532,-0.000807033363816,0.000621018084138,0.000412963430936,0.0,0.0,0.0
1609043696009121895,251,1609043696009121895,0.00840230101313,-0.00524742011946,-0.00169666841253,0.999846924692,0.00188536474354,0.0161330639148,-0.00650360155894,-0.000402781865219,-9.4436903597e-05,0.000418878277095,0.0,0.0,0.0
1609043696209294081,252,1609043696209294081,0.00518000994688,-0.00500481065914,-0.00126271110665,0.999846394524,0.00196961757763,0.0161681246908,-0.00647299844219,-0.00256216235627,-0.000450360136487,0.00209716452959,0.0,0.0,0.0
1609043696409281969,253,1609043696409281969,0.00604793968628,-0.00412043787668,-0.00195189163801,0.999846984289,0.00192210024957,0.0161442512309,-0.00645574865721,-0.00131122750258,0.00144333508725,0.000878736847506,0.0,0.0,0.0
1609043696609291077,254,1609043696609291077,0.0077222702879,-0.00484316005055,-0.00199527285624,0.999846367261,0.00183295406261,0.0161839616656,-0.00647777270892,-0.000503399779192,0.000539538652905,9.94342543466e-05,0.0,0.0,0.0
1609043696809335947,255,1609043696809335947,0.00800264086225,-0.00513328120525,-0.00189302053298,0.999847089353,0.00181973497865,0.016149232549,-0.00645668378812,-0.00061342360457,0.000249313417965,-6.52166924735e-06,0.0,0.0,0.0
1609043697009424925,256,1609043697009424925,0.00834994007573,-0.00552564258138,-0.0018390269389,0.999847415881,0.00182022396833,0.0161314973257,-0.00645031274904,0.000263516321598,0.000688922740562,-0.000578999400869,0.0,0.0,0.0
1609043697209450006,257,1609043697209450006,0.00838148632849,-0.00559294864653,-0.0018159879389,0.999846821127,0.0018307150186,0.0161434591414,-0.00650933888333,7.02215376936e-05,-0.000318101973358,-0.000230464396071,0.0,0.0,0.0
1609043697409528971,258,1609043697409528971,0.00825247195052,-0.00554622071105,-0.00197058896869,0.999841475717,0.00177264185903,0.0164751216116,-0.00651548504462,-0.0012259510983,1.28132445785e-05,-0.0005710122129,0.0,0.0,0.0
1609043697609591007,259,1609043697609591007,0.00852114858943,-0.00558872560024,-0.00175530787937,0.999847927063,0.00171163107024,0.016069118623,-0.00655564596774,0.000511399915973,0.000885018687971,-0.000266714701426,0.0,0.0,0.0
1609043697809653997,260,1609043697809653997,0.00844114169155,-0.00540311446119,-0.00178437351029,0.999846535754,0.00170392999294,0.0161228703032,-0.00663736513174,-0.000252269414469,-0.000320152806466,-0.000460952632052,0.0,0.0,0.0
1609043698009766102,261,1609043698009766102,0.00839177040802,-0.00546184937742,-0.00178376213792,0.999847034005,0.00170954527926,0.0160906204538,-0.00663912491226,0.00016297484284,0.000700033570824,0.000424747482519,0.0,0.0,0.0
1609043698209830999,262,1609043698209830999,0.00837956527948,-0.00544193895711,-0.00175674449666,0.999846749064,0.00166739309683,0.0160862569283,-0.00670302354961,-0.000172422223493,0.000573913250885,-0.00030335219948,0.0,0.0,0.0
1609043698409894943,263,1609043698409894943,0.00842782035961,-0.00557144489715,-0.00175099964011,0.99984708399,0.001687121813,0.0160489820268,-0.00673739068968,-0.000224613338926,-0.000221018610523,-8.95093878388e-05,0.0,0.0,0.0
1609043698609889030,264,1609043698609889030,0.00834212599692,-0.00542721665675,-0.00173085913228,0.999846010201,0.0016424386129,0.0160704109994,-0.00685566712395,-0.000163955087588,0.000477473433052,-7.14333340922e-05,0.0,0.0,0.0
1609043698809891939,265,1609043698809891939,0.00833860050117,-0.00537296005579,-0.00172584305068,0.999844627761,0.00156865733448,0.0161514194826,-0.00688413393713,9.30748012254e-05,-0.000547574544032,-0.000119961309802,0.0,0.0,0.0
1609043699010004997,266,1609043699010004997,0.00837950976566,-0.00541650550891,-0.00176942346511,0.999845447482,0.00155894224652,0.0161186964037,-0.00684386400553,-2.08057075081e-05,-0.000116713085119,-0.00130963090348,0.0,0.0,0.0
1609043699210083008,267,1609043699210083008,0.00831248391723,-0.00540675163831,-0.0017410804654,0.999844477428,0.00164559134438,0.0160925843612,-0.00702436581975,2.82393432098e-05,-0.000411171749808,-0.000351829625492,0.0,0.0,0.0
1609043699410139084,268,1609043699410139084,0.00824677872791,-0.0054574644025,-0.00178529563989,0.999844098313,0.00165754875643,0.0161254778035,-0.00700004045086,-1.46144389446e-05,-0.000208007020576,-8.64646553244e-05,0.0,0.0,0.0
1609043699610218048,269,1609043699610218048,0.00826909864918,-0.00544869753608,-0.00175616989655,0.999844326822,0.00165448741339,0.016102338256,-0.00702135994945,2.09751208487e-05,0.000812020688913,0.000335545525739,0.0,0.0,0.0
