%time,field.header.seq,field.header.stamp,field.pose.pose.position.x,field.pose.pose.position.y,field.pose.pose.position.z,field.pose.pose.orientation.x,field.pose.pose.orientation.y,field.pose.pose.orientation.z,field.pose.pose.orientation.w,field.twist.twist.linear.x,field.twist.twist.linear.y,field.twist.twist.linear.z,field.twist.twist.angular.x,field.twist.twist.angular.y,field.twist.twist.angular.z
1609059612658186913,16,1609059612658186913,0.0167712373585,0.0128118124935,-0.0102126419499,0.99970844253,-0.000309175212327,0.0227533150838,0.00807595181848,-0.00892302327044,-0.00209461499635,-0.0104554610251,0.0,0.0,0.0
1609059612857724905,17,1609059612857724905,0.0165005415113,0.0142456330189,-0.0106905543252,0.999708787309,-0.000346531222225,0.0227324152814,0.00809059884822,-0.00881320032037,-0.00234726141824,-0.00964488735293,0.0,0.0,0.0
1609059613057863951,18,1609059613057863951,0.00835043346918,0.00805797967984,0.00484794925179,0.999714551999,-0.000302170737951,0.0224921074411,0.00805160336995,-0.00554620497461,-0.00223107803305,-0.000587005924066,0.0,0.0,0.0
1609059613257900953,19,1609059613257900953,0.0152491323465,0.0127772584811,-0.00972558989968,0.999710034548,-0.000343113279222,0.022697051816,0.00803572878642,-0.0100245109182,-0.00213806145123,-0.00675381390986,0.0,0.0,0.0
1609059613458873034,20,1609059613458873034,0.0173252035066,0.0153201829149,-0.013419265662,0.999709999184,-0.000372570229607,0.0227019100185,0.00802508592032,-0.0105273600164,-0.000927613622314,-0.00866129804418,0.0,0.0,0.0
1609059613658004045,21,1609059613658004045,0.0163736616139,0.0152575591998,-0.0121519808292,0.999710614639,-0.000396449588839,0.0226775316864,0.00801619374917,-0.0108317698969,-0.00190351871432,-0.00605567430259,0.0,0.0,0.0
1609059613858141899,22,1609059613858141899,0.0138426862963,0.0144428255279,-0.00828077431646,0.999711438772,-0.000434444664841,0.0226308159499,0.00804342066407,-0.010277869113,-0.00230107692578,-0.00449347068838,0.0,0.0,0.0
1609059614058181047,23,1609059614058181047,0.0148030045622,0.0170815534811,-0.011878122371,0.999711604996,-0.000475658902585,0.02261775234,0.00805716222781,-0.011170829686,-0.00146353532795,-0.0068589822976,0.0,0.0,0.0
1609059614258271933,24,1609059614258271933,0.014154206041,0.0173994044206,-0.0112832188155,0.999711687792,-0.00048059461782,0.0226022957033,0.00808990418613,-0.010246745386,-0.00135449001089,-0.0073499129737,0.0,0.0,0.0
1609059614458246946,25,1609059614458246946,0.0117402267218,0.0149322978614,-0.00741414244905,0.999712330012,-0.000469663037624,0.0225777618419,0.00807968497996,-0.0106839811773,-0.00257077436632,-0.00528896733043,0.0,0.0,0.0
1609059614658806086,26,1609059614658806086,0.0111144173023,0.0152397271774,-0.00737004626471,0.999712532111,-0.000474308017237,0.0225577189766,0.00811033206185,-0.0110834792975,-0.00349140441518,-0.00648399454037,0.0,0.0,0.0
1609059614859405994,27,1609059614859405994,0.00842388171116,0.00794352179689,0.00854102608586,0.999717321826,-0.000307426015055,0.0223010891902,0.00823670759176,-0.00654987445237,-0.00191297013038,-0.000939824992689,0.0,0.0,0.0
1609059615058821917,28,1609059615058821917,-0.00232398100787,0.000727362111169,0.0156468515115,0.999721927361,-0.000173926711391,0.0221067773218,0.00820537019838,-0.00111644872259,-0.00208285129975,-0.00111673148863,0.0,0.0,0.0
1609059615258764982,29,1609059615258764982,-0.0158655927195,-0.0034484009548,0.00450534375791,0.999718489634,-0.000190949116037,0.0222955527924,0.00811254259704,-0.00626806768377,-0.00397981807024,-0.00424783616067,0.0,0.0,0.0
1609059615459053040,30,1609059615459053040,-0.0247870067332,-0.00209609030851,-0.0120027042115,0.999713319668,-0.000374514067223,0.0225994945435,0.0078994343815,-0.0150524610122,-0.00917977985655,-0.0086696960411,0.0,0.0,0.0
1609059615658628941,31,1609059615658628941,-0.0110589839805,-0.00266296030038,0.0142636684884,0.99972006665,-0.000209305367071,0.0222418516474,0.00806502098759,-0.00422843041466,-0.00529222318134,-0.0014549590904,0.0,0.0,0.0
1609059615858647108,32,1609059615858647108,-0.0218996647867,-0.00981726936493,0.0064515400642,0.9997183381,-9.84494617686e-05,0.0223490079403,0.00798477414092,-0.00793744877101,-0.00875907767318,-0.0037218173963,0.0,0.0,0.0
1609059616058747053,33,1609059616058747053,-0.0412704918484,-0.0221876569127,-0.0101898237347,0.999714420528,4.51599876001e-05,0.0225770427959,0.00783278288314,-0.0158610873917,-0.0137723536324,-0.00820619804964,0.0,0.0,0.0
1609059616259398937,34,1609059616259398937,-0.0342894526965,-0.0115323304026,-0.0117539633318,0.999713756326,-0.000252182674396,0.022619962798,0.00778967903556,-0.0176964411243,-0.0130262324002,-0.00826503914488,0.0,0.0,0.0
1609059616458838940,35,1609059616458838940,-0.0275723150763,-0.00214276993706,-0.013292624679,0.999712747098,-0.000473524454019,0.022666283833,0.00777422927403,-0.0204611535507,-0.0133598190495,-0.00718970249794,0.0,0.0,0.0
1609059616658893108,36,1609059616658893108,-0.0287246207263,-0.00234821926083,-0.0127099525155,0.999712925808,-0.00048064487456,0.0226505262496,0.00779670527214,-0.0202005118399,-0.014791919073,-0.00714026490805,0.0,0.0,0.0
1609059616859129906,37,1609059616859129906,-0.0281054994212,-0.00306975436435,-0.0119515776295,0.999713535095,-0.000453321771144,0.0226266274336,0.007789607046,-0.0205801605626,-0.0151505563414,-0.00676211302161,0.0,0.0,0.0
1609059617059164047,38,1609059617059164047,-0.0281039350333,-0.0041507240085,-0.0114086125144,0.999713965646,-0.000403569170026,0.0225969467569,0.00782317208856,-0.0205457604493,-0.0163804809295,-0.0064564728763,0.0,0.0,0.0
1609059617259131908,39,1609059617259131908,-0.0274064102584,-0.00382366555059,-0.0108272073969,0.999714290436,-0.000429773314102,0.0225898580504,0.00780071187685,-0.020038000776,-0.0170186419737,-0.00586073483971,0.0,0.0,0.0
1609059617459223032,40,1609059617459223032,-0.0263199166009,-0.00357384407706,-0.0101518860716,0.999713789107,-0.000429293712243,0.0225983967853,0.00784015555011,-0.020037951014,-0.0177053314183,-0.00519034052456,0.0,0.0,0.0
1609059617659209013,41,1609059617659209013,0.000403085751658,-0.00664780232036,0.0171084087383,0.999722551274,0.000305175022222,0.0220988267813,0.00814672927444,0.000378023478928,-0.00442213907512,0.000422362030134,0.0,0.0,0.0
1609059617859308004,42,1609059617859308004,-0.00552294396164,0.00115048458838,0.0172836562855,0.999721106577,-0.000281439017971,0.0221576760046,0.00816500151038,-0.00542587381089,-0.00372858437562,0.00153351981912,0.0,0.0,0.0
1609059618059374094,43,1609059618059374094,-0.0108827900487,-0.000857006190161,0.0158859513533,0.999720429263,-0.000262029982274,0.0222064947819,0.0081158020864,-0.00798254794977,-0.00480996622389,0.0015845330577,0.0,0.0,0.0
1609059618259406090,44,1609059618259406090,-0.0188821507169,-0.00409018386829,0.0132503351231,0.999719263585,-0.000228962487502,0.0222658746723,0.00809767977752,-0.0105452936615,-0.00729028891337,0.00108863892806,0.0,0.0,0.0
1609059618459688902,45,1609059618459688902,-0.0372058425736,-0.0128671329822,0.00269998355613,0.99971576026,-0.000171496422425,0.0224566238542,0.00800433138072,-0.0172371211783,-0.0119140435949,-0.00179401898291,0.0,0.0,0.0
1609059618659714937,46,1609059618659714937,-0.0554131186876,-0.0252974170834,-0.0100317634059,0.999712944166,-3.43266016788e-06,0.0226258728111,0.00788030040378,-0.0231156716474,-0.0189621294775,-0.00425668642898,0.0,0.0,0.0
1609059618860651970,47,1609059618860651970,-0.0576751780132,-0.0272384393529,-0.00957634199839,0.999713195753,2.12519788865e-05,0.0226057467151,0.00790607370019,-0.0231156574816,-0.0202862438123,-0.0038058244599,0.0,0.0,0.0
1609059619060667038,48,1609059619060667038,-0.0574794904919,-0.0277460653146,-0.00957640882172,0.999713049661,3.75139320701e-05,0.0226109039079,0.00790973792695,-0.0238573148149,-0.0209637299559,-0.00304806384617,0.0,0.0,0.0
1609059619260096073,49,1609059619260096073,-0.057787432301,-0.0280845487522,-0.00855508962521,0.999713622294,3.85150628311e-05,0.0225915924091,0.00789251982968,-0.0237749577176,-0.0218350516423,-0.00184920122756,0.0,0.0,0.0
1609059619460751057,50,1609059619460751057,-0.0574403623007,-0.0280946863441,-0.00785895948024,0.999713511384,4.62060895631e-05,0.0225905404789,0.00790951966815,-0.0241316749148,-0.0220361965882,-0.000762412221672,0.0,0.0,0.0
1609059619660160065,51,1609059619660160065,-0.0563284501202,-0.0271538432466,-0.00867108921951,0.999712453193,2.46939384386e-05,0.0226444068897,0.00788930651347,-0.0262772453122,-0.0228460501619,-0.000679078977276,0.0,0.0,0.0
1609059619860059977,52,1609059619860059977,-0.0566070429646,-0.0278035835955,-0.00849494281475,0.999712240195,5.78967881955e-05,0.02266268528,0.00786359644241,-0.0263652910156,-0.0227202118827,0.000903940322186,0.0,0.0,0.0
1609059620060060978,53,1609059620060060978,-0.0568336703791,-0.0283191261981,-0.00810007960118,0.999712321023,7.45162533454e-05,0.022655804517,0.00787300227057,-0.0258265787247,-0.0230258365931,-0.000242237640346,0.0,0.0,0.0
1609059620260129929,54,1609059620260129929,-0.0578835453785,-0.0301580988036,-0.00740037113351,0.999712949573,9.71143642865e-05,0.0226317762401,0.00786204354968,-0.0253947775638,-0.0233459886178,-0.000136324940151,0.0,0.0,0.0
1609059620460233927,55,1609059620460233927,-0.0578636148319,-0.0303760756883,-0.00731200930062,0.999712755705,0.000105027618359,0.0226312395958,0.00788809508146,-0.026112548648,-0.0231193724325,0.000765805744796,0.0,0.0,0.0
1609059620660232067,56,1609059620660232067,-0.0563041522561,-0.0277736105412,-0.00772293254232,0.999712438907,4.35228772414e-05,0.0226532651062,0.00786556932875,-0.0269276803578,-0.0231616957227,-2.22494103323e-05,0.0,0.0,0.0
1609059620860263109,57,1609059620860263109,-0.0551815783468,-0.02547378558,-0.00744421865696,0.999712539982,-1.40676326755e-05,0.0226424096707,0.00788406551225,-0.0274536290627,-0.02153083022,-4.75173367433e-05,0.0,0.0,0.0
1609059621060664892,58,1609059621060664892,-0.0554983051176,-0.0258940743688,-0.00682162093344,0.999712884259,9.93006137276e-07,0.0226261549978,0.00788708789456,-0.0271403005795,-0.0223216473438,0.00120061418936,0.0,0.0,0.0
1609059621260540962,59,1609059621260540962,-0.0566571047263,-0.0280605174402,-0.00655149769166,0.99971293364,6.23379750932e-05,0.0226255045063,0.00788244712908,-0.0281274490102,-0.0235980705524,0.000895457081502,0.0,0.0,0.0
1609059621460417986,60,1609059621460417986,-0.0574456197278,-0.0293184897315,-0.00617659326507,0.999713366383,7.5073383599e-05,0.0226085532862,0.00787608774972,-0.0277942923949,-0.0242874837729,0.00083760496198,0.0,0.0,0.0
1609059621660494089,61,1609059621660494089,-0.0579077234044,-0.0300404764218,-0.00677247716478,0.99971235377,8.61684474626e-05,0.0226581985653,0.0078618275672,-0.0295562745867,-0.0257508570453,-2.39709050031e-05,0.0,0.0,0.0
1609059621861551046,62,1609059621861551046,-0.0183067873659,-0.0132600052635,0.00713961112159,0.999723943673,3.55512904547e-05,0.0219846336929,0.00828921373863,-0.00255324990046,5.12520308579e-05,-0.00467933117775,0.0,0.0,0.0
1609059622060656071,63,1609059622060656071,-0.017910617365,-0.0126521145392,0.00737271277178,0.999724139796,6.75378323233e-06,0.0219828059748,0.00827045981063,-0.00216564514909,-0.0070217008815,-0.00166883612647,0.0,0.0,0.0
1609059622260684967,64,1609059622260684967,-0.0186452958165,-0.0131463962948,0.00697087730411,0.999724216281,8.0438275368e-06,0.0219860498776,0.00825257094887,-0.00346220822191,-0.000975373844052,-0.00454593371798,0.0,0.0,0.0
1609059622460896015,65,1609059622460896015,-0.0191821331553,-0.0122402410842,0.00740082573871,0.999724849029,-1.39135213827e-05,0.0219604881212,0.00824396755481,0.000701365302872,-0.00241030656746,-0.00159127481302,0.0,0.0,0.0
1609059622661561966,66,1609059622661561966,-0.0193625237414,-0.0113340887152,0.00754739102346,0.999724811491,-3.98289957304e-05,0.021960061794,0.00824956900306,-0.00127715436822,-0.00466392475931,-0.000330214866141,0.0,0.0,0.0
1609059622860883951,67,1609059622860883951,-0.0234546372876,-0.00722871275273,0.00559506155966,0.999730688615,-0.000145033909114,0.0216409675798,0.00837840853292,0.00336602844767,0.000135696800176,-0.0131196381462,0.0,0.0,0.0
1609059623060909986,68,1609059623060909986,-0.0174755862278,-0.0102268157091,0.00857686991401,0.999725213505,-4.49181893917e-05,0.0219527787726,0.00822015630628,-0.0021385817,-0.00124413696415,-0.0040910802905,0.0,0.0,0.0
1609059623261239052,69,1609059623261239052,-0.0154908662141,-0.00892850922884,0.00946066349162,0.999725079597,-0.000106596432374,0.0219676197951,0.0081961907676,-0.00311020684493,-0.00637845125484,-0.00426425668698,0.0,0.0,0.0
1609059623461379051,70,1609059623461379051,-0.015004060542,-0.00936517538348,0.00896414420291,0.999725777446,-0.000106242836572,0.0219402603356,0.00818435089518,-0.000535987529551,-0.00156248478241,-0.0041689973234,0.0,0.0,0.0
1609059623661107063,71,1609059623661107063,-0.0151802324815,-0.00945579298613,0.00926579359329,0.99972612788,-7.67768721806e-05,0.0219192449258,0.00819817307578,0.002082569093,-0.00289326732838,-0.00119516018891,0.0,0.0,0.0
1609059623861195087,72,1609059623861195087,-0.0161969723318,-0.012009510021,0.00927907759872,0.99972666336,-7.37803048262e-05,0.0218964754778,0.00819374671098,0.00160369356328,-0.00853331895742,-0.00145568579957,0.0,0.0,0.0
1609059624061322927,73,1609059624061322927,-0.0171831879332,-0.0128100250245,0.00905681844441,0.999726460202,-3.49592240438e-05,0.0219010157742,0.00820664713521,0.00419196247143,-0.00456385684518,1.85612200239e-05,0.0,0.0,0.0
1609059624261425972,74,1609059624261425972,-0.0180244683572,-0.0140925080015,0.00954338179187,0.999726599612,-2.85130286816e-05,0.0218959201245,0.0082032858052,-0.00276698998657,-0.0113383971458,0.00218313433173,0.0,0.0,0.0
1609059624461610079,75,1609059624461610079,-0.0179227474145,-0.0146898955364,0.00961956258356,0.99972665897,-3.96532580763e-05,0.021893067846,0.00820361820352,-0.00168380106649,-0.00683616816908,-0.000109341383484,0.0,0.0,0.0
1609059624661685944,76,1609059624661685944,-0.0173286745172,-0.0111451394148,0.0101707208682,0.999726688765,-8.1432080506e-05,0.0218923499522,0.00820159450601,0.00276551139952,-0.00192876259795,-0.000717548027514,0.0,0.0,0.0
1609059624862318993,77,1609059624862318993,-0.0187837648842,-0.0118382467798,0.0104251159237,0.9997272156,-7.74314238456e-05,0.0218752497796,0.00818302142212,0.00237106598798,-0.00570388904018,0.0019203944334,0.0,0.0,0.0
1609059625061851025,78,1609059625061851025,-0.0190144712796,-0.0126017896317,0.010375724619,0.999726858503,-9.50318078323e-05,0.0218976285819,0.00816659162954,5.24293864884e-05,-0.00618066045991,-0.000652871753327,0.0,0.0,0.0
1609059625261842012,79,1609059625261842012,-0.0195477163581,-0.0129374174069,0.0105440664516,0.99972706086,-8.62884755168e-05,0.0218853788823,0.00817474951063,0.00317637541562,0.000526902649645,0.00104351011815,0.0,0.0,0.0
1609059625461874008,80,1609059625461874008,-0.0204210615593,-0.0134729165957,0.0107017240423,0.999727233329,-7.70096543684e-05,0.0218852825001,0.00815398182759,-0.00102913521261,-0.00645082343962,-1.49105038768e-05,0.0,0.0,0.0
1609059625662205935,81,1609059625662205935,-0.021118494657,-0.0154076979283,0.0109591625759,0.99972751453,-6.35014545252e-05,0.0218739820799,0.00814994279799,0.00158027987472,-0.00410526412858,0.00319715091963,0.0,0.0,0.0
1609059625862379074,82,1609059625862379074,-0.0216471094053,-0.0155926115911,0.0105651560777,0.999728016573,-6.02539405038e-05,0.0218578411028,0.00813166842365,-0.000100986406013,-0.00163607970456,-0.000300851365847,0.0,0.0,0.0
1609059626061933994,83,1609059626061933994,-0.0206909830628,-0.0152298811177,0.0109488341042,0.999728059725,-7.95814888975e-05,0.0218575952211,0.00812685650218,0.00449418581407,0.000408192567054,0.00310087584939,0.0,0.0,0.0
1609059626262609959,84,1609059626262609959,-0.0203887067499,-0.0150904190644,0.0113096321996,0.999728128052,-9.81880687066e-05,0.0218626213582,0.00810469789274,0.00608463460138,0.00162302656482,0.00599008109575,0.0,0.0,0.0
1609059626462325096,85,1609059626462325096,-0.020923023051,-0.0135689251386,0.0114288512751,0.999727431066,-9.89314113092e-05,0.0218873802535,0.00812381517446,0.00872335534696,0.00240956903674,0.00468837953102,0.0,0.0,0.0
1609059626662385941,86,1609059626662385941,-0.0202564871398,-0.0129184720201,0.01172511385,0.999727647195,-9.89168444413e-05,0.0218814726397,0.00811312543168,0.00459541668603,0.00172113335789,0.00443283188619,0.0,0.0,0.0
1609059626862274885,87,1609059626862274885,-0.0212200067704,-0.0132141282684,0.0112223102168,0.999727639567,-0.000111238121896,0.0218889843247,0.00809361954722,-0.00416860542111,-0.000728892731723,0.000205324712237,0.0,0.0,0.0
1609059627062138081,88,1609059627062138081,-0.0229239687628,-0.0158384262089,0.010741262075,0.999727175706,-4.86275714769e-05,0.0218945812647,0.00813628299254,0.00114981182213,0.00540923724826,0.00311508408766,0.0,0.0,0.0
1609059627262326002,89,1609059627262326002,-0.0226370313499,-0.0151866260275,0.0105503829497,0.999727196934,-5.99810449249e-05,0.0219033053167,0.00811007571989,-0.00923074426575,-0.00559622692271,-0.00256315649761,0.0,0.0,0.0
1609059627462419987,90,1609059627462419987,-0.0218381698506,-0.0159188388681,0.0111184987342,0.999727676009,-5.32318522063e-05,0.0218698996763,0.0081411594391,0.00279218393059,-0.000300879814863,0.00372724447593,0.0,0.0,0.0
1609059627662787914,91,1609059627662787914,-0.0206848235081,-0.0152597801555,0.0113213820278,0.999728240226,-6.19149396655e-05,0.0218495289294,0.00812649662158,0.00517350325465,-0.000417770747161,0.00114976717826,0.0,0.0,0.0
1609059627862525940,92,1609059627862525940,-0.0205224206823,-0.0162684916493,0.0111973419635,0.999728805102,3.25329443751e-05,0.021809147591,0.00816555396559,0.0225527671002,0.00542403709576,0.0056291902384,0.0,0.0,0.0
1609059628062642097,93,1609059628062642097,-0.0164369112183,-0.0144572307429,0.0129914045191,0.999728569696,3.79181349349e-05,0.0218072039435,0.00819947261808,0.000877507892383,-0.010741448886,0.00310141905404,0.0,0.0,0.0
1609059628262715101,94,1609059628262715101,-0.014648883661,-0.0132507003257,0.0135798138773,0.999728660896,2.15734706689e-05,0.0218085931487,0.00818470419095,0.00156241849247,-0.00293737806452,0.00212106300319,0.0,0.0,0.0
1609059628462752104,95,1609059628462752104,-0.0176109531452,-0.0139172724581,0.0123649700001,0.999728324957,2.77358773164e-05,0.0218319064268,0.00816353914136,-0.00443654673229,-0.00642253943431,-0.00275172663737,0.0,0.0,0.0
1609059628662775993,96,1609059628662775993,-0.0195666279924,-0.0141332401437,0.0119543886504,0.999727794467,3.29401083609e-05,0.0218470981092,0.00818780739387,-0.00490492819409,-0.00567234720183,-0.001956877257,0.0,0.0,0.0
1609059628862871885,97,1609059628862871885,-0.0173201832909,-0.01272754497,0.0130698935013,0.99972783924,2.90617537497e-05,0.0218493518669,0.00817633336883,0.00437244688983,-0.000657768235429,0.00350389630478,0.0,0.0,0.0
1609059629062882900,98,1609059629062882900,-0.0179849554068,-0.0137643258098,0.0127934438925,0.999727468526,2.15860699714e-05,0.0218735240966,0.00815703084624,-0.007963034567,-0.00983754929951,-0.00232875856809,0.0,0.0,0.0
1609059629263022900,99,1609059629263022900,-0.0171704024073,-0.0124527045674,0.013222041901,0.999728009966,-2.60934179522e-05,0.0218620238514,0.00812141132729,-0.00185896967717,-0.00279336880785,0.000954837959978,0.0,0.0,0.0
1609059629463078976,100,1609059629463078976,-0.0218595815308,-0.0156035233398,0.0113738827253,0.999726955496,2.9271895076e-05,0.0218995142752,0.0081501455303,-0.0106683794644,-0.0133803014103,-0.00365961985922,0.0,0.0,0.0
1609059629663083076,101,1609059629663083076,-0.0206386499825,-0.0133282716358,0.0124036827853,0.9997267542,3.1955627793e-05,0.0219054353512,0.00815891034209,0.00472210340932,-0.00259789580194,0.00409490594661,0.0,0.0,0.0
1609059629863226891,102,1609059629863226891,-0.0208121743467,-0.0139144182379,0.0126442218156,0.999726248097,2.2117713585e-05,0.0219271877203,0.00816252500717,-0.0032844143322,-0.00578735658933,0.00110446469148,0.0,0.0,0.0
1609059630063239098,103,1609059630063239098,-0.0184018628056,-0.0134570035943,0.0133002620575,0.999726286994,2.10566616546e-06,0.021948998458,0.00809892304408,-0.00618237704,-0.0102689093694,0.00131333685857,0.0,0.0,0.0
1609059630263293982,104,1609059630263293982,-0.020956461356,-0.0157843854088,0.013350230123,0.999726708205,1.69212914157e-05,0.0219303718956,0.00809737017606,-0.00451632752736,-0.00845775268347,0.00208528939181,0.0,0.0,0.0
1609059630463344097,105,1609059630463344097,-0.0235918698483,-0.0179461387029,0.012570118678,0.999726171149,5.01394638409e-05,0.0219455978244,0.00812224980261,-0.00949981337924,-0.0137221621684,-0.0022993632515,0.0,0.0,0.0
1609059630663446903,106,1609059630663446903,-0.0237828362981,-0.017108098297,0.0125206091568,0.999726663704,1.96105269308e-05,0.0219416650586,0.00807222581869,-0.00159771704735,-0.00907647962402,0.000121882039717,0.0,0.0,0.0
1609059630863477945,107,1609059630863477945,-0.0262688594469,-0.0183077390649,0.0122524840495,0.999727194937,2.77917152267e-05,0.0219133108581,0.00808342366448,0.0026863845931,-0.00627637283564,0.00341440134709,0.0,0.0,0.0
1609059631063555002,108,1609059631063555002,-0.0301266601443,-0.0195561979477,0.0107333378861,0.999726465445,3.81129101901e-05,0.0219526587664,0.0080668215523,-0.00722632289053,-0.00983982809903,-0.0016305551247,0.0,0.0,0.0
1609059631263612986,109,1609059631263612986,-0.0279609656842,-0.0195217943537,0.0109500418118,0.999726983526,7.8398168064e-05,0.0219327648243,0.0080564315968,0.00752995753584,-0.000258260062061,0.00254096554375,0.0,0.0,0.0
1609059631463733912,110,1609059631463733912,-0.0262893128408,-0.0186236114101,0.0112791779251,0.99972572775,6.59304248342e-05,0.0219819349071,0.00807833310682,0.000460068343417,-0.00128600328659,0.000131854432739,0.0,0.0,0.0
1609059631663805962,111,1609059631663805962,-0.0245168784672,-0.0180694522309,0.0117147529238,0.999726271927,4.58130127013e-05,0.0219645759547,0.00805832010535,-0.00259126831948,-0.00458402996028,0.0004382966579,0.0,0.0,0.0
1609059631863938093,112,1609059631863938093,-0.0238445515463,-0.0188732787602,0.0119399691941,0.999725975883,5.39520716993e-05,0.0219827262336,0.00804549444656,-0.00318610477444,-0.0101385244071,0.000547109577294,0.0,0.0,0.0
1609059632063884974,113,1609059632063884974,-0.0247484687214,-0.0183790562078,0.0121005725085,0.99972616686,4.747262994e-05,0.0219686798614,0.00806015793465,-0.00222300675597,-0.0113940492679,0.0012264452421,0.0,0.0,0.0
1609059632263968945,114,1609059632263968945,-0.0236665020775,-0.0180779756298,0.0125955745025,0.999726518658,6.7087005806e-05,0.0219428276837,0.00808676104067,0.0101288977696,0.00234217699001,0.00594795658461,0.0,0.0,0.0
1609059632463992119,115,1609059632463992119,-0.0233733173579,-0.0173221264938,0.0123594576146,0.999725618522,7.14157503649e-05,0.0219884330821,0.00807411800536,-0.00242231596752,-0.00360714853425,-0.00128597185121,0.0,0.0,0.0
1609059632664097071,116,1609059632664097071,-0.0225228824841,-0.0164862663974,0.0125785792324,0.99972659701,2.77048752893e-05,0.0219462750329,0.00806792884395,-0.00403470273806,-0.00325646217064,-0.00239930737963,0.0,0.0,0.0
1609059632864265919,117,1609059632864265919,-0.0216114338775,-0.0164124423015,0.0129853891859,0.999726109931,8.98212636569e-06,0.0219729052917,0.0080558348543,-0.0103127868745,-0.00829820983888,-0.00401128710918,0.0,0.0,0.0
1609059633064239025,118,1609059633064239025,-0.0223305829539,-0.0174746089211,0.0128498108761,0.999726899713,1.31589317121e-05,0.021943202249,0.00803876184401,-0.0110114738144,-0.00670763728374,-0.00355272819149,0.0,0.0,0.0
1609059633264256001,119,1609059633264256001,-0.0255535279018,-0.0181274247362,0.0117246381333,0.999725950197,2.64561158062e-05,0.0219818234421,0.00805128814289,-0.0199811914213,-0.00775797996766,-0.00684582009492,0.0,0.0,0.0
1609059633464317083,120,1609059633464317083,-0.0268575733655,-0.0182816890484,0.0109193286313,0.999725577796,2.30028524234e-05,0.0220023045922,0.00804158961472,-0.0112140882687,-0.000779085840309,-0.00378827906984,0.0,0.0,0.0
1609059633664326906,121,1609059633664326906,-0.0265879638528,-0.0173290028898,0.0105176290662,0.999725416305,2.09578935021e-05,0.0220033933471,0.00805867457157,-0.00872730763555,0.00152839057453,-0.0024828251165,0.0,0.0,0.0
1609059633864424944,122,1609059633864424944,-0.025540715788,-0.0154710368548,0.0104697248546,0.999724519577,8.68663907607e-06,0.0220430946232,0.00806144285293,-0.00433031680458,0.000541262446732,-0.00187527317905,0.0,0.0,0.0
1609059634064538956,123,1609059634064538956,-0.0273765083612,-0.0158099765186,0.0100668799423,0.999725689062,-2.25894632253e-05,0.0220021655703,0.0080281274365,-0.0150939720189,-0.003630404487,-0.00532465940681,0.0,0.0,0.0
1609059634264565945,124,1609059634264565945,-0.0257024475985,-0.0143758806532,0.0106089569398,0.999725054342,-2.68366725458e-05,0.0220261530599,0.00804136692676,-0.000822962335526,0.00389890783436,0.000552536403534,0.0,0.0,0.0
1609059634464658022,125,1609059634464658022,-0.0236683006368,-0.0131859390715,0.0108075440259,0.999725754914,-5.48844271257e-05,0.021988414508,0.00805739273242,0.00223719260958,0.00794242985853,0.00126219214671,0.0,0.0,0.0
1609059634664730072,126,1609059634664730072,-0.0203312703954,-0.0121072170681,0.0112775065507,0.999725632299,-6.39915357064e-05,0.0219976967866,0.00804719614288,0.0072453548139,0.0129944167111,0.00397503071421,0.0,0.0,0.0
1609059634864841938,127,1609059634864841938,-0.0198589893362,-0.0105749479015,0.0118677779228,0.999726339049,-7.61822224472e-05,0.0219644310554,0.00805015376593,0.00645786106761,0.0159374459332,0.00507882776371,0.0,0.0,0.0
1609059635064973116,128,1609059635064973116,-0.0185331540606,-0.00971628457768,0.0120954201363,0.999727388589,-0.000107890937584,0.0219075173338,0.00807449990837,-0.000145342838621,0.0139375439699,0.00257429164952,0.0,0.0,0.0
1609059635264878035,129,1609059635264878035,-0.0181627273265,-0.00991942046292,0.0122538123165,0.999727515992,-9.11635683055e-05,0.0218930125248,0.00809823808954,0.00319545743547,0.0107691435335,0.00482792666888,0.0,0.0,0.0
1609059635464963913,130,1609059635464963913,-0.0178664659842,-0.0102978026137,0.0127710704487,0.999728650029,-9.43167888595e-05,0.0218413501076,0.0080977059065,0.00735484749715,0.00354321347072,0.00712147546793,0.0,0.0,0.0
1609059635664983034,131,1609059635664983034,-0.0192792510142,-0.0145611170672,0.0125417655144,0.999727331968,-2.82606991481e-05,0.0218866491957,0.00813851977246,0.00167673921792,-0.0087416919316,0.0041019127766,0.0,0.0,0.0
1609059635865115881,132,1609059635865115881,-0.0204943378743,-0.0138802717192,0.0121497999775,0.999727380459,-6.08102226674e-05,0.0218955891907,0.00810828193485,0.00235161104044,-0.00883162662264,-1.02168736057e-05,0.0,0.0,0.0
1609059636065176010,133,1609059636065176010,-0.020377358048,-0.0130656842836,0.0121120721354,0.999727300677,-3.75404214196e-05,0.0219000520373,0.00810620703427,0.00205873453672,-0.0114245787774,-0.0015821473073,0.0,0.0,0.0
1609059636265278101,134,1609059636265278101,-0.0199867466384,-0.0138265553466,0.012437584577,0.999727205143,-2.73062668413e-05,0.0219105549574,0.00808963124231,-0.00100538778997,-0.0163051318562,0.000578442046053,0.0,0.0,0.0
1609059636465243101,135,1609059636465243101,-0.0206339732323,-0.014300269896,0.0124522986967,0.999726962351,-3.64983560183e-05,0.0219214860692,0.00808998546497,-0.00263655678512,-0.0149239912192,0.00130514046714,0.0,0.0,0.0
1609059636665316105,136,1609059636665316105,-0.0201191793696,-0.0154553007448,0.0127137815153,0.999727059984,-7.4202775107e-06,0.0219180509447,0.00808730632825,0.00865368696258,-0.00580161383091,0.00411733489405,0.0,0.0,0.0
1609059636865418911,137,1609059636865418911,-0.0192558499781,-0.0151742257026,0.0130344797588,0.999727975398,-4.32606854795e-06,0.0218755863781,0.00808912287864,0.0100118866071,0.000584059023586,0.00382262767781,0.0,0.0,0.0
1609059637065546989,138,1609059637065546989,-0.0172295542649,-0.013843885165,0.0140406636518,0.999728391614,-1.35044720136e-05,0.021856458944,0.00808937704478,0.0164156223382,0.00869317283744,0.0081316198875,0.0,0.0,0.0
1609059637265659094,139,1609059637265659094,-0.016736056221,-0.0134449724941,0.0145440145122,0.99972849398,-1.04656596418e-05,0.0218450557474,0.00810751219996,0.00814186986614,0.0052333864022,0.0043695657567,0.0,0.0,0.0
1609059637465610981,140,1609059637465610981,-0.0131172298864,-0.0104525845091,0.0157478689135,0.999728778304,-1.22734475794e-05,0.0218065193965,0.00817590309701,0.0221006687498,0.0178055614247,0.0090652017251,0.0,0.0,0.0
1609059637665654898,141,1609059637665654898,-0.0121744673171,-0.00965975923004,0.0161394671707,0.999728762425,-2.48456059806e-05,0.0218102553443,0.00816784696944,0.0238873624564,0.0216453052017,0.0104225454721,0.0,0.0,0.0
1609059637865695000,142,1609059637865695000,-0.0134550620098,-0.00977048542599,0.0158092395497,0.999729935396,-5.60091609706e-05,0.0217656176562,0.00814315807868,0.0147532514293,0.0151814052671,0.00726577883467,0.0,0.0,0.0
1609059638065747976,143,1609059638065747976,-0.0139778265269,-0.00934230858637,0.0156232429395,0.999729077266,-3.15264432737e-05,0.0217889639149,0.00818609344213,0.00506705174262,0.00620536329192,0.00273205346917,0.0,0.0,0.0
1609059638265803099,144,1609059638265803099,-0.0155335061529,-0.00992206662077,0.014566740303,0.999729028598,-4.69236175812e-05,0.0218002199987,0.00816195964034,-0.0126150691759,-0.00694383282256,-0.0046867311688,0.0,0.0,0.0
1609059638466011047,145,1609059638466011047,-0.0204464114012,-0.0123282647049,0.0124636816344,0.999727671504,-5.82875379865e-05,0.0218727535422,0.00813400787179,-0.0390324599106,-0.025020404048,-0.0133728544068,0.0,0.0,0.0
1609059638665913105,146,1609059638665913105,-0.0244659193716,-0.0147337679289,0.0107229089749,0.999726600651,-2.60888517618e-05,0.021926924269,0.00811992994479,-0.037818193583,-0.0244134183835,-0.0128051729879,0.0,0.0,0.0
1609059638866059065,147,1609059638866059065,-0.0285760313224,-0.0175867494532,0.00900735831722,0.999726338747,-2.6071539873e-07,0.0219470973734,0.0080976868269,-0.0323491736478,-0.0190078670763,-0.0104080027129,0.0,0.0,0.0
1609059639066133976,148,1609059639066133976,-0.0302536297761,-0.0190110104872,0.00792467225793,0.999725435152,2.72913827402e-05,0.0219946846737,0.00808006260073,-0.0234257454636,-0.0121773232073,-0.00827906358278,0.0,0.0,0.0
1609059639266146898,149,1609059639266146898,-0.0341946409682,-0.0192572396799,0.00604574832672,0.999725020446,2.3070979239e-05,0.0220151300475,0.0080757049407,-0.0116905126874,-0.00487296277602,-0.00384520677472,0.0,0.0,0.0
1609059639466264963,150,1609059639466264963,-0.0333194097747,-0.0170657368485,0.00628585745973,0.999724416056,2.88720476281e-06,0.0220445281324,0.00807036006589,-0.00823570664482,-0.000919510262135,-0.00423466263414,0.0,0.0,0.0
1609059639666409969,151,1609059639666409969,-0.028528402528,-0.0159388888885,0.00762386785868,0.999725217122,-1.67621416733e-05,0.0220019415904,0.00808730710357,-0.0190924309035,-0.00685702816761,-0.00851330680636,0.0,0.0,0.0
1609059639866364002,152,1609059639866364002,-0.0271657574213,-0.0154452542253,0.00780457490743,0.999725395211,-2.86046221393e-05,0.0219948848531,0.00808445375818,-0.0196374983914,-0.00538076709784,-0.00804310203361,0.0,0.0,0.0
1609059640066421986,153,1609059640066421986,-0.0276342452302,-0.014795311477,0.00734067745582,0.999725218967,-4.32350626588e-05,0.0220115622224,0.00806075800714,-0.0214016033892,-0.00698331886067,-0.00825109113157,0.0,0.0,0.0
1609059640266469955,154,1609059640266469955,-0.0258278582864,-0.0152288176685,0.00768828217231,0.999725772514,-4.09707841083e-05,0.0219863106047,0.0080610320612,-0.0236248659332,-0.0134858766729,-0.0087692517934,0.0,0.0,0.0
1609059640466555119,155,1609059640466555119,-0.0252562462363,-0.0155928615709,0.00840114963307,0.999726373335,-2.99494988835e-05,0.0219597600076,0.00805893925616,-0.0172097243641,-0.015326939295,-0.00562776673166,0.0,0.0,0.0
1609059640666640997,156,1609059640666640997,-0.0239001317488,-0.0153981600824,0.00929119356394,0.999727270292,-4.7078552968e-05,0.021919351265,0.0080575963636,-0.0113978252481,-0.0116497405365,-0.00269945406861,0.0,0.0,0.0
1609059640866605043,157,1609059640866605043,-0.0234998233852,-0.0154592836801,0.0102593933951,0.999727763818,-5.48687887728e-05,0.0218924920938,0.0080693265255,-0.0111975433688,-0.0122377136821,-0.00286035818471,0.0,0.0,0.0
1609059641066683054,158,1609059641066683054,-0.0218644662691,-0.0147738900018,0.0109647013662,0.99972804244,-2.64084456637e-05,0.0218705313047,0.00809446237563,0.00324121687193,-0.00177712539358,0.0018969533029,0.0,0.0,0.0
1609059641266757965,159,1609059641266757965,-0.0214310311208,-0.0144000194408,0.0110800525687,0.999728222368,-6.0065074241e-05,0.0218702592511,0.00807276611874,-0.012879511302,-0.00673361671379,-0.00530685420778,0.0,0.0,0.0
1609059641466864109,160,1609059641466864109,-0.0201222523301,-0.0132060592496,0.0116502400318,0.999728258203,-7.17939860363e-05,0.0218715669659,0.00806468562557,-0.00325258051139,0.00331756931971,2.40278952624e-05,0.0,0.0,0.0
1609059641666941881,161,1609059641666941881,-0.02193602043,-0.0132649180494,0.0106956417659,0.999728183795,-6.83980864128e-05,0.0218775001548,0.00805784310045,-0.0160518324655,-0.00380701765698,-0.00341240048015,0.0,0.0,0.0
1609059641866976023,162,1609059641866976023,-0.0288446795052,-0.017097420826,0.00806428817805,0.999727749757,-2.36715123206e-05,0.0218982870774,0.00805548443271,-0.0214747292672,-0.00776258445269,-0.00767246841712,0.0,0.0,0.0
1609059642066988945,163,1609059642066988945,-0.0299525934292,-0.0167169967599,0.00723131829779,0.999727214181,-2.8814699997e-05,0.0219257355389,0.00804726770283,-0.016801075919,-0.00720168558697,-0.00610397424335,0.0,0.0,0.0
1609059642267060041,164,1609059642267060041,-0.0296544313932,-0.0158735707442,0.00722901422295,0.999726563417,-3.66120938738e-05,0.0219453041278,0.00807469405763,-0.018960202766,-0.00941702431075,-0.00690598467008,0.0,0.0,0.0
1609059642467113018,165,1609059642467113018,-0.0294140463451,-0.0148276769931,0.00715647981192,0.999725924701,-6.6518841274e-05,0.0219715988271,0.00808207281193,-0.0243006311065,-0.012681546186,-0.00902604112272,0.0,0.0,0.0
1609059642667315006,166,1609059642667315006,-0.0294694090745,-0.0152275958014,0.0078329467605,0.999727008017,-7.08634285847e-05,0.0219220438509,0.00808259936009,-0.0114075411417,-0.00424069727126,-0.00646045271385,0.0,0.0,0.0
1609059642867301941,167,1609059642867301941,-0.030545704196,-0.0157953329539,0.0072780024116,0.999727246788,-5.68069993528e-05,0.0219066513987,0.00809490131644,-0.0195651268579,-0.00807777779785,-0.00808564122022,0.0,0.0,0.0
1609059643067315102,168,1609059643067315102,-0.0320189240434,-0.0163357718485,0.00614871017335,0.99972616316,-5.70316995129e-05,0.0219560065589,0.00809501185529,-0.0130880360919,-0.00655579851335,-0.00430105762366,0.0,0.0,0.0
1609059643267394066,169,1609059643267394066,-0.0308804514428,-0.0159498852403,0.00623747569714,0.999726608646,-6.49449439768e-05,0.0219390420787,0.00808592477573,0.00432355519328,0.00367835378232,0.00262161808523,0.0,0.0,0.0
1609059643467416048,170,1609059643467416048,-0.0263754902452,-0.0151612810448,0.00765445785623,0.99972716061,-8.35436725313e-05,0.0219096264992,0.00809726033286,-0.0106384151263,-0.00417605389624,-0.00309448601477,0.0,0.0,0.0
1609059643667541027,171,1609059643667541027,-0.0257491030384,-0.0150273998078,0.00759520578485,0.999727528575,-8.85028744329e-05,0.0219038301628,0.00806740355437,-0.00744757954606,-0.00379360830811,-0.00101965399492,0.0,0.0,0.0
1609059643867543936,172,1609059643867543936,-0.0241490219106,-0.0134914611479,0.00904142063357,0.999727746182,-0.000111526831495,0.0218850771637,0.00809101181851,0.00609050817908,0.00267995872274,0.00440305024017,0.0,0.0,0.0
1609059644067688942,173,1609059644067688942,-0.0230044611344,-0.0133003334239,0.00944002202368,0.999728200187,-0.000116322796339,0.0218674682243,0.00808245340616,0.00305886571978,0.00148774301348,0.00402988416234,0.0,0.0,0.0
1609059644267712116,174,1609059644267712116,-0.0286444783815,-0.0170998992016,0.00733978659503,0.999728256966,-8.49397495425e-05,0.0218712867392,0.00806547115115,-0.0126638777914,-0.00547144842909,-0.00401986321115,0.0,0.0,0.0
1609059644467767954,175,1609059644467767954,-0.0274576817802,-0.0167210903221,0.00792721121658,0.999728581097,-7.43970882473e-05,0.0218539886613,0.0080722848895,0.00152410181809,0.00430071216568,0.00188561092041,0.0,0.0,0.0
1609059644667831898,176,1609059644667831898,-0.0234715125265,-0.0153189453521,0.00918797810537,0.999728713393,-7.8391235597e-05,0.021835983004,0.0081045245885,-0.00661141312496,-0.00216295938808,-0.00270227331362,0.0,0.0,0.0
1609059644867893934,177,1609059644867893934,-0.0237761006411,-0.0145378731198,0.00896258112338,0.999728577138,-8.65769788587e-05,0.0218311939555,0.00813409665334,0.00259399088078,0.00201713591987,0.00155468472063,0.0,0.0,0.0
1609059645067934990,178,1609059645067934990,-0.0278791245784,-0.016404836935,0.00738827029848,0.999727857693,-9.63957583642e-05,0.021877169945,0.00809880826389,-0.0144779624663,-0.00767802506497,-0.00425761159985,0.0,0.0,0.0
1609059645268235922,179,1609059645268235922,-0.0286022266552,-0.0174936219255,0.00679709089514,0.999727692147,-7.86680998222e-05,0.0218839717689,0.00810105827735,-0.0138559473669,-0.00508217438996,-0.00411690717545,0.0,0.0,0.0
1609059645468302965,180,1609059645468302965,-0.0295242853958,-0.0175787717661,0.00668463692541,0.999727601543,-6.68010165625e-05,0.0218825911436,0.00811606153277,-0.0151520877734,-0.00477294128352,-0.00441384080968,0.0,0.0,0.0
1609059645668214083,181,1609059645668214083,-0.0288686473237,-0.0164920519796,0.00732220010395,0.999727634187,-5.99693166399e-05,0.0218650162606,0.00815934497305,-0.00790927287016,-0.00203130205578,-0.00175913557415,0.0,0.0,0.0
1609059645868412018,182,1609059645868412018,-0.0342250330366,-0.0175608509599,0.00566956606298,0.999727337016,-5.27887102161e-05,0.0218824883398,0.00814895944671,-0.0104337228841,-0.00515448021517,-0.00330633333017,0.0,0.0,0.0
1609059646068341970,183,1609059646068341970,-0.030735142772,-0.0180684406394,0.00638058403958,0.999727129966,-3.59234536142e-05,0.0218776915036,0.00818724214224,0.00145455422307,0.00544719992925,0.00179265942223,0.0,0.0,0.0
1609059646268425941,184,1609059646268425941,-0.027857700155,-0.0166566576266,0.00651799737283,0.999727116086,-7.98410878805e-05,0.0218901120234,0.00815536530212,-0.00199443459094,0.00247862512904,-0.000725350241365,0.0,0.0,0.0
1609059646468420982,185,1609059646468420982,-0.0281077410872,-0.0170804644505,0.00594762787588,0.999726751222,-5.97143680741e-05,0.0219124205856,0.00814034083735,-0.00797871304746,-0.00396099717866,-0.00358451439565,0.0,0.0,0.0
1609059646668464899,186,1609059646668464899,-0.0292459277657,-0.0160714737285,0.00651051883793,0.999727348726,-6.97571499312e-05,0.02187599242,0.00816482081541,-0.00134283197792,1.67831063338e-06,0.00108222345382,0.0,0.0,0.0
1609059646868501902,187,1609059646868501902,-0.0308595633474,-0.0161960597588,0.00560087517689,0.999726929792,-8.09734768306e-05,0.0218976216652,0.00815803018766,-0.0107884162148,-0.00424735236231,-0.00357596796334,0.0,0.0,0.0
1609059647069120884,188,1609059647069120884,-0.0280371543446,-0.0159601314314,0.0056240364027,0.999726961308,-7.78031361316e-05,0.0219012807053,0.00814436518523,0.00014680214444,0.00344737450475,0.000759443236585,0.0,0.0,0.0
1609059647268698931,189,1609059647268698931,-0.0282517875411,-0.0154867236299,0.00546071973262,0.999727014242,-8.87357398657e-05,0.0219007707353,0.00813912540118,-0.00967800091317,-0.00253059516191,-0.00348296083071,0.0,0.0,0.0
1609059647469140053,190,1609059647469140053,-0.0273745517861,-0.0157550593123,0.00612868243113,0.999727091927,-8.04934994174e-05,0.0218825976497,0.00817845390998,-0.00265628084264,-0.00115932622666,-4.51023997284e-05,0.0,0.0,0.0
1609059647668828964,191,1609059647668828964,-0.0258843953858,-0.0161428111991,0.00664630869483,0.999727654492,-7.08534366236e-05,0.02185143368,0.00819308667743,-0.00130106212697,-0.000462063651013,0.00247546817461,0.0,0.0,0.0
1609059647869067907,192,1609059647869067907,-0.0257414597378,-0.0154996611707,0.00656812985489,0.999727039126,-7.14912694875e-05,0.0218852782262,0.0081778192166,-0.00478256960375,0.00115258724968,-0.000389188074648,0.0,0.0,0.0
1609059648068932056,193,1609059648068932056,-0.0237816447833,-0.0146490662788,0.00696473383552,0.999727809386,-9.3103004412e-05,0.0218366909641,0.00821324544679,0.00177714149865,0.00636434114152,0.00160191172352,0.0,0.0,0.0
1609059648269376040,194,1609059648269376040,-0.0230843353807,-0.0138259470684,0.00657377627624,0.999727512135,-9.92935969994e-05,0.0218459045251,0.00822484506397,-0.00426517733341,0.00400298928203,-0.00196991221413,0.0,0.0,0.0
1609059648469074965,195,1609059648469074965,-0.0233487535546,-0.0127983127885,0.00660152802005,0.999727267185,-0.000109292347282,0.0218552827602,0.00822957581903,0.000529284333476,0.00674139879115,0.00229672266991,0.0,0.0,0.0
1609059648669079065,196,1609059648669079065,-0.0216086320766,-0.011911494211,0.00655652674129,0.999727615405,-0.000138264981482,0.0218324312524,0.00824747382194,-0.0124481621743,0.00100186925575,-0.0034369212164,0.0,0.0,0.0
1609059648869271994,197,1609059648869271994,-0.0196165406916,-0.00944877259031,0.00685239982566,0.999727255075,-0.000142037003993,0.0218412124904,0.00826781248795,-0.00135249814205,0.00944612075635,0.00113607436582,0.0,0.0,0.0
1609059649069174051,198,1609059649069174051,-0.0187843968515,-0.00733607934782,0.00701545927918,0.999727042234,-0.00016289744188,0.0218321330803,0.00831699794658,0.00272045460267,0.0102018323579,0.00282892644124,0.0,0.0,0.0
1609059649269248962,199,1609059649269248962,-0.0192703893691,-0.00619788889231,0.00620769294106,0.999726390637,-0.00018269252421,0.021872428288,0.00828899076945,-0.00719308612299,0.0068690402151,-0.000625786854575,0.0,0.0,0.0
1609059649469347000,200,1609059649469347000,-0.0183199697444,-0.00544599142764,0.00591276296242,0.999726684124,-0.000205683476996,0.0218483535589,0.00831650112997,-0.00640257430913,0.00457897213801,0.00182618909036,0.0,0.0,0.0
1609059649669372082,201,1609059649669372082,-0.0156206082526,-0.00535868263686,0.00639846287227,0.999726037264,-0.000195878798347,0.0218672783085,0.0083447101762,-0.0051992150907,0.000785813466931,0.000226938805627,0.0,0.0,0.0
1609059649869515896,202,1609059649869515896,-0.0202558042576,-0.00761651352704,0.00264151379889,0.999725413683,-0.000168081208805,0.021888862053,0.00836341452789,-0.00981760787255,-0.00343199529934,-0.0106027580877,0.0,0.0,0.0
1609059650069524050,203,1609059650069524050,-0.0182612813427,-0.00722463381274,0.00378773515243,0.999725471349,-0.000159562684179,0.0218792231328,0.00838188947511,0.0044784084372,0.00338438949439,0.00619605718652,0.0,0.0,0.0
1609059650269594908,204,1609059650269594908,-0.019688596712,-0.00793602565102,0.00177773756582,0.999724683999,-0.000148703632298,0.0219095693169,0.0083967173277,-0.0135947603953,-0.00269647283405,-0.0104798860953,0.0,0.0,0.0
1609059650469727039,205,1609059650469727039,-0.0193318476684,-0.0058412003955,0.00304764203371,0.99972582662,-0.000177099679948,0.0218553376918,0.00840145458119,-0.0094283857568,0.00296982277043,0.00155373583026,0.0,0.0,0.0
1609059650670118093,206,1609059650670118093,-0.0179795719663,-0.00278451434371,0.00599879986033,0.999726408147,-0.000224392900016,0.0218353954049,0.00838295939697,-0.00808017308041,0.00026434349781,-0.000699586494542,0.0,0.0,0.0
1609059650869792938,207,1609059650869792938,-0.0176692537792,-0.00339681752806,0.00625125597733,0.99972682746,-0.000226629516415,0.0218136008229,0.00838963142867,0.00313283524499,6.79029091878e-05,0.00309862071181,0.0,0.0,0.0
1609059651070056915,208,1609059651070056915,-0.0175625497299,-0.00447005526947,0.00603644359247,0.999726732064,-0.000194426867184,0.0218195343224,0.00838637686885,-0.00181375903464,-0.00287283323428,-0.0012128300766,0.0,0.0,0.0
1609059651269915104,209,1609059651269915104,-0.0163857499452,-0.00360859509594,0.00722210530587,0.999727491564,-0.000204291512026,0.0217841407214,0.00838761516916,0.00645647621189,0.00493585522364,0.00658774693989,0.0,0.0,0.0
1609059651470067024,210,1609059651470067024,-0.0169796690384,-0.00334494559989,0.00714163714913,0.999727234841,-0.000217079447228,0.0217877332362,0.00840853579066,0.00022999384077,0.00582976573642,0.00468207783402,0.0,0.0,0.0
1609059651670038939,211,1609059651670038939,-0.0186918998552,-0.0025195244621,0.00650910581222,0.999726987488,-0.000225807258933,0.0218000975879,0.00840566737636,-0.0041466406989,0.00641000082186,0.000546804635571,0.0,0.0,0.0
1609059651870351076,212,1609059651870351076,-0.022627171099,-0.00262128907428,0.00626725788676,0.999727274725,-0.000227481451867,0.0217994461053,0.00837308624556,-0.00421556368283,0.00473073608067,0.000971868154294,0.0,0.0,0.0
1609059652070116997,213,1609059652070116997,-0.0239436859083,-0.00278729809531,0.00649657122999,0.999727300388,-0.000229288720722,0.0217995476379,0.00836970781724,0.00615013619081,0.00535842287401,0.00376966585273,0.0,0.0,0.0
1609059652270224094,214,1609059652270224094,-0.026181577873,-0.00371732677106,0.00613731476633,0.999727933253,-0.000239840219674,0.0217944121522,0.00830695792993,-0.00564315097278,-0.000925002140569,-0.0013519292943,0.0,0.0,0.0
1609059652470278025,215,1609059652470278025,-0.0277002808249,-0.00454867234892,0.00637724463655,0.999728380803,-0.000240662208449,0.0217842573817,0.00827966354814,0.00456282501063,0.00366735174238,0.0031250665436,0.0,0.0,0.0
1609059652670348883,216,1609059652670348883,-0.0296353925334,-0.00573150822897,0.00606965098352,0.999728487882,-0.000221645526732,0.021784004962,0.00826792102819,-0.00222211352635,-1.53053579208e-05,-0.00021562097403,0.0,0.0,0.0
1609059652870786905,217,1609059652870786905,-0.0287742881099,-0.00523561446841,0.00626613375187,0.999728654056,-0.000233375390194,0.0217734919512,0.00827519445426,0.00580687224788,0.00316098988633,0.00430374282164,0.0,0.0,0.0
1609059653070475101,218,1609059653070475101,-0.0297806953633,-0.00617238910753,0.00617359064134,0.999728788708,-0.000232043663149,0.0217776469598,0.00824798628524,-0.00606367003004,-0.00390757663148,-0.00116655441333,0.0,0.0,0.0
1609059653270519018,219,1609059653270519018,-0.0264765056064,-0.00479440574773,0.00635337669627,0.999728770247,-0.000241161671222,0.0217632470497,0.00828787418499,0.00279855988474,0.00040978456598,0.000684238698279,0.0,0.0,0.0
1609059653470647097,220,1609059653470647097,-0.0242955193256,-0.00420087516138,0.00595056056197,0.999728229156,-0.000258234838701,0.0217755766647,0.00832018058426,-0.00036996620415,-0.00219807356021,0.000829030031727,0.0,0.0,0.0
1609059653670639992,221,1609059653670639992,-0.0217188944808,-0.00326671980149,0.00588505603603,0.99972822162,-0.000163449759051,0.0217763478331,0.00832146950922,0.0027409435048,0.00107165524306,0.000149786271172,0.0,0.0,0.0
1609059653870697975,222,1609059653870697975,-0.0144325488735,-0.00331865263803,0.00576437632857,0.999729894933,-0.000133842650428,0.0216602348258,0.00842338947879,0.00326077247415,-0.016321573347,0.00321518224536,0.0,0.0,0.0
1609059654070902109,223,1609059654070902109,-0.0187363608083,-0.00175372686019,0.00658209343625,0.999727412822,-0.000370426880538,0.0217430399446,0.0084972377924,-0.00590276656903,0.00975131993887,0.000192506169119,0.0,0.0,0.0
1609059654270818949,224,1609059654270818949,-0.0183799830279,-0.00102774863697,0.00707469573873,0.999729885716,-0.000142382940069,0.0216617109303,0.00842054703282,0.0115520934748,0.0101910004018,0.00316432443551,0.0,0.0,0.0
1609059654470896959,225,1609059654470896959,-0.0219879721703,-0.00284853979786,0.00664602907034,0.999731911132,-0.000318814021892,0.0215618012667,0.00843166337521,-0.0201202874662,-0.0117146918274,-0.00509019403659,0.0,0.0,0.0
1609059654670964003,226,1609059654670964003,-0.0211888574856,-0.00154118892803,0.00750754061446,0.999733146305,-0.000318266927434,0.0215169079516,0.00839985462054,0.00603424984144,0.00519815699347,0.00233949606407,0.0,0.0,0.0
1609059654871041059,227,1609059654871041059,-0.0199108752894,-0.0011099115205,0.0088383319676,0.999735647423,-0.000230113809296,0.0213775051491,0.00846076781716,0.012892379366,0.00621629996026,0.00926809645857,0.0,0.0,0.0
1609059655071111917,228,1609059655071111917,-0.025472222201,-0.00279021680471,0.00613512715049,0.999734210543,-0.000342334585712,0.021454076419,0.00843289288079,-0.0132554987659,-0.00072737928487,-0.00674751251932,0.0,0.0,0.0
1609059655271184921,229,1609059655271184921,-0.0227803884115,-0.000390698520716,0.00839260614789,0.999737803175,-0.000282054744213,0.0212650025151,0.00848793355457,0.0286080631037,0.0221530194869,0.0136698641159,0.0,0.0,0.0
1609059655471261024,230,1609059655471261024,-0.0282867525904,-0.00350714378012,0.00848169470751,0.999741628357,-0.000297358379662,0.0211780630081,0.00825092445717,-0.0152371863887,-0.0086571667082,-0.00338066108152,0.0,0.0,0.0
1609059655671319008,231,1609059655671319008,-0.021287768935,0.00393799110121,0.0070056659811,0.999747543148,-0.000288518620334,0.0207836493305,0.00853268114541,0.0101544066414,0.00984745279167,0.00406120638305,0.0,0.0,0.0
1609059655871372938,232,1609059655871372938,-0.0219339955224,0.00150781675261,0.00778623299637,0.999737274959,-0.000552334053217,0.0212070323199,0.00867973295604,-0.0163169779779,-0.0100824288,0.00851926820079,0.0,0.0,0.0
1609059656071408987,233,1609059656071408987,-0.0190144092975,0.00211093194823,0.00927011869179,0.999737834389,-0.000135723446694,0.0212593993089,0.00850188286658,0.0397607343378,0.0180134886286,0.0207491685452,0.0,0.0,0.0
1609059656271614075,234,1609059656271614075,-0.00293114898601,0.0113833636767,0.01124053264,0.999786918194,-0.000793073761334,0.018823780393,0.00843531472281,0.0508726398183,-0.0180087154848,0.00282365872614,0.0,0.0,0.0
1609059656471611023,235,1609059656471611023,-0.0152324224298,-0.011651447589,0.0024811005317,0.999810629202,-0.000874279038932,0.0175403281854,0.00838321292525,0.0227713615876,-0.00430636555864,-0.0047359124856,0.0,0.0,0.0
1609059656671607971,236,1609059656671607971,0.0164932846873,0.00409546006657,-0.00115549876685,0.999811266531,-0.00046847918328,0.01781619721,0.00773272018946,0.0411996947296,0.0511489930837,0.0293152820753,0.0,0.0,0.0
1609059656871742010,237,1609059656871742010,-0.0243399552176,0.000705971229596,0.0290225892925,0.999871873548,0.000644249648476,0.0156178068802,0.00345044038868,-0.00991396059743,0.0735373570337,0.234661731631,0.0,0.0,0.0
1609059657071738005,238,1609059657071738005,-0.0136319891789,0.0199916792721,0.0910114180336,0.999838193774,0.00138236266566,0.0172506529751,-0.00490818861964,-0.0430363832,0.0758770476509,0.548038585498,0.0,0.0,0.0
1609059657271807909,239,1609059657271807909,-0.0592022494953,0.0258430435224,0.251384639625,0.999828397954,0.0017515339158,0.0160720595106,-0.00904409621627,-0.0519889309061,0.08212864687,0.934617706779,0.0,0.0,0.0
1609059657471888065,240,1609059657471888065,-0.0705665192353,0.0363889734697,0.47445686703,0.999824810012,0.00206152092381,0.0136354529438,-0.0126559803407,-0.0525644834205,0.0584591660267,1.21070353328,0.0,0.0,0.0
1609059657671941996,241,1609059657671941996,-0.0976934021822,0.0435311295066,0.792679104493,0.999764098886,0.00215823656667,0.0141935341628,-0.0162982263541,-0.0902529958035,0.0277199955539,1.52543362401,0.0,0.0,0.0
1609059657871999025,242,1609059657871999025,-0.110334641461,0.0571601331173,1.23959603307,0.999769271161,0.000624178298381,0.016452853457,-0.0137955955559,-0.0990917044242,-0.00514785083426,1.85371104909,0.0,0.0,0.0
1609059658072103024,243,1609059658072103024,-0.0747514805032,0.0913685947559,1.69765573891,0.999825364164,2.1394153753e-05,0.0166600781666,-0.00846655259846,-0.0285799793914,0.0363645506791,1.97521726147,0.0,0.0,0.0
1609059658272154093,244,1609059658272154093,-0.0527478585624,-0.00449413750365,2.11467211398,0.999802483645,-0.000543138619032,0.0174024144557,-0.00958408409743,-0.00090522251471,-0.101607204707,1.59837689382,0.0,0.0,0.0
1609059658472223997,245,1609059658472223997,-0.168225910088,5.46816631815e-05,2.38919597844,0.999696244211,-0.00055450808462,0.0240315493499,-0.0054402634901,-0.149202767716,-0.0718037630225,1.15137554133,0.0,0.0,0.0
1609059658672255039,246,1609059658672255039,-0.195486157508,0.0306541639825,2.65712567227,0.999477153318,-0.00200269803531,0.0314911966212,-0.0070507965416,-0.203175677185,-0.018893718679,1.00688072576,0.0,0.0,0.0
1609059658872303009,247,1609059658872303009,-0.233164101571,0.185226369587,2.83223304178,0.999300489958,-0.000140631760415,0.0366012498203,-0.00767199481652,-0.287737804149,0.114592045095,1.07061773297,0.0,0.0,0.0
1609059659072360992,248,1609059659072360992,-0.030066102201,0.189069089294,3.07256517425,0.99929771828,-0.000342111004943,0.0354266441456,-0.0122027080976,-0.173705745067,0.0863412069424,1.32338119444,0.0,0.0,0.0
1609059659272480965,249,1609059659272480965,-0.032906335772,-0.0251988428901,3.93419298131,0.999194063096,0.00129807563386,0.0357292392434,-0.01824721173,-0.229998208146,-0.128045888115,1.81978227774,0.0,0.0,0.0
1609059659472470045,250,1609059659472470045,0.0102084289722,-0.0219240086612,3.82697230962,0.999270057334,0.00148152171535,0.033791022768,-0.0177573756078,-0.244395200519,-0.142293882949,1.72625913524,0.0,0.0,0.0
1609059659672590017,251,1609059659672590017,0.0907368472231,-0.105048688052,3.37805349901,0.999461947823,0.000643977585532,0.0282462935047,-0.0166597434044,-0.215186297585,-0.184747491344,1.32966907491,0.0,0.0,0.0
1609059659872634888,252,1609059659872634888,0.182014292279,-0.0383884381055,2.6163270684,0.999758566036,-0.00155502320781,0.0151499794276,-0.0158388655899,-0.115402695089,-0.160262582285,0.389835941733,0.0,0.0,0.0
1609059660072724104,253,1609059660072724104,0.140467559071,-0.031204867358,2.42603327244,0.999937321306,-0.00120927811478,0.00845635971836,-0.00723747786874,-0.0527030231015,-0.164501904007,0.0464129625009,0.0,0.0,0.0
1609059660272739887,254,1609059660272739887,0.118802402383,-0.080205339171,2.4507731333,0.999982137674,-9.84237371578e-05,0.00596748319438,-0.00032216553056,0.00599375976121,-0.158460780645,-0.0683388667809,0.0,0.0,0.0
1609059660472798109,255,1609059660472798109,0.0990764695791,-0.11276504913,2.42962625966,0.999991010523,0.000462815094415,0.00398742644152,-0.00136568897311,0.0702738722513,-0.1403050669,-0.102751838041,0.0,0.0,0.0
1609059660672919035,256,1609059660672919035,0.106286148499,-0.142682233215,2.4104955333,0.999971546938,0.00069627821788,0.00642971479082,-0.0038832046511,0.11226000114,-0.124860129512,-0.0744148338004,0.0,0.0,0.0
1609059660872925043,257,1609059660872925043,0.1304285077,-0.166515654417,2.39788107189,0.999939014907,0.000785688057086,0.0105763139555,-0.00308070515532,0.136126483516,-0.12532984905,-0.0496028909736,0.0,0.0,0.0
1609059661072978020,258,1609059661072978020,0.187261349579,-0.220844003624,2.44094815079,0.999926547187,0.00120326067277,0.0103094587053,-0.00625839082644,0.128059501312,-0.115493911134,-0.0627533116146,0.0,0.0,0.0
1609059661273062944,259,1609059661273062944,0.195604359773,-0.230042477015,2.41001068262,0.999925881705,0.00118675646961,0.00830145214152,-0.00882658467794,0.132598230032,-0.119901194176,-0.0646730190654,0.0,0.0,0.0
1609059661473109961,260,1609059661473109961,0.216954889203,-0.240048107607,2.37916962304,0.999941614028,0.00130740050676,0.00773459887679,-0.00743203999916,0.158838594441,-0.114286380036,-0.0565247247041,0.0,0.0,0.0
1609059661673191071,261,1609059661673191071,0.242889541731,-0.278430677571,2.37915197503,0.99994014121,0.00184312876417,0.00787437088528,-0.00736961026818,0.169787939497,-0.119142046251,-0.0628919434185,0.0,0.0,0.0
1609059661873217106,262,1609059661873217106,0.280584719376,-0.311720111191,2.37366222924,0.99992736923,0.00217931415544,0.0108807199018,-0.00470284894821,0.17772743744,-0.127888464351,-0.0371535992387,0.0,0.0,0.0
1609059662073276997,263,1609059662073276997,0.3156583066,-0.338665734031,2.36372790648,0.99991295466,0.00223529544749,0.0121923725552,-0.00452024443423,0.185637775177,-0.117144741267,-0.0694887277324,0.0,0.0,0.0
1609059662273375034,264,1609059662273375034,0.353998917076,-0.371802271879,2.38523128191,0.999840522048,0.0031198990093,0.0169514045083,-0.00467403326539,0.176207259377,-0.103233014147,0.230796836206,0.0,0.0,0.0
1609059662473411083,265,1609059662473411083,0.378623639107,-0.402527604026,2.45903348747,0.999740240966,0.00311892563925,0.0216023919521,-0.00656197814112,0.144625332715,-0.089346458316,0.434671500351,0.0,0.0,0.0
1609059662673494101,266,1609059662673494101,0.402985438832,-0.43084196247,2.57336822594,0.99971089663,0.00278496257869,0.0223108833842,-0.00852007185371,0.108940879456,-0.0842326384814,0.531253744319,0.0,0.0,0.0
1609059662873569965,267,1609059662873569965,0.411951211622,-0.455237756073,2.69972099113,0.999545603464,0.00255114633409,0.0275684794848,-0.0119187745824,0.0654821697645,-0.10310777299,0.567382082408,0.0,0.0,0.0
1609059663073602915,268,1609059663073602915,0.414343327855,-0.458746703019,2.79570990419,0.999640526821,0.00240040612443,0.0241228454353,-0.011451790932,0.0091492668945,-0.108269260275,0.520443438236,0.0,0.0,0.0
1609059663273710966,269,1609059663273710966,0.406617001126,-0.496622214257,2.91888243161,0.999737746782,0.00292168403909,0.0189092101753,-0.0125834491184,-0.0171076104668,-0.128923961636,0.496727478009,0.0,0.0,0.0
1609059663473771095,270,1609059663473771095,0.412194952742,-0.520781462521,3.01186310781,0.999729607238,0.00285678436103,0.0188813700846,-0.0132681972593,-0.0388118878733,-0.159288421746,0.523691042966,0.0,0.0,0.0
1609059663673798084,271,1609059663673798084,0.386851673417,-0.561073155354,3.11148684791,0.999807155914,0.00266798671005,0.0163198546647,-0.0105922223567,-0.0650116743475,-0.174117565916,0.510310631392,0.0,0.0,0.0
1609059663873905897,272,1609059663873905897,0.37514363525,-0.600279805758,3.21351195763,0.999931118811,0.00262411748343,0.00938215859722,-0.0065457422554,-0.0630222513855,-0.178171178703,0.523767544313,0.0,0.0,0.0
1609059664074069023,273,1609059664074069023,0.366546445029,-0.641890036485,3.32081669291,0.999972276494,0.0027551996542,0.00628670443748,-0.00288660092124,-0.03750470971,-0.170640037764,0.51646292657,0.0,0.0,0.0
1609059664273967981,274,1609059664273967981,0.362591383029,-0.680030024833,3.41304627243,0.99997715093,0.00289654826046,0.00557663737677,-0.00249173455315,-0.00883324996352,-0.148563386073,0.369674574614,0.0,0.0,0.0
1609059664474026918,275,1609059664474026918,0.360047326626,-0.715370600654,3.4660546571,0.999962789971,0.00338056989767,0.00288692684896,-0.00739297462823,0.0283741912061,-0.134188717171,0.134393289398,0.0,0.0,0.0
1609059664674104929,276,1609059664674104929,0.36407877379,-0.7397265932,3.4720430264,0.999947806059,0.00379323565073,0.00298757529864,-0.00900393882054,0.0687926355305,-0.136168257886,0.0109398771233,0.0,0.0,0.0
1609059664874198914,277,1609059664874198914,0.377248793422,-0.766732810941,3.46580383908,0.99994375307,0.004101448723,0.00483973812315,-0.00849975000803,0.105454733161,-0.140368483673,-0.0604283816003,0.0,0.0,0.0
1609059665074254990,278,1609059665074254990,0.395892372552,-0.796236215634,3.45336388095,0.999936778389,0.00424637901844,0.00728326906268,-0.00744052972625,0.131087025496,-0.148636562373,-0.0910293771913,0.0,0.0,0.0
1609059665274328947,279,1609059665274328947,0.419611542523,-0.826981588232,3.44086442737,0.999942242153,0.00440487169834,0.00846520185944,-0.00494467600297,0.147512832346,-0.143439648343,-0.104175438471,0.0,0.0,0.0
1609059665474391937,280,1609059665474391937,0.446321982471,-0.85680025804,3.42600077365,0.999937478212,0.00456445006422,0.00918494915974,-0.0044544552991,0.161830629525,-0.132610584578,-0.104095347086,0.0,0.0,0.0
1609059665674388885,281,1609059665674388885,0.473387641683,-0.890588751818,3.41547521948,0.999943379725,0.00452713340514,0.00892312635251,-0.00362218497817,0.174103978236,-0.116904121506,-0.118880814143,0.0,0.0,0.0
1609059665874602079,282,1609059665874602079,0.505321170107,-0.917610581026,3.39638142532,0.999958724272,0.00443725920081,0.00762257100445,-0.00218103054714,0.189162720505,-0.092962986209,-0.121001242526,0.0,0.0,0.0
