%time,field.header.seq,field.header.stamp,field.pose.pose.position.x,field.pose.pose.position.y,field.pose.pose.position.z,field.pose.pose.orientation.x,field.pose.pose.orientation.y,field.pose.pose.orientation.z,field.pose.pose.orientation.w,field.twist.twist.linear.x,field.twist.twist.linear.y,field.twist.twist.linear.z,field.twist.twist.angular.x,field.twist.twist.angular.y,field.twist.twist.angular.z
1609054403658443928,14,1609054403658443928,-0.00292127769577,-0.000506687472283,0.00027200493352,0.999654048397,0.000130534920689,0.0257097723118,-0.00554744014565,-0.00209988286127,-0.00378263217583,-0.00123705586804,0.0,0.0,0.0
1609054403858561039,15,1609054403858561039,-0.00294549904787,-0.000561922734554,4.63187455931e-05,0.999653087035,8.76048772572e-05,0.0257420679991,-0.00557170004062,-0.00234794861603,-0.00646183036738,-0.00105750155676,0.0,0.0,0.0
1609054404058502913,16,1609054404058502913,-0.00282978473434,-0.000540201744187,-3.78232620565e-05,0.99965333587,7.00700082731e-05,0.0257388941535,-0.00554188604522,-0.00258938547704,-0.00449823632489,-0.00139278496539,0.0,0.0,0.0
1609054404258575916,17,1609054404258575916,-0.00313118492575,0.000275235891512,0.000138190293105,0.999652014121,-6.82511674509e-06,0.0258505970911,-0.00525330824028,-0.00401121369532,-0.00221163687178,-0.00088151285663,0.0,0.0,0.0
1609054404458683014,18,1609054404458683014,-0.00382454328106,-0.0012775729658,-0.000158797636232,0.999651897903,8.8787476459e-05,0.0257768651149,-0.00562390971931,-0.00419555029056,-0.00454451390587,-0.0020297248634,0.0,0.0,0.0
1609054404658726931,19,1609054404658726931,-0.00313541111558,-0.000578180817656,-9.70029568743e-05,0.99965298361,4.86918764139e-05,0.0257450847042,-0.00557679146702,-0.00372190958426,-0.00438197767378,-0.0010399315923,0.0,0.0,0.0
1609054404858803034,20,1609054404858803034,-0.00309005332772,-0.000294546009794,6.73369685361e-05,0.999652858299,2.69388427331e-05,0.0257536146195,-0.00555999127839,-0.00419886105919,-0.00488631024389,-8.32801822119e-05,0.0,0.0,0.0
1609054405058846951,21,1609054405058846951,-0.00358503376921,-2.16414927304e-05,0.000401426490969,0.999652846321,-3.83736378278e-05,0.0258076143006,-0.00530588491356,-0.00452043206536,-0.00427324375535,6.24199698295e-05,0.0,0.0,0.0
1609054405258881092,22,1609054405258881092,-0.00440839075554,-0.00134220382299,0.000166203757812,0.999653285546,6.9374137621e-06,0.0257363848116,-0.0055630158094,-0.00461996392616,-0.00723609941489,-0.00110866108612,0.0,0.0,0.0
1609054405459244967,23,1609054405459244967,-0.00519996374223,-0.00245190224125,0.000665268220658,0.999654090853,2.99044068083e-05,0.0257080889739,-0.00554904561459,-0.00421498941884,-0.00860512030128,-0.000537611311148,0.0,0.0,0.0
1609054405659018040,24,1609054405659018040,-0.00512332924656,-0.00263909937744,0.00114081472459,0.999654809587,5.96586019146e-05,0.0256849505162,-0.00552642992778,-0.00365608163724,-0.00775273186518,0.000538723981221,0.0,0.0,0.0
1609054405859071016,25,1609054405859071016,-0.00526501770343,-0.00147473123649,0.00247741186695,0.99965680309,-2.51833536905e-05,0.0256761348133,-0.00519725923192,-0.0041239178978,-0.0060938319309,0.0028643608428,0.0,0.0,0.0
1609054406059103012,26,1609054406059103012,-0.00689844776179,-0.00397588100414,0.00202942255915,0.999654258459,8.67020511995e-05,0.0257223143394,-0.00545147436924,-0.00579389467238,-0.00894360425226,0.00137857261113,0.0,0.0,0.0
1609054406259155989,27,1609054406259155989,-0.00708837690037,-0.00374044403871,0.00186409281576,0.999654048679,6.56932218804e-05,0.0257456323315,-0.00537968953716,-0.00575808337743,-0.00825851780361,0.000536771437774,0.0,0.0,0.0
1609054406459747076,28,1609054406459747076,-0.00726181546521,-0.0033254567243,0.0016708879252,0.999653940384,4.65919615538e-05,0.0257692224219,-0.00528625387901,-0.00622786295046,-0.00624193894593,0.000445534806302,0.0,0.0,0.0
1609054406660104990,29,1609054406660104990,-0.00674984758909,-0.00152626154622,0.00249493968944,0.999653417372,1.57204792779e-05,0.0258524540833,-0.00496945753384,-0.00575275357479,-0.00180897578265,0.000789656054263,0.0,0.0,0.0
1609054406859587908,30,1609054406859587908,-0.00825786040757,-0.00300534064802,0.0018740207029,0.999653773533,4.86514115323e-05,0.0257937822724,-0.0051972580165,-0.00694109813098,-0.00494439133482,-0.000807659437783,0.0,0.0,0.0
1609054407059380054,31,1609054407059380054,-0.00765746973391,-0.00219651544092,0.00171401060083,0.999653794408,7.72384949733e-05,0.0257948251525,-0.00518771193929,-0.00753429359667,-0.00285596704621,-0.000639694261286,0.0,0.0,0.0
1609054407259452105,32,1609054407259452105,-0.00681347923117,-0.00143445695801,0.00130818419033,0.999652834288,0.000116972383719,0.0258349755177,-0.00517216182417,-0.00732354838159,-0.00279446887348,-0.000546598004541,0.0,0.0,0.0
1609054407459784985,33,1609054407459784985,-0.0073094254043,-0.000431607541816,0.00210634719534,0.999652740915,8.10067659902e-05,0.0258825167281,-0.00494836801268,-0.00739138986185,-0.000673930501504,0.000756259337531,0.0,0.0,0.0
1609054407659578085,34,1609054407659578085,-0.00746205955345,-0.00208934435171,0.00185305224894,0.999654847072,0.000139438109043,0.0257486251833,-0.0052130206208,-0.00645895097271,-0.00534298405885,0.00149790116146,0.0,0.0,0.0
1609054407859690905,35,1609054407859690905,-0.00663489566092,-0.00191428152094,0.00193520550154,0.999653246839,0.000133336328085,0.0258107289837,-0.00521292392669,-0.00563802550045,-0.00481773764934,0.000293367843281,0.0,0.0,0.0
1609054408060009003,36,1609054408060009003,-0.00605268364411,-0.001772385579,0.0019840712665,0.999655261836,0.000122871414156,0.0257399244387,-0.00517674376116,-0.00482134193622,-0.00452889478074,0.000746014496395,0.0,0.0,0.0
1609054408259790897,37,1609054408259790897,-0.00499275771138,0.000275085836947,0.00211016250365,0.999654404023,9.08640029268e-05,0.0258193911029,-0.00494199396607,-0.00477656952854,-0.000401983451484,0.000411885243346,0.0,0.0,0.0
1609054408459878922,38,1609054408459878922,-0.00683962360764,-0.00220546085196,0.00241432645789,0.999653745439,0.000150969116196,0.025790436248,-0.00521726327211,-0.00597042634008,-0.00425635258126,-0.00033865193271,0.0,0.0,0.0
1609054408660144091,39,1609054408660144091,-0.00632733516402,-0.00203240513145,0.00236217266926,0.999655043121,0.000137647887209,0.0257451869523,-0.00519241420086,-0.00518820464878,-0.00483614974676,-0.00103577119675,0.0,0.0,0.0
1609054408859941006,40,1609054408859941006,-0.00615310359697,-0.00180259785848,0.00232637520281,0.999656025215,0.000122016777856,0.0257099494259,-0.00517830712029,-0.00501278420511,-0.00342323385811,-0.000863770185481,0.0,0.0,0.0
1609054409060144901,41,1609054409060144901,-0.00717720803391,-0.00176017447991,0.00294439900174,0.999654384886,6.09906233329e-05,0.0258094400636,-0.00499798572662,-0.00604680127354,-0.00378753239148,-0.00118750865155,0.0,0.0,0.0
1609054409260256052,42,1609054409260256052,-0.0069597617731,-0.00223711913266,0.00244801114783,0.999656910108,6.62098332327e-05,0.0256741791173,-0.00518596333801,-0.00542377677396,-0.00494272570369,-0.00153073250656,0.0,0.0,0.0
1609054409460097075,43,1609054409460097075,-0.00521153653851,-0.00137583183733,0.00221162130251,0.999657956351,8.53474666e-05,0.025635698632,-0.00517435746365,-0.00455450710921,-0.00499772762457,-0.000593334007627,0.0,0.0,0.0
1609054409660192966,44,1609054409660192966,-0.00540186279718,-0.00140047469586,0.00252085695423,0.999657507599,7.01236280603e-05,0.0256522629556,-0.00517918806529,-0.00429113102241,-0.00411593949302,-0.000465621422191,0.0,0.0,0.0
1609054409860430002,45,1609054409860430002,-0.00655175216531,-0.00185920253836,0.0027333980005,0.999658359209,9.12728406059e-05,0.0256141908464,-0.00520286074696,-0.00548857034726,-0.00397945269446,0.000717927415503,0.0,0.0,0.0
1609054410060306072,46,1609054410060306072,-0.00502733653637,0.000572288132266,0.00418999663191,0.999659642594,4.99024598126e-05,0.0256264869801,-0.00488668028495,-0.00522148587681,0.000142873682792,0.00295500488183,0.0,0.0,0.0
1609054410260397911,47,1609054410260397911,-0.0073836080269,-0.00194506286584,0.0031906223037,0.999656144708,0.000139108880157,0.0256952249501,-0.00522765818041,-0.00630862393732,-0.00374849037259,0.00109497740071,0.0,0.0,0.0
1609054410460522890,48,1609054410460522890,-0.00718894237192,-0.00194558526349,0.00339213937481,0.99965857813,0.000127868416936,0.0256107163123,-0.00517706774706,-0.00564125109605,-0.0038105551634,0.00196905883081,0.0,0.0,0.0
1609054410660521984,49,1609054410660521984,-0.00729222863022,-0.00180070112744,0.00364731486663,0.999659182985,0.000129617768631,0.0255966922299,-0.00512936837298,-0.00600144060808,-0.00295468123447,0.0013943622942,0.0,0.0,0.0
1609054410860522032,50,1609054410860522032,-0.00745487524649,-0.00111849582615,0.00407776553955,0.999655974251,8.21768732885e-05,0.0257611601309,-0.00492838919269,-0.00687486912463,-5.18213421871e-05,0.00191883995731,0.0,0.0,0.0
1609054411060657978,51,1609054411060657978,-0.00810379324798,-0.00161430761039,0.0039865625666,0.999659349909,7.99421640156e-05,0.0255934534654,-0.00511398949456,-0.00594749221252,-0.000741724332638,0.00108763262023,0.0,0.0,0.0
1609054411260624886,52,1609054411260624886,-0.00825521618571,-0.00142609676551,0.00391493468738,0.999658466736,0.000111697332163,0.0256168312248,-0.0051686907193,-0.00638691887683,-0.000964047981266,0.00228889330562,0.0,0.0,0.0
1609054411460750103,53,1609054411460750103,-0.00735711029124,-0.00119292701839,0.00341708078042,0.999656608052,0.000123367160476,0.025684043219,-0.00519429324848,-0.00493260043263,-0.00280371315612,0.000752480765907,0.0,0.0,0.0
1609054411660850048,54,1609054411660850048,-0.00731792466608,-0.000394702299779,0.00345701919073,0.999657715075,4.55528374208e-05,0.0256838424907,-0.00497904116466,-0.00646296388414,-0.000239032685981,-0.00014829703826,0.0,0.0,0.0
1609054411860852003,55,1609054411860852003,-0.00789003102265,-0.00186099670053,0.00323346391634,0.999658469422,8.89108374393e-05,0.0256017204925,-0.00524294918962,-0.00727421359395,-0.00305144324512,0.000755914661592,0.0,0.0,0.0
1609054412060889959,56,1609054412060889959,-0.00790026209524,-0.00220090445996,0.0029557937645,0.99965673678,6.93399669309e-05,0.0256601508002,-0.00528776538954,-0.00716213950445,-0.00503501465837,-1.71806658194e-05,0.0,0.0,0.0
1609054412262363911,57,1609054412262363911,-0.00751885923335,-0.00221305790627,0.00281385400457,0.999659245827,2.76885523846e-05,0.0255703835877,-0.00524851868604,-0.0064683027944,-0.00534560192819,-0.000185671378577,0.0,0.0,0.0
1609054412461047888,58,1609054412461047888,-0.00978402272171,-0.00283807481157,0.00360229376329,0.999656460425,-1.31278380253e-05,0.0257171166634,-0.00505874185074,-0.00965287122856,-0.00503091701699,0.00143652997423,0.0,0.0,0.0
1609054412661133051,59,1609054412661133051,-0.0100266808758,-0.00377983405044,0.0036041682471,0.999657301465,-2.84162721068e-06,0.0256482857465,-0.00523880318115,-0.00805322423602,-0.00656090040691,0.000274235810028,0.0,0.0,0.0
1609054412861311913,60,1609054412861311913,-0.00873181529811,-0.00334685551629,0.00379477684447,0.999660606553,1.95549081527e-05,0.0255237536162,-0.00521625584506,-0.00688468303165,-0.00757847941672,0.000693795791477,0.0,0.0,0.0
1609054413061337948,61,1609054413061337948,-0.00781772589761,-0.00267156101857,0.00364679620003,0.999658861458,9.57542055534e-06,0.0256065130489,-0.00514461909213,-0.00641061170827,-0.00598357513833,-9.93852882018e-05,0.0,0.0,0.0
1609054413261322021,62,1609054413261322021,-0.00886105974736,-0.00224195829261,0.00401739069577,0.999657154853,-2.36018017401e-05,0.0257096192008,-0.00495859594219,-0.00737128514582,-0.00416052675284,-0.000195366813301,0.0,0.0,0.0
1609054413461350918,63,1609054413461350918,-0.00922072581609,-0.00302287978282,0.00362750511094,0.999658874806,1.856074056e-05,0.0256096977481,-0.00512611541338,-0.007310259661,-0.00670629608499,0.000379226107517,0.0,0.0,0.0
1609054413661597967,64,1609054413661597967,-0.00908038382249,-0.00235102369004,0.0034597498638,0.999657613962,2.52320378023e-05,0.0256708546849,-0.00506571138654,-0.00806569417441,-0.00507148002832,0.000960843370776,0.0,0.0,0.0
1609054413861932039,65,1609054413861932039,-0.00926847316639,-0.0018860820048,0.00361814767986,0.999657452194,4.28216482178e-05,0.0256849939098,-0.00502568679624,-0.00818410067379,-0.00412674372512,0.000480796670757,0.0,0.0,0.0
1609054414061966896,66,1609054414061966896,-0.0054054143847,0.00153995400505,0.00301167211587,0.999659783742,-7.48628146856e-06,0.0256401470632,-0.00478534959275,-0.00482562726618,-8.61425401737e-06,-0.00119220635179,0.0,0.0,0.0
1609054414261636019,67,1609054414261636019,-0.00583641153597,0.000423673137662,0.00297949712713,0.999660405679,7.05443284686e-05,0.0255687821306,-0.0050304793002,-0.00583311902721,-0.00165542223047,-8.89837868947e-05,0.0,0.0,0.0
1609054414461673021,68,1609054414461673021,-0.00767177165674,-0.00169785035577,0.00369444750261,0.999660784219,0.000116158763691,0.0255392257246,-0.00510401330916,-0.00784183933587,-0.00394363448193,0.000904183263465,0.0,0.0,0.0
1609054414661884069,69,1609054414661884069,-0.00865518846131,-0.00192756858817,0.00427716933057,0.999661363014,9.91121620499e-05,0.0255237383496,-0.00506835813663,-0.00914984520941,-0.00297693962359,0.00247892211028,0.0,0.0,0.0
1609054414862152100,70,1609054414862152100,-0.00970116172573,-0.00169671900646,0.00407285083938,0.999659841513,7.44495698734e-05,0.0256046420474,-0.00495963993279,-0.00947359088862,-0.00143976795557,0.00147889377191,0.0,0.0,0.0
1609054415061965942,71,1609054415061965942,-0.0118986189006,-0.00337168119595,0.00451337332268,0.999661693366,0.00013960038358,0.0254919665329,-0.0051612953641,-0.00932066347894,-0.00425226927305,0.00049084077055,0.0,0.0,0.0
1609054415261903048,72,1609054415261903048,-0.012646695635,-0.00395265368244,0.00453476406915,0.999661595298,0.000146426487077,0.0254931035572,-0.00517446776807,-0.00933458474207,-0.00580598268733,0.00146514619046,0.0,0.0,0.0
1609054415462265968,73,1609054415462265968,-0.0135172352517,-0.00431456029784,0.00481860299912,0.999661660365,0.000103470387812,0.025497609087,-0.00514062465583,-0.00908604406723,-0.0042730891535,0.00119087242978,0.0,0.0,0.0
1609054415662113905,74,1609054415662113905,-0.0140225721406,-0.00487602904158,0.00481736734647,0.999662016324,0.000140219255316,0.0254673628914,-0.00521985488036,-0.00834012561441,-0.00528628811662,0.000325377820957,0.0,0.0,0.0
1609054415862097025,75,1609054415862097025,-0.00969982911097,-0.00105100462997,0.00418218663771,0.999663079017,5.55013915543e-05,0.0254817513209,-0.00494021451203,-0.00607681000373,0.00018228752019,0.000446479132033,0.0,0.0,0.0
1609054416067061901,76,1609054416067061901,-0.0139643014667,-0.00472186267496,0.00465328469224,0.999663132012,0.000137002792073,0.0254242247227,-0.00521656235662,-0.00902843866832,-0.00228419114914,0.000709007922478,0.0,0.0,0.0
1609054416262177944,77,1609054416262177944,-0.011990109809,-0.00347287104592,0.00414244110426,0.999664337164,0.000115885211565,0.0253844508795,-0.00517969372685,-0.00704556927001,-0.00397787973299,-0.000635472175317,0.0,0.0,0.0
1609054416463797092,78,1609054416463797092,-0.0128821147683,-0.00384119111793,0.00463595783409,0.999665164085,0.000102330304576,0.025359394264,-0.00514299184649,-0.00778984512127,-0.00485935980234,0.00116380881349,0.0,0.0,0.0
1609054416662322044,79,1609054416662322044,-0.0116141268581,-0.00313030756576,0.00367143131631,0.999664955442,0.00012089011412,0.0253612128195,-0.00517408254362,-0.00624633234075,-0.00406173540243,-0.00125577244755,0.0,0.0,0.0
1609054416863277912,80,1609054416863277912,-0.0116206398757,-0.00258349597931,0.00360542034431,0.999665348706,5.02818241916e-05,0.0253859297788,-0.0049741971841,-0.00627824118762,-0.00274127329666,-0.00169775558327,0.0,0.0,0.0
1609054417062700987,81,1609054417062700987,-0.0113569960299,-0.00389691408452,0.00361923922454,0.999666695393,8.43773779814e-05,0.0252913095604,-0.00518079756793,-0.00480299304108,-0.00536605621778,-0.00190837864481,0.0,0.0,0.0
1609054417262710094,82,1609054417262710094,-0.0107518604318,-0.0035473164808,0.00325337034892,0.999667894444,4.32155335733e-05,0.0252506583964,-0.00514812589963,-0.00467806731439,-0.00434387987289,-0.00229305334319,0.0,0.0,0.0
1609054417462733030,83,1609054417462733030,-0.0138894833032,-0.00539764955772,0.00368001274477,0.99966888097,2.39992570636e-05,0.0252149579702,-0.00513164091545,-0.00669322774441,-0.00577846379122,-0.00206536214123,0.0,0.0,0.0
1609054417662758112,84,1609054417662758112,-0.0100452257116,-0.00417656287947,0.00357567642609,0.999670263224,6.52063702539e-05,0.0251582997853,-0.00514008995222,-0.0031867155291,-0.00478045897285,-0.000977640899091,0.0,0.0,0.0
1609054417862710953,85,1609054417862710953,-0.0103957353901,-0.00223552213462,0.00408578375549,0.999670099658,-3.65047667238e-05,0.0252166576052,-0.00487962046993,-0.00466278576243,-0.00165544712373,-0.000824156694659,0.0,0.0,0.0
1609054418062732935,86,1609054418062732935,-0.00871377262491,-0.0036039825785,0.00423618665838,0.999673209375,8.91853822055e-05,0.0250400566959,-0.00514412906084,-0.00178957594058,-0.00444866659866,-0.000489737968438,0.0,0.0,0.0
1609054418262821913,87,1609054418262821913,-0.00720295949625,-0.00251246850856,0.00425606065459,0.999674304708,5.33374947586e-05,0.0250110808171,-0.00507222818618,-0.000246607614133,-0.004521165016,-0.000473363440084,0.0,0.0,0.0
1609054418463040113,88,1609054418463040113,-0.00593996050055,-0.00170405778295,0.00412298665333,0.999674916793,3.52627035244e-05,0.0249948518049,-0.00503158760721,0.000689709130419,-0.00268592615364,-0.000299692621804,0.0,0.0,0.0
1609054418662919998,89,1609054418662919998,-0.0059632281438,-0.00210620806853,0.00439435722037,0.999676655398,5.24950857437e-05,0.0249242408591,-0.0050362796932,-0.00016285563329,-0.00317145392169,2.28074074482e-05,0.0,0.0,0.0
1609054418862976074,90,1609054418862976074,-0.00665999164342,-0.00140318674231,0.00487087090603,0.999674810864,-7.29500343992e-06,0.0250491398679,-0.00477630210782,-0.00178990618714,-0.000954255994426,0.000339333259226,0.0,0.0,0.0
1609054419063091993,91,1609054419063091993,-0.00611198546569,-0.00189573199171,0.00440862161986,0.999678027977,-8.61856252571e-06,0.024883673736,-0.00496418050726,-0.000180311630155,-0.00282024060515,-0.000948457723075,0.0,0.0,0.0
1609054419263195038,92,1609054419263195038,-0.00602924285509,-0.00160101365398,0.00420966324795,0.999678654451,-4.05537688909e-05,0.0248653613543,-0.00492950255981,-0.000997366678277,-0.00302574996457,-0.00184688840422,0.0,0.0,0.0
1609054419463171005,93,1609054419463171005,-0.00593400295241,-0.001382857412,0.00425147831132,0.999678718822,-5.64617741896e-05,0.0248755396688,-0.00486451146768,-0.00117707149942,-0.00298549273347,-0.00103374915736,0.0,0.0,0.0
1609054419663187981,94,1609054419663187981,-0.00557477801559,-0.000976048087347,0.00413989270115,0.999678341481,-9.44662043765e-05,0.0249205662387,-0.00470850590755,-0.00151865007941,-0.000903752330158,-0.00173232401368,0.0,0.0,0.0
1609054419863240004,95,1609054419863240004,-0.00555603289469,-0.00119792976569,0.00425646316235,0.999680510976,-5.62196400376e-05,0.0247937979904,-0.00491328770936,-0.00179784406116,-0.00137607657068,-0.00154172323153,0.0,0.0,0.0
1609054420063318968,96,1609054420063318968,-0.00506901828655,-0.00112520003619,0.00446327026914,0.999681340083,-6.57244636974e-05,0.0247700917491,-0.00486379728643,-0.00119889838442,-0.0008949950658,-0.00127331803486,0.0,0.0,0.0
1609054420263439894,97,1609054420263439894,-0.00454532665845,-0.000767007138915,0.00444490035359,0.999682445767,-9.41855438968e-05,0.0247331234145,-0.00482403990334,-0.000903470602409,0.000300888274756,-0.00158253884658,0.0,0.0,0.0
1609054420463475943,98,1609054420463475943,-0.00452885071058,-0.00104829337928,0.00439258103475,0.999683058379,-9.61335725328e-05,0.0247015568921,-0.00485866594027,-0.00141452812894,-0.00115191742695,-0.00161491569012,0.0,0.0,0.0
1609054420663518906,99,1609054420663518906,-0.00484400564279,-0.000798289003599,0.00417285791041,0.999681809588,-0.000109485745569,0.0247935034339,-0.00464217392589,-0.00266854223343,6.88918365462e-05,-0.00227084475986,0.0,0.0,0.0
1609054420863768101,100,1609054420863768101,-0.00450897091436,-0.000950676633186,0.00454282736502,0.999685616321,-0.000132003136086,0.0246038995968,-0.0048269267248,-0.00100189064518,-0.00182892321362,-0.00145542945733,0.0,0.0,0.0
1609054421063713074,101,1609054421063713074,-0.00441046571429,-0.000896661043343,0.00464762695779,0.999684754174,-0.000123404577602,0.024631153377,-0.0048665517283,-0.000426153984422,-0.0018457907193,-0.00179617059046,0.0,0.0,0.0
1609054421263701916,102,1609054421263701916,-0.00411226493673,-0.000986079838077,0.00481635876299,0.999685391101,-0.000128065066665,0.0246147212633,-0.00481849731992,0.000368858959075,-0.00169071453508,-0.000296956721072,0.0,0.0,0.0
1609054421463802099,103,1609054421463802099,-0.00409689988433,-0.000913027855747,0.00483454742386,0.999686110002,-0.000147120215975,0.0245769945929,-0.0048611893308,-0.000113711287339,-0.000610985038589,-0.000490662110127,0.0,0.0,0.0
1609054421663810015,104,1609054421663810015,-0.0039701290155,-0.000751476423305,0.00483385988935,0.999684685607,-0.000153206042556,0.0246780196476,-0.00463694269676,-0.000329972490439,-0.00058736644949,-0.00164524681502,0.0,0.0,0.0
1609054421863928080,105,1609054421863928080,-0.00395647088689,-0.000892410563534,0.00482403439348,0.999685552706,-0.000119671654271,0.0245994267206,-0.00486308480207,0.00016536078878,-0.00201802955752,-0.00214722671273,0.0,0.0,0.0
1609054422063961983,106,1609054422063961983,-0.00413043392426,-0.00101254308116,0.00473571482357,0.999685991118,-0.000119253950704,0.0245899947575,-0.00482048739586,-0.000331592966689,-0.00210756107017,-0.00282556934043,0.0,0.0,0.0
1609054422264002085,107,1609054422264002085,-0.00420796565507,-0.00113475451763,0.00449125391898,0.99968532673,-9.98870803226e-05,0.0246244575947,-0.00478263847965,-0.000276990044642,-0.00226584233002,-0.00302938864843,0.0,0.0,0.0
1609054422464056015,108,1609054422464056015,-0.00429287435963,-0.00131443351212,0.00440254268546,0.999685537397,-6.83180709387e-05,0.0246161510677,-0.00478192001361,-0.000397978966227,-0.00316508171102,-0.00148255804573,0.0,0.0,0.0
1609054422665016890,109,1609054422665016890,-0.00444686708738,-0.00137157768242,0.00430999632712,0.999687139579,-5.61292219403e-05,0.0245614299176,-0.00472820998519,-0.00120173978538,-0.00186422767886,-0.000915704054566,0.0,0.0,0.0
1609054422864147902,110,1609054422864147902,-0.00450715195084,-0.00134225002971,0.00433478486811,0.999687952799,-2.60859794146e-05,0.0245287875799,-0.00472598426406,-0.00092949171958,-0.00180489892043,-0.00112418292929,0.0,0.0,0.0
1609054423064270973,111,1609054423064270973,-0.00463914198726,-0.00140386505591,0.00430974170262,0.999689451707,-4.5985635736e-06,0.0244727508199,-0.00469942468868,-0.0012654744575,-0.00165814345388,-0.000643875668699,0.0,0.0,0.0
1609054423264295101,112,1609054423264295101,-0.00475974081198,-0.000937421832306,0.00440376384944,0.999689561885,5.51097749961e-07,0.0245082086751,-0.00448637561209,-0.000899771123859,1.26151874387e-05,-0.00129054166997,0.0,0.0,0.0
1609054423464392900,113,1609054423464392900,-0.00541882508421,-0.00126742325486,0.00377754771517,0.999688884372,-2.60564535699e-05,0.0244918935788,-0.00472026824378,-0.00104508708419,-0.00125614943822,-0.0014748590227,0.0,0.0,0.0
1609054423664392948,114,1609054423664392948,-0.00476963700558,-0.00158497319628,0.00418328949263,0.99969011369,0.000133726477712,0.0244560610405,-0.00464325176657,-0.000635171441226,-0.00189815368865,-0.00128966539834,0.0,0.0,0.0
1609054423864517927,115,1609054423864517927,-0.00474451310342,-0.0016951903896,0.00424746833063,0.999690486867,0.000172921768969,0.0244395430092,-0.0046485808659,-0.00108731455969,-0.00129628796762,-0.00101162260824,0.0,0.0,0.0
1609054424064721107,116,1609054424064721107,-0.00487249761198,-0.0017420011375,0.00415327262506,0.999690505131,0.000194495513256,0.0244424910954,-0.0046282558322,-0.00120769573562,-0.00162582738805,-0.00127641547225,0.0,0.0,0.0
1609054424264561892,117,1609054424264561892,-0.0048165866558,-0.00175031841282,0.00416760145342,0.999691397398,0.000197193637378,0.0244131929757,-0.00458989024194,-0.000997356675334,-0.00106214579613,-0.00130634199014,0.0,0.0,0.0
1609054424465823889,118,1609054424465823889,-0.00485089146403,-0.00179314262284,0.0040792552533,0.999691279244,0.000228439758471,0.0244099762681,-0.004631098971,-0.000844809134974,3.7224935686e-05,-0.00118703031912,0.0,0.0,0.0
1609054424664661884,119,1609054424664661884,-0.0050193601063,-0.00182130361235,0.00384846377028,0.999692627572,0.000184063479095,0.0243596632199,-0.0046068759542,-0.000836671393553,-0.000513685744258,-0.0011975950894,0.0,0.0,0.0
1609054424865349054,120,1609054424865349054,-0.00518326368005,-0.00190705033574,0.00374312435028,0.999694443807,0.000199640291265,0.0242922131235,-0.00456810091513,-0.00140286069919,-0.000556287940703,-0.00125178084316,0.0,0.0,0.0
1609054425065236092,121,1609054425065236092,-0.00511478835058,-0.00190867215455,0.00384691815913,0.999696406551,0.000207166712486,0.0242230643712,-0.00450499324873,-0.000841579444068,-0.000535507722796,-0.000628977494555,0.0,0.0,0.0
1609054425264885902,122,1609054425264885902,-0.00527326271778,-0.0019253981294,0.00364366680442,0.999697032893,0.000196657482865,0.0241934350932,-0.00452564346981,-0.000976403452877,-0.000469463372442,-0.00039130946923,0.0,0.0,0.0
1609054425464970112,123,1609054425464970112,-0.00529434219104,-0.00196756291114,0.00359801116126,0.999699010207,0.000205655976127,0.0241151835569,-0.00450606471225,-0.000944951143379,-0.00047939773772,-0.000855833918382,0.0,0.0,0.0
1609054425664959908,124,1609054425664959908,-0.0053402156366,-0.00201665959946,0.00351126305606,0.999700021855,0.000207338973555,0.0240786852768,-0.0044766314103,-0.00111159861891,-0.0010181118127,-0.00131212197811,0.0,0.0,0.0
1609054425865573883,125,1609054425865573883,-0.00530759801469,-0.00205677696211,0.0035182280639,0.999702097161,0.000222870775901,0.0239995195001,-0.00443737818137,-0.000850571438432,-0.00105982055878,-0.000959216798515,0.0,0.0,0.0
1609054426065154076,126,1609054426065154076,-0.00512120009415,-0.00200911719134,0.00377243765758,0.999704769809,0.000254515103839,0.0239030871017,-0.00435325970095,-0.000593710866809,-0.00116560867858,-0.000668721279284,0.0,0.0,0.0
1609054426265245914,127,1609054426265245914,-0.00524044290093,-0.00208306039028,0.00362816608924,0.999705528184,0.000242174555652,0.0238746530436,-0.00433580571994,-0.00114473167039,-0.0013070205374,-0.000378009710689,0.0,0.0,0.0
1609054426465260983,128,1609054426465260983,-0.00530965626991,-0.00213998382979,0.00351801936477,0.999707751301,0.00025942049077,0.0237861406283,-0.00430861979456,-0.000629708829986,-0.00113754132807,-0.00018834361134,0.0,0.0,0.0
1609054426665251970,129,1609054426665251970,-0.0052758170006,-0.00215066493528,0.00360614727305,0.999710407636,0.000272831734712,0.023685745155,-0.00424404337145,-0.000845236884334,-0.00135539492382,0.000317555658593,0.0,0.0,0.0
1609054426865379095,130,1609054426865379095,-0.00529567504948,-0.00219554252008,0.00369573061518,0.999709907276,0.0004295288652,0.0237144001753,-0.00418855862081,-0.000434654064788,-0.00126211435295,-0.00134967957071,0.0,0.0,0.0
1609054427065905094,131,1609054427065905094,-0.00537291848815,-0.00230062152765,0.00346513005912,0.999712133477,0.000422009081539,0.0236266332924,-0.00415382798831,-0.000861785976774,-0.00142155797105,-0.00223926509292,0.0,0.0,0.0
1609054427265445948,132,1609054427265445948,-0.00540866318101,-0.00226036610752,0.00347252128026,0.99971342922,0.000416480379815,0.0235736549944,-0.00414352154944,-0.00191194440655,-0.000942135522377,-0.00120999472328,0.0,0.0,0.0
1609054427465537071,133,1609054427465537071,-0.00543718380054,-0.00228975670028,0.0035791859992,0.999714363723,0.000460812945469,0.0235395986878,-0.00410681276138,-0.00136583852558,-0.000870896036278,-0.00116672684862,0.0,0.0,0.0
1609054427665561914,134,1609054427665561914,-0.00542405974856,-0.00228136182282,0.00367911795591,0.999716926154,0.00047941045504,0.0234389218048,-0.00405643584548,-0.000975962352799,-0.00103340457344,-0.000364511391283,0.0,0.0,0.0
1609054427865613937,135,1609054427865613937,-0.00561253373037,-0.00243479263985,0.0034578949926,0.999717298497,0.000478063533681,0.0234287705898,-0.00402333807995,-0.00126571138146,-0.00133164268748,-0.00100866868579,0.0,0.0,0.0
1609054428065754890,136,1609054428065754890,-0.00587090678929,-0.00263005429237,0.00312956821193,0.999717407817,0.000434187409514,0.0234311407128,-0.00398718360813,-0.000988798458,0.000305605728009,-0.00220029863846,0.0,0.0,0.0
1609054428265629053,137,1609054428265629053,-0.00591802901472,-0.0025926597601,0.0028599327466,0.999719107762,0.000458918177683,0.0233572251389,-0.00399186715056,-0.00111537118018,0.000620938245221,-0.00234469928755,0.0,0.0,0.0
1609054428465787888,138,1609054428465787888,-0.00599926790489,-0.00259291550628,0.00273549205003,0.999719860941,0.000457414735103,0.0233311369835,-0.00395581340371,-0.00173498589077,0.000426017787187,-0.00221098751921,0.0,0.0,0.0
1609054428665883064,139,1609054428665883064,-0.00628288822772,-0.00267037079327,0.0023088892747,0.999722234634,0.000392173144388,0.0232393839676,-0.0039026671387,-0.00245962617442,0.000572572589836,-0.00300199700245,0.0,0.0,0.0
1609054428865900040,140,1609054428865900040,-0.00643942822511,-0.00282897088135,0.00198567698978,0.999725006444,0.000329226443998,0.0231268571476,-0.00386672709404,-0.00261060305423,0.000830677760956,-0.00289659587661,0.0,0.0,0.0
1609054429065979958,141,1609054429065979958,-0.00596230737249,-0.00259007997779,0.00226551689149,0.999726065927,0.000501153377365,0.0231260074641,-0.00356787475513,-0.000985348690596,0.000221781914078,-0.000133216745013,0.0,0.0,0.0
1609054429266180038,142,1609054429266180038,-0.00686437255349,-0.00353526400538,0.00197793371947,0.999727507812,0.00054172861857,0.0230289177375,-0.00377962991903,-0.000840059271564,-0.0018424800927,-0.000890499364386,0.0,0.0,0.0
1609054429466082096,143,1609054429466082096,-0.00724121791765,-0.00362739544096,0.00144411522915,0.999729742961,0.000576254879399,0.0229444103697,-0.00369634972566,-0.00159296885334,-0.000132246431838,-0.00129420853578,0.0,0.0,0.0
1609054429666182995,144,1609054429666182995,-0.0077887903761,-0.00387605661422,0.000909265335446,0.999727871251,0.000761518750455,0.0230244731263,-0.00367112651251,-0.00247289910297,-0.000727551199519,-0.00176465833604,0.0,0.0,0.0
1609054429866219044,145,1609054429866219044,-0.00809989667665,-0.00387572939529,0.000225653792574,0.999728062892,0.000745763065302,0.0230552520871,-0.00342044662198,-0.00310197735463,0.000390136786028,-0.00268116782596,0.0,0.0,0.0
1609054430066286087,146,1609054430066286087,-0.00816890734226,-0.00413133687962,0.000456417231857,0.999733636432,0.000796545054684,0.0227912098454,-0.00354717567064,-0.00316059616754,-0.00100456963636,-0.00113450670397,0.0,0.0,0.0
1609054430266369104,147,1609054430266369104,-0.0086724198951,-0.00449605201483,2.81482284681e-05,0.99973217514,0.000802372527371,0.0228719109325,-0.0034365502688,-0.00385367900052,-0.0022940162544,-0.000241372660674,0.0,0.0,0.0
1609054430466588974,148,1609054430466588974,-0.00869926958968,-0.00459329635309,-1.97424878957e-05,0.999734897891,0.000815676024636,0.0227657095298,-0.00334530719272,-0.00322263893235,-0.00194691114132,-0.00131995905003,0.0,0.0,0.0
1609054430666448116,149,1609054430666448116,-0.00870088406515,-0.00457862206012,-6.40208962508e-05,0.999739730718,0.000828396339139,0.0225649752146,-0.00325675863985,-0.00322111242703,-0.00158450061575,-0.00172066940908,0.0,0.0,0.0
1609054430866507053,150,1609054430866507053,-0.0087300318388,-0.00469941476797,-4.67663135912e-05,0.99974107635,0.000830222265282,0.0225171268279,-0.00317332459999,-0.00301224321309,-0.00221645558713,-0.00150853973425,0.0,0.0,0.0
1609054431066626072,151,1609054431066626072,-0.00874554078898,-0.00473718282864,-8.49544789627e-05,0.999743357567,0.00080024476674,0.0224285254588,-0.00308866551919,-0.00252323036543,-0.00120566182488,-0.00208820923992,0.0,0.0,0.0
1609054431266633034,152,1609054431266633034,-0.00833344050426,-0.00438881915335,0.000324987497795,0.999747347604,0.000690490455394,0.0222634957805,-0.00301677595441,-0.00286996849628,-0.00187705941247,-0.00134784992049,0.0,0.0,0.0
1609054431466758966,153,1609054431466758966,-0.00889557248738,-0.0048699132154,-0.000173023616462,0.999747049895,0.000774150499286,0.02228924033,-0.00290287486787,-0.00295185562422,-0.0025133483065,-0.00202614366018,0.0,0.0,0.0
1609054431667362928,154,1609054431667362928,-0.00892036796726,-0.00493011652419,-0.000238012044082,0.999749543675,0.000783862217765,0.0221906863604,-0.00279444448202,-0.00223100216987,-0.00185410290722,-0.00224611186886,0.0,0.0,0.0
1609054431866812944,155,1609054431866812944,-0.00930116685567,-0.00504733941118,-0.000696572029519,0.99975059795,0.000752898846677,0.0221556240834,-0.00270247358626,-0.00306494255941,-0.000933911108575,-0.00204672982075,0.0,0.0,0.0
1609054432066875935,156,1609054432066875935,-0.00962233259465,-0.0057562971283,-0.000859455769138,0.999750790742,0.000773058834085,0.0221511583713,-0.00266176150786,-0.00262673989116,-0.00276052842597,-0.00241327347143,0.0,0.0,0.0
1609054432266983986,157,1609054432266983986,-0.0099539883047,-0.00589794922242,-0.00144168716439,0.999752151489,0.000760829635674,0.0221230898122,-0.00237184088109,-0.00324889563882,-0.000309537593017,-0.00370366548386,0.0,0.0,0.0
1609054432467041016,158,1609054432467041016,-0.0101537706102,-0.00608081971807,-0.00142768572692,0.999755739743,0.000771082433272,0.021946262071,-0.00249556900206,-0.00328240354707,-0.00125738955929,-0.00335314374472,0.0,0.0,0.0
1609054432667089939,159,1609054432667089939,-0.0105467495965,-0.00644423162004,-0.00169866724622,0.999755059997,0.00079448458059,0.021981199537,-0.00245268673712,-0.00303882692321,-0.00119541859469,-0.00200092924677,0.0,0.0,0.0
1609054432867105007,160,1609054432867105007,-0.0107161291626,-0.00665033289624,-0.00176512526975,0.999758883252,0.000812719136674,0.0218174130733,-0.00234847463027,-0.00280584581985,-0.00222450975713,-0.00244190766987,0.0,0.0,0.0
1609054433067244053,161,1609054433067244053,-0.0107794207534,-0.00672794357905,-0.00184893556195,0.999760590112,0.00083793265262,0.0217464897716,-0.00226947364055,-0.00261699623476,-0.00145579549592,-0.00145689914698,0.0,0.0,0.0
1609054433267209053,162,1609054433267209053,-0.010599162857,-0.00661841254994,-0.0017096347914,0.999761781986,0.000806154757253,0.0217056731844,-0.00214316255331,-0.00129346370442,-0.00152313221734,-0.00113212898274,0.0,0.0,0.0
1609054433467355013,163,1609054433467355013,-0.0103585242428,-0.00644780884284,-0.00160747661722,0.999764656566,0.000820398458303,0.0215829602434,-0.0020332868464,-0.00117844473363,-0.000629586724548,-0.00102943404226,0.0,0.0,0.0
1609054433667381048,164,1609054433667381048,-0.0102783401569,-0.00631107583298,-0.00156979178637,0.999766268378,0.000817858347391,0.0215171927609,-0.00193652718584,-0.00120630196472,-0.000193990268873,-0.00190062817042,0.0,0.0,0.0
1609054433867417097,165,1609054433867417097,-0.0102355133139,-0.00621222422512,-0.00157440438444,0.999767542309,0.000794003422642,0.0214666227856,-0.00184797446855,-0.00108872090554,0.000666539496351,-0.00142903453244,0.0,0.0,0.0
1609054434067506075,166,1609054434067506075,-0.0101723569987,-0.00597198917919,-0.00182387266298,0.999768352448,0.000765586346252,0.0214564560462,-0.00150858066631,-0.000826830996054,0.00064291356483,-0.00169285951552,0.0,0.0,0.0
1609054434267510891,167,1609054434267510891,-0.0101542757533,-0.00617052542283,-0.00164440019783,0.999771776764,0.000795709842235,0.021284440144,-0.00165343256495,-0.000955864740218,-0.000911459144759,-0.00134537676569,0.0,0.0,0.0
1609054434467643976,168,1609054434467643976,-0.0102449792069,-0.00618890545142,-0.00178705741521,0.999772085542,0.000765209437787,0.0212815318918,-0.00151255586249,-0.000576588856568,-0.000564571898923,-0.00178262522706,0.0,0.0,0.0
1609054434667649031,169,1609054434667649031,-0.0102151231013,-0.00619736844738,-0.0018185268967,0.999775356989,0.000764590647329,0.021139957379,-0.00132406999024,-0.000619720334707,-0.00101770071408,-0.000662698920563,0.0,0.0,0.0
1609054434867729902,170,1609054434867729902,-0.00999298385663,-0.00651919372294,-0.00132982036741,0.999777015555,0.000784320093841,0.0210703242683,-0.0011599336305,-0.000885344492144,-0.00294934933474,0.000297470511759,0.0,0.0,0.0
1609054435067764997,171,1609054435067764997,-0.0106968952495,-0.00730063201705,-0.00190756330481,0.99977583529,0.000816209021328,0.0211380304398,-0.000892548289127,-0.00223005383138,-0.00369476890641,-0.00157286328853,0.0,0.0,0.0
1609054435267877102,172,1609054435267877102,-0.0105421220889,-0.00721002869204,-0.00185440049171,0.999780320126,0.000841346222825,0.0209251906322,-0.000860245958026,-0.00202692337123,-0.00262763701155,-0.00125710522379,0.0,0.0,0.0
1609054435467909098,173,1609054435467909098,-0.0104184558816,-0.00713388458452,-0.00182055684694,0.999781413743,0.000854064517364,0.0208767202352,-0.00074690022759,-0.00180990730722,-0.00110239673392,-0.00117431013713,0.0,0.0,0.0
1609054435667975903,174,1609054435667975903,-0.01021807378,-0.00702058414996,-0.00178785195308,0.999783040904,0.000866783750525,0.0208029380315,-0.000597976258937,-0.00127173341944,-0.000401047188299,-0.0011415136397,0.0,0.0,0.0
1609054435868016005,175,1609054435868016005,-0.00982642825663,-0.00671012109131,-0.00160035274804,0.999784808174,0.000876635293141,0.0207207156508,-0.000469892142662,-0.00055073236269,-0.000454452329703,-0.000621823290088,0.0,0.0,0.0
1609054436068058968,176,1609054436068058968,-0.00963171936563,-0.00670701329111,-0.00143048642848,0.999785894248,0.000874634999768,0.0206711587096,-0.000322296219892,-0.000106081735554,-0.0005008796609,-0.00058316313333,0.0,0.0,0.0
1609054436268120050,177,1609054436268120050,-0.00978457903268,-0.00665072211169,-0.00172522343573,0.999785198537,0.000828996951928,0.0207091496192,-2.59414483543e-05,-0.000654738796315,0.00018177346613,-0.000965210623723,0.0,0.0,0.0
1609054436468183041,178,1609054436468183041,-0.00987363560525,-0.00656013226151,-0.0017116295624,0.999788254999,0.00079632762814,0.0205621461684,-9.57807259534e-05,-0.000896510552013,-0.000897178262978,-0.000465484730798,0.0,0.0,0.0
1609054436668222904,179,1609054436668222904,-0.0098428902185,-0.00675842272446,-0.00153530688646,0.99978864907,0.000728138749488,0.0205457291064,4.45213963399e-06,-0.000668816898899,-0.000862430597088,-0.000779406717922,0.0,0.0,0.0
1609054436868354082,180,1609054436868354082,-0.00963464821674,-0.00681669739231,-0.00145557953896,0.999790273401,0.000713449738478,0.02046675205,0.000110739376045,0.000157839660702,-0.00129936429768,-0.000926444524012,0.0,0.0,0.0
1609054437068351984,181,1609054437068351984,-0.00946659521594,-0.00654148830379,-0.0013509921157,0.99978963903,0.000661421909666,0.0204961492177,0.000384807145343,-0.00050474458716,0.00028638360954,-0.000277591977185,0.0,0.0,0.0
1609054437268474102,182,1609054437268474102,-0.00946842911456,-0.006576565139,-0.00124698589591,0.999791137189,0.000707228131517,0.0204230796405,0.000282212532704,9.08338333369e-06,0.000184788884577,-0.00043921543065,0.0,0.0,0.0
1609054437468509912,183,1609054437468509912,-0.00942238627118,-0.00654647658856,-0.00117477405549,0.999791784685,0.000725140235517,0.0203883391676,0.000420802684594,0.000174480102049,-0.00104710061025,-0.000281011418936,0.0,0.0,0.0
1609054437668567896,184,1609054437668567896,-0.00940732698145,-0.00653287447814,-0.0011908778484,0.99979226312,0.000696311541661,0.0203616119131,0.000592044559612,-0.000133514089418,3.9112172568e-05,-0.000343625640929,0.0,0.0,0.0
1609054437868614912,185,1609054437868614912,-0.00941689287684,-0.00651196307059,-0.00120439370843,0.999791589061,0.000677560668238,0.020391974853,0.000697649686421,0.000121302064256,9.36984083112e-05,0.000211373034399,0.0,0.0,0.0
1609054438068702936,186,1609054438068702936,-0.00938769413585,-0.00651904135838,-0.00126092386128,0.999789798104,0.00058814513858,0.0204723041831,0.000947868022886,-0.000616281170169,0.000483138207671,-0.000652463457054,0.0,0.0,0.0
1609054438268748045,187,1609054438268748045,-0.00936461306878,-0.00655488577182,-0.00118901880818,0.999792621454,0.000601081512453,0.0203378762197,0.000850633526128,-0.000186604715644,-0.00110632553278,-0.000779281548931,0.0,0.0,0.0
1609054438468748093,188,1609054438468748093,-0.00932781836172,-0.00657308521189,-0.00120621065722,0.999791339493,0.00052193242405,0.0203968833789,0.000986006930446,0.000696699451255,-0.000285329480101,-0.000237756082471,0.0,0.0,0.0
1609054438668821096,189,1609054438668821096,-0.00934558616756,-0.00650956970758,-0.00122650641773,0.99979153106,0.000427348926638,0.0203874448729,0.00103144805755,-0.000412595378546,0.000454007494656,-0.00079419740584,0.0,0.0,0.0
1609054438868901968,190,1609054438868901968,-0.00934852302077,-0.00650267746518,-0.0012610941821,0.99978961078,0.000400218147015,0.0204756809748,0.00114912562595,-0.000454694750414,0.00113263290176,-0.000236880536308,0.0,0.0,0.0
1609054439068984032,191,1609054439068984032,-0.00933909234029,-0.00650778669779,-0.00120171663522,0.999791226794,0.000385493504579,0.0204025568348,0.00104398037584,-9.9641207985e-05,2.84564336415e-05,-0.00051337798245,0.0,0.0,0.0
1609054439269011021,192,1609054439269011021,-0.00932542004024,-0.00650784119502,-0.0012109036325,0.999791645068,0.000338685345064,0.0203791778427,0.00111393687321,-0.000299033744826,-0.000245997714584,-0.000390654326585,0.0,0.0,0.0
1609054439469101906,193,1609054439469101906,-0.00931505969454,-0.00650168287856,-0.00123182812566,0.999790679764,0.000294686867825,0.0204196111003,0.00124470820144,-8.48525895793e-05,1.38122029459e-05,-0.000977091642438,0.0,0.0,0.0
1609054439669173002,194,1609054439669173002,-0.00929808868951,-0.00650824258466,-0.0012278669386,0.999790938286,0.000262884753868,0.0204028581511,0.00131681169937,-0.000253196430732,0.000418243023437,-0.000493641247491,0.0,0.0,0.0
1609054439869226933,195,1609054439869226933,-0.00925984242364,-0.00656162893119,-0.00121706733179,0.999789681767,0.00020080547037,0.0204548389207,0.001466790168,-0.00010411860183,-0.000445036086068,6.01836438061e-05,0.0,0.0,0.0
1609054440069298983,196,1609054440069298983,-0.00922136195447,-0.00666158095727,-0.00116199363554,0.99979312241,0.000333768430204,0.0202878387887,0.00141583138992,-0.000251312255383,-0.0007212887923,-0.000356045982676,0.0,0.0,0.0
1609054440269347906,197,1609054440269347906,-0.00920064938803,-0.00671615206994,-0.0011343817274,0.999790916702,0.000466579876314,0.0203874827607,0.0015019090694,-6.63229663426e-05,-0.00198195550979,-0.00130755621743,0.0,0.0,0.0
1609054440469361067,198,1609054440469361067,-0.00897999408941,-0.00758073343857,-0.00128841415026,0.999792341034,-0.000157115957877,0.0203236653147,0.00148281929245,-0.00118065071076,-0.00156567644626,-6.08258725662e-05,0.0,0.0,0.0
1609054440669471025,199,1609054440669471025,-0.00916560352583,-0.00738207316827,-0.00141766896338,0.999789341972,0.000349414291431,0.0204611585706,0.00157815670413,-0.000394184995354,-0.00545790238052,-0.000465316909261,0.0,0.0,0.0
1609054440869682074,200,1609054440869682074,-0.00872366547769,-0.00807720083703,-0.00128796423533,0.999792749033,0.000399947634801,0.0202972369295,0.00152354721377,-0.00053801703462,-0.000494128569712,-0.00130432427339,0.0,0.0,0.0
1609054441069567919,201,1609054441069567919,-0.00820217353219,-0.00864684638431,-0.00108283972312,0.999791867942,-0.000209006885572,0.0203341854926,0.00164256288372,-0.000298789627092,-0.00315866660958,0.000392176952059,0.0,0.0,0.0
1609054441269743919,202,1609054441269743919,-0.00799131571658,-0.00766582233718,-0.000754805925795,0.999794936136,0.000142265149654,0.0201780857699,0.00170595796755,-0.00129061705448,-0.00537152626786,8.97533857241e-05,0.0,0.0,0.0
1609054441469926119,203,1609054441469926119,-0.00685710581743,-0.00706792817303,-0.000551086400971,0.999799325525,0.000270417107222,0.0199439766135,0.00186369285207,0.00272985654478,0.00343571460388,-0.00290286172216,0.0,0.0,0.0
1609054441669709921,204,1609054441669709921,-0.00725958192902,-0.00695208518549,-0.000770754141556,0.999794357754,-4.73361492585e-05,0.0201639102997,0.00215793504752,-0.00123593278954,0.000633116491743,-0.00186440925161,0.0,0.0,0.0
1609054441869887114,205,1609054441869887114,-0.00560783254584,-0.00577478528401,-6.62423742346e-05,0.999793029983,0.000101370104188,0.0202579321938,0.00187165837758,-0.0047597273411,0.000954889548237,0.00235051838748,0.0,0.0,0.0
1609054442069917917,206,1609054442069917917,-0.00427552227509,-0.0052714703465,3.54498880989e-05,0.999798725315,0.000649861839797,0.0199437519281,0.00208165744189,0.00749542878991,0.00285766813765,-0.00667513329188,0.0,0.0,0.0
1609054442269984961,207,1609054442269984961,-0.00470705205628,-0.00606079963864,-0.000271862641108,0.999790548041,-0.000212305556621,0.020359338156,0.00207661382828,0.000528753941667,-2.83658660861e-05,0.000320059740178,0.0,0.0,0.0
1609054442470040083,208,1609054442470040083,-0.00560021913026,-0.00490360609389,9.25543384738e-05,0.999766150802,0.000317357969673,0.0215077687575,0.00222685394501,-0.0127123938366,-0.000156157340852,0.00657672579726,0.0,0.0,0.0
1609054442670198917,209,1609054442670198917,-0.00490226989733,-0.00559874814711,2.04269643572e-05,0.999765927179,0.000136544254809,0.0215294055362,0.00213469088143,0.00583113447071,-0.000832966211368,-0.0073966449371,0.0,0.0,0.0
1609054442870110035,210,1609054442870110035,-0.00456506381423,-0.00548225650005,-0.000118231724208,0.99978490675,8.71050511315e-05,0.0206462278051,0.0019661957281,-0.00460875630393,-0.000612970796578,-0.00145382410105,0.0,0.0,0.0
1609054443070182085,211,1609054443070182085,-0.00551357661698,-0.00467333702385,0.000617885709738,0.999763682428,0.000234297887447,0.0216193376837,0.00226465009934,-0.0177275482652,0.00645957591166,0.0107305807252,0.0,0.0,0.0
1609054443270395994,212,1609054443270395994,-0.00624048377979,-0.00528082632702,0.000604599461382,0.999756470731,-7.70101707453e-05,0.0219535739316,0.00224363391548,0.00531504550587,-0.00432075215818,-0.00539133400993,0.0,0.0,0.0
1609054443470288038,213,1609054443470288038,-0.00555981161663,-0.00491306279177,0.000234902641212,0.999780284461,8.01542816183e-05,0.0208425400797,0.00222820567529,0.00212361961034,-0.00253481933571,-0.00393223447954,0.0,0.0,0.0
1609054443670406103,214,1609054443670406103,-0.00400677846372,-0.00535146335659,-0.00017367604026,0.999777825905,0.000243691092446,0.020984942685,0.00196764408505,-0.00759948465135,0.00144206106696,0.00185535764824,0.0,0.0,0.0
1609054443870609045,215,1609054443870609045,-0.00365752658065,-0.00748486655932,-0.00109862118561,0.999764857658,0.000117010719382,0.0216006715541,0.00190438655879,0.00502471786756,-0.0148335662821,-0.00964786159273,0.0,0.0,0.0
1609054444070516109,216,1609054444070516109,-0.000285895349148,-0.00598374065959,-0.000565420277986,0.999823201254,0.000437593882825,0.0187307241315,0.00159208020672,0.0167709874847,0.00045844005519,-0.0150729307315,0.0,0.0,0.0
1609054444270550966,217,1609054444270550966,0.00289470486351,-0.00654729096584,-0.00518051041191,0.999901305581,0.000936891848569,0.0138466441271,0.00218443995485,0.0107559493656,-0.00527747322256,-0.0149948783946,0.0,0.0,0.0
1609054444470694065,218,1609054444470694065,0.00474442398897,-0.00798282563339,-0.00615682251044,0.99992464768,0.000785134263271,0.0122157967735,0.000925653902947,-0.00307254894078,-0.0149870674383,0.00758648223585,0.0,0.0,0.0
1609054444670660973,219,1609054444670660973,0.00467188542793,-0.00992421941739,0.00164980387987,0.999933848066,0.00166678922422,0.0113699052812,-0.00049654669923,-0.0056431088011,-0.0155526914812,0.10031387405,0.0,0.0,0.0
1609054444870686054,220,1609054444870686054,0.00141638183313,-0.0117088238315,0.0509263943828,0.999940412144,0.00309510387125,0.00757432808543,-0.00722648240866,0.00043741682167,-0.0343739118403,0.37038978357,0.0,0.0,0.0
1609054445070808887,221,1609054445070808887,0.00565660283715,-0.0223197575458,0.152004815157,0.999923538791,0.00386315695023,0.00268279316736,-0.0114365733536,0.0346274920965,-0.0745794762103,0.595333378297,0.0,0.0,0.0
1609054445270803928,222,1609054445270803928,0.0142730039932,-0.0394179080351,0.280106825553,0.99991499207,0.00226975295364,0.00431907394062,-0.012091420731,0.0490760460164,-0.129162348679,0.694423305414,0.0,0.0,0.0
1609054445470922947,223,1609054445470922947,0.0413218788349,-0.0759813177055,0.432289494252,0.9999471248,0.00291563898974,0.00264157483172,-0.00950098607696,0.104959608655,-0.168819696626,0.615919201536,0.0,0.0,0.0
1609054445671009064,224,1609054445671009064,0.0728426011728,-0.115774795952,0.534868435073,0.999987660598,0.00218547193325,0.00230401268154,-0.00382019489971,0.130467763828,-0.196660271312,0.293909813811,0.0,0.0,0.0
1609054445870959044,225,1609054445870959044,0.0987920995442,-0.158184826965,0.580063420425,0.99997070066,0.00208586007287,0.00282052878937,0.00680379500714,0.131095361251,-0.194964836917,0.0689778921355,0.0,0.0,0.0
1609054446071183920,226,1609054446071183920,0.12849632194,-0.190251917637,0.582279886537,0.999882936706,0.00279293829263,0.00253405875844,0.0148287196685,0.142769744774,-0.128869466584,0.114727742939,0.0,0.0,0.0
1609054446271126032,227,1609054446271126032,0.164566720031,-0.203735134534,0.632685773213,0.999779767241,0.000833891703816,0.00180199680562,0.020891970911,0.143038618044,-0.0257626508261,0.402961422105,0.0,0.0,0.0
1609054446471191883,228,1609054446471191883,0.186135658359,-0.206184655273,0.746540979607,0.999754697177,0.00275165673713,-0.00250910593916,0.0218329623725,0.161404956734,0.0907479264528,0.694756329306,0.0,0.0,0.0
1609054446671255112,229,1609054446671255112,0.233086978036,-0.193619812047,0.926359522825,0.999840411521,0.00269591597435,-0.00207914051803,0.0175374086286,0.182513900973,0.168336149692,0.881158708991,0.0,0.0,0.0
1609054446871305943,230,1609054446871305943,0.270534112842,-0.147962853035,1.1096250388,0.999922048481,0.00296324248259,-0.00782486959437,0.00926755474528,0.179249671115,0.227889069322,0.901723327534,0.0,0.0,0.0
1609054447071393013,231,1609054447071393013,0.312434379765,-0.102679768951,1.30303013461,0.999863813597,0.00255983459506,-0.0162910028647,0.000636185872559,0.191806784759,0.249822751089,0.848347838103,0.0,0.0,0.0
1609054447271423101,232,1609054447271423101,0.355601927532,-0.0364544554521,1.44018940308,0.999815630194,0.00270962448479,-0.0190089100396,0.000157776690756,0.231082943032,0.268117068691,0.779922482625,0.0,0.0,0.0
1609054447471507072,233,1609054447471507072,0.409248480555,0.00899080877908,1.60709262828,0.999877491855,0.00357467536598,-0.0149985029479,0.00269590187641,0.252836597913,0.273163198119,0.732296491134,0.0,0.0,0.0
1609054447671798944,234,1609054447671798944,0.400166241583,0.0861531571087,1.66358629668,0.999891148394,0.00465678903699,-0.0125463765431,0.00621241622032,0.222447109366,0.315350690487,0.643936897491,0.0,0.0,0.0
1609054447871566057,235,1609054447871566057,0.439187977872,0.159831401538,1.78491046176,0.999906060948,0.00501902471353,-0.0127442290505,0.000513124815879,0.232327892219,0.350786358568,0.634736438946,0.0,0.0,0.0
1609054448072261095,236,1609054448072261095,0.480865158976,0.226452480963,1.90946765336,0.999931840398,0.00445994753582,-0.00735105398856,-0.00789844484635,0.241105878882,0.334092922173,0.639454764511,0.0,0.0,0.0
1609054448271764040,237,1609054448271764040,0.521635613108,0.282763242924,2.03503310607,0.999894838191,0.00449433850481,0.0008613749134,-0.0137612322835,0.215097092367,0.301434498174,0.63588608259,0.0,0.0,0.0
1609054448471818924,238,1609054448471818924,0.554571352784,0.350334883491,2.16598618109,0.99968796109,0.00431296948854,0.00171862456343,-0.0245443491473,0.169965011098,0.24929327217,0.63242641408,0.0,0.0,0.0
1609054448672060966,239,1609054448672060966,0.586763529229,0.404417548925,2.2949968493,0.999637048356,0.00427122157236,0.00160372193464,-0.0265510131057,0.136731549233,0.16037405631,0.611561579935,0.0,0.0,0.0
1609054448871987104,240,1609054448871987104,0.631157141574,0.426043278777,2.4119102004,0.999648410255,0.00411049972448,0.00242134604133,-0.0260824989166,0.11297972138,0.0618834003644,0.668445211583,0.0,0.0,0.0
1609054449072163105,241,1609054449072163105,0.659326366009,0.431584847984,2.5498704562,0.999743037404,0.0040105477218,-0.000527704395562,-0.0223046227709,0.0794259651278,-0.0209055236519,0.655237652197,0.0,0.0,0.0
1609054449272136927,242,1609054449272136927,0.683935713389,0.413698204016,2.68099206739,0.999746550959,0.00377293023153,-0.0086120571848,-0.0204555937059,0.0732521446689,-0.0942369858514,0.631605857174,0.0,0.0,0.0
1609054449472376108,243,1609054449472376108,0.700092021759,0.383467970225,2.80304441497,0.999791692587,0.00320474130606,-0.0141052773946,-0.0143993824929,0.0901128526556,-0.151224403231,0.637308876094,0.0,0.0,0.0
1609054449672243118,244,1609054449672243118,0.726245263069,0.345737103495,2.92017668418,0.999860659121,0.00189213817576,-0.0141501204104,-0.00865195054364,0.127982731554,-0.183147330831,0.631109498786,0.0,0.0,0.0
1609054449872283936,245,1609054449872283936,0.762746706034,0.298137496088,3.03299802339,0.999943295717,0.00102320471463,-0.010580456767,-0.000642135362308,0.165253995202,-0.201001459043,0.64430958529,0.0,0.0,0.0
1609054450072253942,246,1609054450072253942,0.800584220627,0.258725316016,3.14323364993,0.999956663807,0.00112372756299,-0.00572679272848,0.00725338462846,0.177204549739,-0.181869842106,0.589601998521,0.0,0.0,0.0
1609054450272382975,247,1609054450272382975,0.828094975444,0.215714349697,3.23907494868,0.999928473477,0.0017556282173,2.14590547077e-05,0.01183069056,0.172716824911,-0.136744835915,0.512809689449,0.0,0.0,0.0
1609054450472419977,248,1609054450472419977,0.84464158783,0.18743498,3.31808746071,0.999978791506,0.00186140568454,-0.00234001468819,0.00578584803343,0.145858080011,-0.0908285611077,0.362574923406,0.0,0.0,0.0
1609054450672472954,249,1609054450672472954,0.860521910486,0.149200530902,3.3458415346,0.999933610041,0.0019325658739,-0.00732749624325,-0.00868035126922,0.155669337169,-0.108427383463,0.207272978756,0.0,0.0,0.0
1609054450872493982,250,1609054450872493982,0.889494990624,0.12470903304,3.35803572255,0.999903645129,0.00222490030462,-0.00542800525448,-0.0125812175353,0.176784058234,-0.163432765259,0.154740694899,0.0,0.0,0.0
1609054451072561979,251,1609054451072561979,0.91630852525,0.089491121009,3.36209220568,0.99997469991,0.00235311882654,0.00110834754243,-0.00662072028552,0.175677502679,-0.204417110202,0.105364066367,0.0,0.0,0.0
1609054451272573948,252,1609054451272573948,0.940528038286,0.0450064127567,3.36340900235,0.9999784598,0.00193010316198,0.00594104653067,-0.0020145975142,0.158665511182,-0.222880431563,0.104829838466,0.0,0.0,0.0
1609054451472641945,253,1609054451472641945,0.962612673048,-0.00184135977609,3.40358132106,0.999995806715,0.00090387345289,0.00246464066368,-0.00122274773309,0.118777441087,-0.214950988211,0.0520735951363,0.0,0.0,0.0
1609054451672715902,254,1609054451672715902,0.975264897221,-0.0280981474937,3.38209559609,0.999939618664,-0.000552015028921,-0.00502970806516,-0.00975481119304,0.136138515008,-0.210021948878,0.0705004737204,0.0,0.0,0.0
1609054451872752905,255,1609054451872752905,1.00708860641,-0.0930209169948,3.39542316046,0.999873841702,0.000404587959086,-0.00922114728952,-0.0129270039505,0.19324401715,-0.264465299204,0.0329674740841,0.0,0.0,0.0
1609054452072829008,256,1609054452072829008,1.05013273649,-0.148899921757,3.38856231466,0.999822531996,0.00153016859936,-0.0117840823334,-0.0146184301869,0.26923561703,-0.317885218524,-0.000844717345782,0.0,0.0,0.0
1609054452272978067,257,1609054452272978067,1.10334614185,-0.211733192706,3.37284231746,0.999743514249,0.00163841006041,-0.0121122525686,-0.0190660606356,0.354109885402,-0.370418005575,-0.0398749151579,0.0,0.0,0.0
1609054452472990036,258,1609054452472990036,1.17212359995,-0.290578400076,3.34111452523,0.999754148941,0.00128610734414,-0.00590946562663,-0.0213322717579,0.434917580736,-0.446185557799,-0.0586379493555,0.0,0.0,0.0
1609054452673058033,259,1609054452673058033,1.25511568739,-0.38512367066,3.31086446204,0.999843890554,0.00135464626349,0.000999755966611,-0.0175886310622,0.483304522246,-0.520323923225,-0.0429185973318,0.0,0.0,0.0
1609054452873109102,260,1609054452873109102,1.34502790867,-0.496132967969,3.29008153778,0.999853190214,0.00178022158575,0.0102802829611,-0.0135920789924,0.508632485496,-0.59383089032,-0.0447649081447,0.0,0.0,0.0
1609054453073098898,261,1609054453073098898,1.43252523185,-0.622827715487,3.27687694639,0.999627006904,0.00188023115365,0.0262891852491,-0.00715475631817,0.47832657246,-0.648831783049,-0.0256209460463,0.0,0.0,0.0
1609054453273175001,262,1609054453273175001,1.51351773641,-0.757527780034,3.27599602059,0.999011840465,0.00119102901034,0.0443435394341,-0.00275219403634,0.37382006194,-0.66930091302,-0.00625632702591,0.0,0.0,0.0
1609054453473268986,263,1609054453473268986,1.56727388866,-0.902684162318,3.28273544725,0.998685944855,0.00170047486758,0.0511472624258,0.00272937375588,0.221353806811,-0.673679332015,-0.0224494795961,0.0,0.0,0.0
1609054453673280954,264,1609054453673280954,1.59828383397,-1.04151299007,3.27937421845,0.99906342021,0.00139816204418,0.0426272194933,0.00729710214536,0.084032373962,-0.648314780925,0.0159489004746,0.0,0.0,0.0
1609054453873334885,265,1609054453873334885,1.60422602158,-1.16239675117,3.28341363037,0.999095541253,0.000900011730848,0.0413381778978,0.00992191894351,-0.0219399106387,-0.605903010451,0.0502871738937,0.0,0.0,0.0
1609054454073446035,266,1609054454073446035,1.58501543686,-1.27726089281,3.29332160124,0.999170228023,0.000694121081749,0.038475187219,0.0133429230707,-0.131255125055,-0.5557729188,0.0503016510497,0.0,0.0,0.0
1609054454273504019,267,1609054454273504019,1.53293874513,-1.38057692687,3.30411065273,0.99939339202,0.000561637029587,0.0323666717412,0.0128425507816,-0.230637883723,-0.492119071759,0.0740068428319,0.0,0.0,0.0
1609054454473592043,268,1609054454473592043,1.47816686343,-1.46783620164,3.31912836732,0.99969683257,-0.000487663522184,0.0241269269781,0.00488840760722,-0.295134651259,-0.435514703324,0.0538380563089,0.0,0.0,0.0
1609054454673634052,269,1609054454673634052,1.40062866044,-1.55570967657,3.32393976937,0.99990481181,-0.00173936592842,0.0128974898504,-0.00458221364157,-0.318712182031,-0.444993074812,0.0486526413394,0.0,0.0,0.0
1609054454873702049,270,1609054454873702049,1.33663704597,-1.64297899986,3.32577774226,0.99994665326,-0.00207788028226,0.00889051638013,-0.00483029666682,-0.299136079977,-0.467217389602,0.00740748849723,0.0,0.0,0.0
1609054455073682070,271,1609054455073682070,1.26206333229,-1.74443334306,3.31813624164,0.999978119041,-0.00178215131763,0.0063513935332,0.000495152489434,-0.27882120079,-0.476642857507,-0.0160695433235,0.0,0.0,0.0
1609054455273794889,272,1609054455273794889,1.20567649949,-1.83754465941,3.31332898814,0.999978001275,-0.00244631592693,0.00227688630359,-0.00572959798984,-0.236134491311,-0.475324597694,-0.0251939614728,0.0,0.0,0.0
1609054455473854065,273,1609054455473854065,1.15896426398,-1.93670827283,3.30415540747,0.999836575394,-0.00299775139109,0.00208069070204,-0.0177061209001,-0.181787983867,-0.507458423497,-0.0185245495506,0.0,0.0,0.0
1609054455673907995,274,1609054455673907995,1.10396270156,-2.05573362631,3.30219201631,0.999770038435,-0.00255123008579,0.00423988047456,-0.0208658785028,-0.148500388272,-0.590262279813,-0.0158772636799,0.0,0.0,0.0
1609054455873995066,275,1609054455873995066,1.08173510859,-2.18449498634,3.3014533236,0.999845165598,-0.00182499506313,0.00653262711324,-0.0162369642176,-0.110740662765,-0.667292779996,0.00261028301121,0.0,0.0,0.0
1609054456073996067,276,1609054456073996067,1.04628299142,-2.336884349,3.30206366634,0.999933800891,-0.00104287313249,0.00727883575226,-0.00885013003497,-0.0934318563089,-0.725812594712,0.0167704728218,0.0,0.0,0.0
