%time,field.header.seq,field.header.stamp,field.pose.pose.position.x,field.pose.pose.position.y,field.pose.pose.position.z,field.pose.pose.orientation.x,field.pose.pose.orientation.y,field.pose.pose.orientation.z,field.pose.pose.orientation.w,field.twist.twist.linear.x,field.twist.twist.linear.y,field.twist.twist.linear.z,field.twist.twist.angular.x,field.twist.twist.angular.y,field.twist.twist.angular.z
1609055987075891972,14,1609055987075891972,0.00234661881359,0.0031324517509,-0.000448732192381,0.9994428312,-0.000214329784415,0.0332436584662,-0.00297328060992,0.00170518343401,0.00391767498392,0.000562690990682,0.0,0.0,0.0
1609055987275969028,15,1609055987275969028,0.00244488687891,0.00318708045534,-0.000484012256591,0.9994439913,-0.000217850269197,0.0332070570325,-0.00299201573062,0.000462019865181,0.00416187486364,0.00137859249163,0.0,0.0,0.0
1609055987475999117,16,1609055987475999117,0.00236292768049,0.0032157517681,-0.000407371637128,0.999441365836,-0.000277038840495,0.0332892001089,-0.00295104413703,0.00111954880902,0.00474294388196,0.000835432071859,0.0,0.0,0.0
1609055987676029921,17,1609055987676029921,0.000339976280598,0.00103893585654,-0.000176753675835,0.999442806569,-8.78601840937e-05,0.0332410139696,-0.00301722860426,-0.000318124935694,0.0030259210059,0.00134923868308,0.0,0.0,0.0
1609055987876086950,18,1609055987876086950,0.00113768623036,0.0016590692505,-0.000102335146458,0.99944211783,-0.000125196003631,0.0332643789201,-0.00298639041427,5.14230668496e-05,0.00393784910032,0.000895175315673,0.0,0.0,0.0
1609055988076162100,19,1609055988076162100,0.00188948914465,0.00244749049065,-0.000272930838654,0.999442528614,-0.000191215001379,0.0332534529902,-0.00296703518005,0.000391913822493,0.00348571029226,0.000248227240511,0.0,0.0,0.0
1609055988276453018,20,1609055988276453018,0.00252162584905,0.00328996181797,-0.000497361268407,0.999443005562,-0.000180924232694,0.033236683689,-0.0029947884243,-0.000102892280216,0.00435200991311,0.000524568305695,0.0,0.0,0.0
1609055988476254940,21,1609055988476254940,0.00234490772235,0.00285243751977,-0.000432055544103,0.999442720291,-0.000189794297723,0.0332461430566,-0.00298442757896,0.000739775291178,0.00372950959575,0.000188266669157,0.0,0.0,0.0
1609055988676337004,22,1609055988676337004,0.00235539501668,0.00261522896781,-0.000495058382077,0.999442210083,-0.000140022238671,0.0332620811207,-0.002980445974,0.000474043707426,0.00322294687511,0.000587385300998,0.0,0.0,0.0
1609055988876394987,23,1609055988876394987,0.00239138098533,0.00291646126149,-0.000598487826053,0.99944074346,-0.000127649980818,0.0333070439526,-0.00297066349219,0.000834342053314,0.00459396128116,0.000589421843995,0.0,0.0,0.0
1609055989076539993,24,1609055989076539993,0.00284214564785,0.00315012478166,-0.000784666537794,0.999441884965,-0.000129133717042,0.0332710757567,-0.00298955186796,0.000566440665505,0.00421401086119,-0.000120486164609,0.0,0.0,0.0
1609055989276592970,25,1609055989276592970,0.00469118967114,0.00358692139273,-0.0011236308236,0.999442213084,-2.38219297228e-05,0.033259808567,-0.00300786847753,0.000925813083496,0.0046857236907,-0.000452540087154,0.0,0.0,0.0
1609055989476660967,26,1609055989476660967,0.00636885408943,0.00469812672221,-0.00215938191656,0.99944229483,3.79205596563e-05,0.0332593001887,-0.00298610420171,0.00171596430518,0.00438075342251,-0.00138953578708,0.0,0.0,0.0
1609055989676770926,27,1609055989676770926,0.00990007188833,0.00520624313158,-0.00193298648674,0.999442573921,0.000104243910442,0.0332493111256,-0.00300231197805,0.00261892225551,0.00382344003177,0.000623842798324,0.0,0.0,0.0
1609055989876758099,28,1609055989876758099,0.00240560052159,0.00308057856959,-0.00186243112539,0.999437687528,-2.91342852826e-06,0.0334077116873,-0.00286941469625,-0.000552710542525,0.00259314511295,-0.000778022024468,0.0,0.0,0.0
1609055990076740026,29,1609055990076740026,0.00437011935528,0.0042449491905,-0.00207428864367,0.99944193093,9.16085327767e-05,0.033270127957,-0.00298611676423,0.000195731943115,0.00267591749744,-0.000158493300648,0.0,0.0,0.0
1609055990276798964,30,1609055990276798964,0.00243642343456,0.00276428772223,-0.00124549119935,0.999442169561,9.65091061548e-05,0.0332627571592,-0.00298820590427,-0.000644691792953,0.00200481393345,0.000687219051799,0.0,0.0,0.0
1609055990477040052,31,1609055990477040052,0.00295582068762,0.00295920486352,-0.00119456300452,0.999440962249,0.000101026510774,0.0332984772864,-0.00299402445897,-0.00120311835723,0.00233664165117,0.000406315246898,0.0,0.0,0.0
1609055990677350044,32,1609055990677350044,0.00335828965132,0.00304707808738,-0.00122840277578,0.99944244818,0.000141659673817,0.0332565341627,-0.00296237136799,-0.0014125335832,0.00120575324244,-0.000137031460258,0.0,0.0,0.0
1609055990876935959,33,1609055990876935959,0.004034569154,0.00320989643155,-0.00122587494533,0.999441997757,0.000108370884242,0.0332698240801,-0.0029665097975,-0.00131334130808,0.0021637547359,0.000580699736362,0.0,0.0,0.0
1609055991077194929,34,1609055991077194929,0.00449780948372,0.0036015522555,-0.00146188776624,0.99944015118,7.00549411661e-05,0.0333370337436,-0.00283222228494,-0.000882263728808,0.00273288463137,-0.000206011839208,0.0,0.0,0.0
1609055991278171062,35,1609055991278171062,0.0044348559446,0.00343891948349,-0.00121930478822,0.999443802453,0.00014819237744,0.0332170358213,-0.00294827218714,-0.000846555492446,0.00307372422153,0.0006473023255,0.0,0.0,0.0
1609055991477186918,36,1609055991477186918,0.00496472346123,0.00360785519989,-0.00118398276599,0.999442260672,8.44800266605e-05,0.033261242599,-0.00297492637565,-0.000907185667586,0.00351795362314,0.000815753202441,0.0,0.0,0.0
1609055991678436041,37,1609055991678436041,0.0055092996133,0.00414618099756,-0.00136140995402,0.999443640319,0.000118232761616,0.0332208208449,-0.00296190984965,-0.00105141480788,0.00360638204927,0.000325203440944,0.0,0.0,0.0
1609055991877609015,38,1609055991877609015,0.000526320836104,0.00173901343784,0.000632991119817,0.999445283926,0.000241850473663,0.0331873980692,-0.00276813205569,-0.00243810695048,0.00487100915671,0.000142247869383,0.0,0.0,0.0
1609055992077337980,39,1609055992077337980,0.00448105761275,0.00442391565909,-0.00123203018125,0.999443762617,9.52155203306e-05,0.0332195016488,-0.0029361555316,-0.00229701324404,0.00495907241899,0.000370085963862,0.0,0.0,0.0
1609055992277429104,40,1609055992277429104,0.00401806933562,0.00507918933085,-0.00114031223081,0.999445040622,0.000118167374688,0.0331812456567,-0.00293287373211,-0.00155804682629,0.0044512577912,0.000481214247422,0.0,0.0,0.0
1609055992477467060,41,1609055992477467060,0.00363427028742,0.00541235770939,-0.00117224475567,0.99944234863,0.000125147602363,0.0332620942966,-0.00293414141809,-0.00144149018302,0.00423468908123,-0.000611273394212,0.0,0.0,0.0
1609055992677521944,42,1609055992677521944,0.00343635266815,0.00587283063613,-0.00139161464935,0.999442778217,8.24094000218e-05,0.0332522891673,-0.0029002662697,-0.000909038779933,0.00492781786202,-0.0020274411867,0.0,0.0,0.0
1609055992877624035,43,1609055992877624035,0.00329406167985,0.00643363930491,-0.00155106628706,0.999444542885,0.000120512646502,0.0332005099342,-0.00288397541648,-0.00112212157842,0.003967916501,-0.00102526652314,0.0,0.0,0.0
1609055993077652931,44,1609055993077652931,0.00318924429481,0.00690549873239,-0.00167610172919,0.99944230688,0.000117608099579,0.0332663976512,-0.00289968515183,-0.00100298242025,0.00488836517131,-0.000728418858276,0.0,0.0,0.0
1609055993277767897,45,1609055993277767897,0.00307604341144,0.00737090181893,-0.00200872038249,0.999443849556,7.82230786794e-05,0.0332163988501,-0.00294216143826,-0.000839517639405,0.00486361192536,-0.00211901255656,0.0,0.0,0.0
1609055993477777004,46,1609055993477777004,0.00304981400621,0.00775741814674,-0.00228986055221,0.999446379256,0.000132670042977,0.0331367680275,-0.00297858958272,-0.00180541551436,0.00497434514958,0.000529976761573,0.0,0.0,0.0
1609055993677864075,47,1609055993677864075,0.00297014817493,0.00800584852872,-0.00233200009881,0.999444230741,0.000123069655151,0.0332026834006,-0.00296585702296,-0.00146062976741,0.00398054062147,-0.000452847973348,0.0,0.0,0.0
1609055993877834082,48,1609055993877834082,0.00251923471548,0.00859880130388,-0.00259581210679,0.999447936821,9.83556243396e-05,0.0330928107979,-0.00294580774963,-0.00232709296076,0.00489271620741,0.000396898214353,0.0,0.0,0.0
1609055994077908039,49,1609055994077908039,0.00261888988336,0.00862020081923,-0.00261026261481,0.999444712074,0.000137250399325,0.0331894785429,-0.00295079383097,-0.00313338502329,0.0044211581207,0.00107714545257,0.0,0.0,0.0
1609055994278009892,50,1609055994278009892,0.00410579329871,0.00629616574698,-0.00240279189108,0.99944136878,4.1607049333e-05,0.0333181668559,-0.00261694424333,-0.00300439213359,0.00639546715642,-0.00146334999371,0.0,0.0,0.0
1609055994478230953,51,1609055994478230953,0.00461427900284,0.00599352918692,-0.00234180106255,0.99944724013,0.000138639245328,0.0331125136299,-0.00295912438366,-0.000594009502424,0.00273139473289,0.000398157242915,0.0,0.0,0.0
1609055994678149939,52,1609055994678149939,0.00534656442179,0.00524636116627,-0.00222559315781,0.999443217169,0.000179983871937,0.0332291459815,-0.0030078428879,0.000334187223545,0.00191613182311,0.000992817586356,0.0,0.0,0.0
1609055994878165960,53,1609055994878165960,0.00524776275987,0.00520676395809,-0.00228730555906,0.999446168845,0.00021242274807,0.0331381012984,-0.00302930693299,-0.000527467075885,0.00257400698183,0.00104732779474,0.0,0.0,0.0
1609055995078223944,54,1609055995078223944,0.00519905354862,0.00492413481491,-0.00217552545746,0.999446087959,0.000175550586735,0.0331402027231,-0.00303535978757,-0.000506416719563,0.00136613348812,0.00179138138971,0.0,0.0,0.0
1609055995278295994,55,1609055995278295994,0.00530407968128,0.00479493801328,-0.00216668492901,0.999446181303,0.000205265617319,0.0331370999978,-0.00303663440063,0.00055418615554,0.00102443453967,0.00107820745557,0.0,0.0,0.0
1609055995478328943,56,1609055995478328943,0.00540300723129,0.00475300014744,-0.00219800234434,0.999448031435,0.000217200363178,0.033081547414,-0.00303257419855,-0.00089374814058,0.00168235539748,0.000875713720521,0.0,0.0,0.0
1609055995678421021,57,1609055995678421021,0.00543798945547,0.00498022712432,-0.00233565686818,0.999444804277,0.000132509984919,0.0331794175293,-0.00303181429686,-0.00072530829418,0.00181722084909,0.000393459359847,0.0,0.0,0.0
1609055995878490925,58,1609055995878490925,0.00554792655038,0.0051137765426,-0.00239086440194,0.999449470711,0.000208282041904,0.0330380801884,-0.00303271701814,-0.00080678619749,0.00138021251655,-0.000455517729088,0.0,0.0,0.0
1609055996078511953,59,1609055996078511953,0.00545307198535,0.00546245743337,-0.00257589127706,0.999450062378,0.000213273580453,0.0330242464917,-0.00298771992959,-0.000562607542905,0.00266608538676,0.000694292699804,0.0,0.0,0.0
1609055996278636932,60,1609055996278636932,0.00526994071611,0.0058402969668,-0.00277909143042,0.999445622097,0.000102244206344,0.0331738624714,-0.00281653437984,3.93530976718e-05,0.00436453895904,-0.00067590165175,0.0,0.0,0.0
1609055996479162931,61,1609055996479162931,0.00560317326549,0.00600831151825,-0.00305214203795,0.999451961032,0.000218121531149,0.0329702102936,-0.00294877002641,-0.000361308437379,0.00412604364226,-0.000749566429239,0.0,0.0,0.0
1609055996678725958,62,1609055996678725958,0.00549685085897,0.00660222511377,-0.00338419206078,0.999447259815,0.00020400715453,0.0331099966022,-0.00297680264591,-0.000889056301637,0.00532629211486,-0.000873645586827,0.0,0.0,0.0
1609055996878848076,63,1609055996878848076,0.00577923186416,0.00632511203404,-0.00362249667369,0.999449324129,0.000240496771741,0.0330442745768,-0.00301107564991,0.000348307798454,0.00439929619909,-0.00129175400518,0.0,0.0,0.0
1609055997078841925,64,1609055997078841925,0.00574865411644,0.00677290483704,-0.00401682968255,0.999448027733,0.00021689911246,0.0330866461413,-0.0029776941464,-0.000460351309119,0.00302361564629,-0.000925435144783,0.0,0.0,0.0
1609055997278949976,65,1609055997278949976,0.00504507340292,0.0067860284659,-0.00363827943812,0.99944298222,0.000110052774698,0.0332582795827,-0.00275681304273,-0.00213240649641,0.00420590015468,-0.000600227003637,0.0,0.0,0.0
1609055997479022026,66,1609055997479022026,0.00534262176454,0.00593831821051,-0.00316352347946,0.999449242649,0.000170635138208,0.0330490356693,-0.00299056738517,-0.00122512787783,0.00208499670326,0.000107731109954,0.0,0.0,0.0
1609055997679141998,67,1609055997679141998,0.00500248269166,0.00624446438915,-0.00322209013162,0.999447957384,0.000166756735755,0.0330911612413,-0.00295427151554,-0.00105001012412,0.00245423393915,-0.000361606661527,0.0,0.0,0.0
1609055997879093885,68,1609055997879093885,0.00484732680756,0.00629217511146,-0.00323030920833,0.999448511259,0.00018977140689,0.0330751145224,-0.00294518723132,-0.00122847911057,0.00142065487967,0.000514833010473,0.0,0.0,0.0
1609055998079133034,69,1609055998079133034,0.00499450952039,0.00589767700348,-0.00309529552592,0.999450087978,0.000167862473059,0.0330312181503,-0.00290380608801,-0.00157844197051,0.00228113255043,0.00115632874395,0.0,0.0,0.0
1609055998279165030,70,1609055998279165030,0.00500546769776,0.00593697574155,-0.00285350652619,0.999450715968,0.00016747006954,0.0330113028821,-0.00291413565085,-0.00107918982502,0.00265889283851,0.00124922100224,0.0,0.0,0.0
1609055998479346037,71,1609055998479346037,0.00475606124667,0.00632636861429,-0.00291529470421,0.999448372475,0.000146712364806,0.0330951918081,-0.00276360473972,-0.00162561293229,0.00387462134576,0.00131830127681,0.0,0.0,0.0
1609055998679261923,72,1609055998679261923,0.0047034541033,0.00612591754068,-0.00265005066952,0.99945064063,0.000174039052719,0.0330134178359,-0.00291562988926,-0.000548110432114,0.00240184536694,0.00141868849886,0.0,0.0,0.0
1609055998879297018,73,1609055998879297018,0.00445232288468,0.00597311302932,-0.00250227353619,0.999451635666,0.000188169812284,0.0329813816365,-0.00293615770755,-0.00142753024766,0.00184322966891,0.000715952178208,0.0,0.0,0.0
1609055999079360008,74,1609055999079360008,0.00453503021235,0.00540794731038,-0.00237164974492,0.999450810391,0.000222092694491,0.0330031768602,-0.00296961280599,-0.00101656232126,0.00160808520437,0.000238332117229,0.0,0.0,0.0
1609055999279512882,75,1609055999279512882,0.00457328150245,0.00523136305069,-0.00237118437734,0.999451914083,0.000193939547024,0.0329726821674,-0.00293871624709,-0.000849060922701,0.00150813962548,0.000964363442523,0.0,0.0,0.0
1609055999479499102,76,1609055999479499102,0.00435598780502,0.00533802623519,-0.00231858633668,0.999453572253,0.000152824060965,0.0329248145314,-0.00291378507045,-0.000460502652054,0.00112673061381,0.00111359424104,0.0,0.0,0.0
1609055999679550886,77,1609055999679550886,0.00471439453704,0.00490386453118,-0.00224238052173,0.999449511085,0.000159987900812,0.0330648203346,-0.00271419450282,-0.000816163425245,0.00251061561779,0.0010875199197,0.0,0.0,0.0
1609055999879609108,78,1609055999879609108,0.00415338043697,0.00551461112367,-0.00232631940118,0.99945291957,0.000144408589539,0.0329480134323,-0.00287560790668,-0.000459298189817,0.00277073759073,0.000906077149451,0.0,0.0,0.0
1609056000079807043,79,1609056000079807043,0.00412373599385,0.00557728567542,-0.00244765379538,0.999453188954,0.000154150276903,0.032941140567,-0.00286017228632,-0.000316951863639,0.00176280859031,-0.000298362956724,0.0,0.0,0.0
1609056000279757023,80,1609056000279757023,0.00421707617088,0.00557397283114,-0.00262810079997,0.999452665293,0.000167489482656,0.0329566180415,-0.00286410785408,0.000122275339575,0.002218482365,-0.000589418561916,0.0,0.0,0.0
1609056000479821920,81,1609056000479821920,0.00390038791689,0.00609812611784,-0.00291037822781,0.999449548854,0.000106872467279,0.0330662219198,-0.00268567354867,-0.000418241403679,0.00372796922303,-0.000702642447559,0.0,0.0,0.0
1609056000679892063,82,1609056000679892063,0.00408977663358,0.00596219839032,-0.00273963546776,0.99945239056,0.000156592764143,0.032967387079,-0.00283652462072,2.11088222061e-05,0.00306313279977,0.000138924221711,0.0,0.0,0.0
1609056000879957914,83,1609056000879957914,0.00406819541062,0.0061299526191,-0.002663791005,0.999451462637,0.00018336474636,0.0329919154228,-0.00287640852545,-0.000612983383332,0.00408303066195,0.000577989745458,0.0,0.0,0.0
1609056001079966068,84,1609056001079966068,0.00397235876598,0.00625033495407,-0.00250039638442,0.999450890695,0.000195981499557,0.0330075837504,-0.00289449401832,-0.00190500257149,0.00400725852359,0.00138264738286,0.0,0.0,0.0
1609056001280045033,85,1609056001280045033,0.00371189550324,0.00654904261881,-0.00236433041979,0.999450984181,0.000190774038759,0.0330030609123,-0.00291406855265,-0.00180563072427,0.00404052738311,0.00136888329188,0.0,0.0,0.0
1609056001480498075,86,1609056001480498075,0.00320570067528,0.00704433694816,-0.0023958449404,0.999446815158,0.000159469200285,0.0331478981897,-0.00269352675249,-0.0034051459962,0.0055047314794,0.00116172872569,0.0,0.0,0.0
1609056001680751085,87,1609056001680751085,0.00196345669842,0.00838135158528,-0.00226550493586,0.999449558747,0.000175292321395,0.0330471398374,-0.0029043659635,-0.00396230528645,0.00472976627644,0.00112142784462,0.0,0.0,0.0
1609056001880527973,88,1609056001880527973,0.00119537998277,0.0092021942045,-0.00212837155968,0.999450348434,0.000172228965101,0.0330267044297,-0.00286498638317,-0.00435672601001,0.00545855866209,0.00093074629223,0.0,0.0,0.0
1609056002080297947,89,1609056002080297947,0.000207289656289,0.0101217302875,-0.00202204727375,0.999451380967,0.000191556791456,0.0329983612303,-0.00282993724785,-0.0046593957549,0.00553837034899,0.000899708945884,0.0,0.0,0.0
1609056002280348063,90,1609056002280348063,0.00286244660283,0.00683028887542,-0.00161612006428,0.999452222761,0.000205602847216,0.0329684594851,-0.00287972659296,-0.00167569569999,0.00244186801877,0.000952339693412,0.0,0.0,0.0
1609056002480530024,91,1609056002480530024,0.00291756468823,0.00690571753691,-0.00190393948983,0.999449537175,0.000123777327064,0.0330702598081,-0.0026391735294,-0.00255164901799,0.00415848090071,0.000405329847565,0.0,0.0,0.0
1609056002680578947,92,1609056002680578947,0.00348122590066,0.00627508723499,-0.00168146309189,0.999456332461,0.000151046703716,0.0328436247096,-0.00288322810496,-0.000370506331151,0.00239501230533,0.00111628295789,0.0,0.0,0.0
1609056002880569935,93,1609056002880569935,0.00344284610323,0.00632961093723,-0.00152460416071,0.999455784369,0.000158412901566,0.0328613318393,-0.00287103930383,-0.000277866763314,0.00267447870793,0.000497674860559,0.0,0.0,0.0
1609056003081360102,94,1609056003081360102,0.00328793169887,0.00652762414701,-0.00156816161346,0.999454487087,0.000132137214972,0.0329036639025,-0.00283895815131,-0.00030604113302,0.00382526897713,-0.000317638463996,0.0,0.0,0.0
1609056003280652046,95,1609056003280652046,0.00331505531448,0.00641601734719,-0.00149701608871,0.999454585026,0.000147151197676,0.0328988700851,-0.00285922432039,0.000224580482415,0.00120055063822,0.000560422117279,0.0,0.0,0.0
1609056003480742931,96,1609056003480742931,0.00353056703396,0.0062218534086,-0.00157963274595,0.999454022838,0.000150983506379,0.0329173330558,-0.002842995183,0.000216804853473,0.00211743031602,9.40732780548e-05,0.0,0.0,0.0
1609056003680757046,97,1609056003680757046,0.00298534937315,0.00689309011419,-0.00168775366344,0.999449338996,0.00010501418589,0.033078036026,-0.00261749598858,-0.000929246394897,0.00410377540333,0.000120241014052,0.0,0.0,0.0
1609056003880857944,98,1609056003880857944,0.00340341592083,0.00636767386987,-0.00155012878113,0.999452192401,0.000124972240967,0.0329754886851,-0.00281365102265,-0.000156859022441,0.0024071341451,0.00054513703284,0.0,0.0,0.0
1609056004080903053,99,1609056004080903053,0.00351352296581,0.00624748190249,-0.00162805147659,0.999451610008,0.000128593907563,0.0329946453574,-0.00279572765949,-0.000473099503098,0.00284794327976,0.000257757909499,0.0,0.0,0.0
1609056004281011105,100,1609056004281011105,0.00338210548818,0.00635830716423,-0.00152836453545,0.999450306372,0.000108673255424,0.0330309167187,-0.00283404729611,-0.000592309738668,0.00295091142268,0.000848051065329,0.0,0.0,0.0
1609056004480992079,101,1609056004480992079,0.00345420397431,0.0062411399868,-0.00150903078065,0.999449846765,0.00010867447962,0.0330459338723,-0.00282103632962,-0.000964475501555,0.00228195916423,0.000515219951948,0.0,0.0,0.0
1609056004681062937,102,1609056004681062937,0.00311576842135,0.00662239312249,-0.00166781239555,0.99944610723,6.06224416206e-05,0.0331743199418,-0.00263430540503,-0.00193952405641,0.00355011641523,0.000262026451004,0.0,0.0,0.0
1609056004881172895,103,1609056004881172895,0.00351590620029,0.00604270855952,-0.00159636971151,0.999450976115,0.000120828860586,0.0330162419878,-0.00276758172335,-0.000607880509368,0.00270073312816,-0.000722251374718,0.0,0.0,0.0
1609056005081163883,104,1609056005081163883,0.00307650300322,0.00666571220392,-0.00175463876885,0.999450321575,7.40852953011e-05,0.033041996105,-0.00269735198512,-0.00120719021933,0.00404049417309,-0.00098121182037,0.0,0.0,0.0
1609056005281306982,105,1609056005281306982,0.00327900414431,0.00637928393517,-0.0017476860655,0.999450287845,0.000132621202956,0.0330386447294,-0.00274817978039,-0.00132977911425,0.00300929309658,0.000297913889282,0.0,0.0,0.0
1609056005481368065,106,1609056005481368065,0.00305909082516,0.00662258942241,-0.00187905838846,0.999447831591,0.00010133705766,0.033127609271,-0.00256576765465,-0.00155503202595,0.00341499281872,-0.000271260200797,0.0,0.0,0.0
1609056005681390047,107,1609056005681390047,0.00298594502183,0.00673586338475,-0.0018092542507,0.999450811936,0.000131335417301,0.0330264849119,-0.00270343596562,-0.00105866358912,0.00368211603326,-0.000352357914568,0.0,0.0,0.0
1609056005881464005,108,1609056005881464005,0.0025282331019,0.00730790568716,-0.0018847310151,0.999450256961,0.000149702602329,0.0330414815365,-0.00272432532669,-0.00178495331468,0.00447810810377,0.000249960121526,0.0,0.0,0.0
1609056006081466913,109,1609056006081466913,0.00266811186317,0.00713362838975,-0.00183740773321,0.999450882711,0.000146676832945,0.0330221974048,-0.00272873829972,-0.00151666523718,0.00408146018886,0.000191198267949,0.0,0.0,0.0
1609056006281579018,110,1609056006281579018,0.00202863495263,0.00789729417979,-0.00194131593995,0.999450403566,0.000167718384868,0.0330398352309,-0.00268923242753,-0.00182535988353,0.00426280489783,0.000334236325355,0.0,0.0,0.0
1609056006481601954,111,1609056006481601954,0.00249466944548,0.00730686860813,-0.00200612588118,0.999446341549,0.000168701067954,0.0331730315703,-0.00255575457199,-0.00193123750045,0.00413485613246,0.000106966058933,0.0,0.0,0.0
1609056006681714058,112,1609056006681714058,0.00305042666876,0.00661518517601,-0.00176437300779,0.999451282958,0.000210092970297,0.0330088563088,-0.00273939049407,-0.000818634136833,0.00400778332614,4.51578156867e-05,0.0,0.0,0.0
1609056006881755114,113,1609056006881755114,0.00282306403287,0.00693189108821,-0.00178254216272,0.999451647522,0.000189579203382,0.0329970026025,-0.00275066250834,-0.00105086742426,0.0038712021706,0.000808065491336,0.0,0.0,0.0
1609056007081782103,114,1609056007081782103,0.00282673805902,0.00686998733667,-0.00170685551873,0.999452174358,0.000195119244039,0.0329815024579,-0.00274473965936,-0.0010693918977,0.00324454076203,0.000676629596089,0.0,0.0,0.0
1609056007281812906,115,1609056007281812906,0.00292350638323,0.00677725324832,-0.00179544677111,0.999448616256,0.000182970822337,0.0331008028044,-0.00260131484566,-0.00133237317324,0.00304823085335,0.000490279204483,0.0,0.0,0.0
1609056007481861115,116,1609056007481861115,0.0030718832291,0.00658712580257,-0.00167143086876,0.999451950779,0.00021149619396,0.03298664173,-0.00276311808786,0.000241248975606,0.0016943332278,0.000803642260849,0.0,0.0,0.0
1609056007681938887,117,1609056007681938887,0.00313401281293,0.00660464334478,-0.00173048906537,0.99945092709,0.00020693151989,0.0330184191056,-0.00275418192803,0.00024369240804,0.0033165420544,0.0003246566094,0.0,0.0,0.0
1609056007882046938,118,1609056007882046938,0.00326747871752,0.0067558119538,-0.00181153411759,0.999449671841,0.0002004214867,0.0330594311091,-0.00271795929628,0.00051169256535,0.00326652325902,0.000212454955361,0.0,0.0,0.0
1609056008082117081,119,1609056008082117081,0.00313888651039,0.00669063137944,-0.00183500381811,0.999448411262,0.000211062985373,0.033095007498,-0.00274757286467,-0.000440476650029,0.00265522158827,0.000226131986741,0.0,0.0,0.0
1609056008282114029,120,1609056008282114029,0.00287822183508,0.00692328007163,-0.00230004518331,0.999444132172,0.000131020440013,0.0332431983664,-0.00250983332556,-0.00200015901947,0.00408424675328,-0.00122242964742,0.0,0.0,0.0
1609056008482238054,121,1609056008482238054,0.00303379070946,0.00678708960126,-0.00206808854889,0.999448806117,0.000193703099462,0.0330859422446,-0.00271419535124,-0.00149405808965,0.00229884325811,-0.000749020090051,0.0,0.0,0.0
1609056008682303905,122,1609056008682303905,0.00286306751539,0.00689874807366,-0.00236342494109,0.999448662148,0.000187023663917,0.0330931345859,-0.00267977526275,-0.00108486360968,0.00315133030664,-0.000263962747173,0.0,0.0,0.0
1609056008882360935,123,1609056008882360935,0.00274033302512,0.00703963181987,-0.00235762206279,0.99944910032,0.00016677950175,0.0330829661096,-0.00264299229568,-0.00161478954341,0.00351457972507,0.000524729324019,0.0,0.0,0.0
1609056009082397938,124,1609056009082397938,0.00266873814696,0.0071388403732,-0.00242329763621,0.999448788836,0.000165494343221,0.0330933642881,-0.00263065502574,-0.00100033545832,0.00322819155026,0.000165902241152,0.0,0.0,0.0
1609056009282828093,125,1609056009282828093,0.00253887393499,0.00755718738098,-0.00289228317847,0.999443909846,8.99537949404e-05,0.0332579165129,-0.00240290867756,-0.00160785333565,0.00403675016787,-0.000222556637461,0.0,0.0,0.0
1609056009482489109,126,1609056009482489109,0.00300893742212,0.00698492037293,-0.00222330795228,0.999449348903,0.000180846906908,0.0330789800253,-0.00259756671562,-6.9313109029e-05,0.00231478014529,0.00112688352357,0.0,0.0,0.0
1609056009682718039,127,1609056009682718039,0.00334887941756,0.0070531283386,-0.00201808419114,0.999449126262,0.000177302937388,0.0330852857906,-0.0026031599167,8.02510723906e-05,0.00277874165278,0.00128152839841,0.0,0.0,0.0
1609056009882632971,128,1609056009882632971,0.00318550485035,0.00705172983028,-0.00210840302604,0.999447786084,0.000140973804009,0.0331275242725,-0.00258266420048,-0.00056782095957,0.00272805337058,0.000308834930243,0.0,0.0,0.0
1609056010082658052,129,1609056010082658052,0.00324149324699,0.00706857469946,-0.00213886293059,0.999449164606,0.000160697949367,0.0330851962817,-0.00259062376051,0.000218137778856,0.00182357109089,0.00129427919154,0.0,0.0,0.0
1609056010282712936,130,1609056010282712936,0.00304569729558,0.00713616396564,-0.00237914990257,0.999444544133,0.000167222063702,0.0332364446117,-0.00243186949786,-0.00145065662039,0.0033779232544,0.0010669206471,0.0,0.0,0.0
1609056010482837915,131,1609056010482837915,0.00323184078139,0.00722405247511,-0.00210301938947,0.999448299845,0.000155144266606,0.0331138636532,-0.00255810499385,-0.000769724072702,0.0031640614413,0.00109218216395,0.0,0.0,0.0
1609056010683003902,132,1609056010683003902,0.0031982719155,0.007361414872,-0.00224382560934,0.999448211353,0.00015269682512,0.0331181352971,-0.00253744393264,-0.000910348070833,0.00264942071361,0.000576076871014,0.0,0.0,0.0
1609056010883315086,133,1609056010883315086,0.00322940892221,0.00740128996602,-0.00223827839704,0.999448790073,0.000147705084736,0.033102979827,-0.00250737552589,0.000155469289114,0.00228280685222,0.000961752825919,0.0,0.0,0.0
1609056011082918882,134,1609056011082918882,0.00334090688247,0.00738560024317,-0.00221646231024,0.999448298417,0.000134791203783,0.0331184071521,-0.00250034600773,0.000157981615672,0.00303756673887,0.00140068202806,0.0,0.0,0.0
1609056011283268929,135,1609056011283268929,0.00310383898575,0.00757323832552,-0.00279213767919,0.999443241856,0.000105254920602,0.0332817985787,-0.0023488534653,-0.000485137315968,0.0035331646762,0.000505692877366,0.0,0.0,0.0
1609056011483078957,136,1609056011483078957,0.00373604977068,0.00750040219495,-0.00204104322275,0.999447060038,0.000143238576165,0.0331526092297,-0.00254129224331,0.000847978170435,0.00255215584304,0.000941072514827,0.0,0.0,0.0
1609056011683106899,137,1609056011683106899,0.00342856563464,0.00744190541384,-0.00232656087398,0.999445560979,0.0001293331384,0.0331989094793,-0.00252711731962,-0.00063139372422,0.00301557331712,0.000511590079296,0.0,0.0,0.0
1609056011883158922,138,1609056011883158922,0.003543650178,0.00764431400683,-0.00218460375336,0.999446544915,0.000111922248298,0.0331697383757,-0.00252186182451,-0.000885990389046,0.00353149446829,0.00113212480243,0.0,0.0,0.0
1609056012083298922,139,1609056012083298922,0.00331607052327,0.00767746486813,-0.00239346783737,0.999444207784,7.54314751166e-05,0.0332416303048,-0.00250276887047,-0.0015789526539,0.00327028621842,0.000738999905803,0.0,0.0,0.0
1609056012283390045,140,1609056012283390045,0.00344602887196,0.00783059944796,-0.00240455204367,0.999446055001,7.88982905956e-05,0.0331845659146,-0.00252220205953,-0.00162687746901,0.00354748549548,0.000551219258076,0.0,0.0,0.0
1609056012483370066,141,1609056012483370066,0.00300080566837,0.00815827047549,-0.00318829454576,0.999440503364,2.44648611692e-05,0.0333657020936,-0.00232584605159,-0.00250981764123,0.00426045905614,-0.000768811844059,0.0,0.0,0.0
1609056012683495045,142,1609056012683495045,0.00337680672797,0.00801199086244,-0.00270920389569,0.99944431641,8.50751430448e-05,0.0332375024742,-0.00251387905274,-0.000702315754623,0.00285111294802,8.72804897696e-05,0.0,0.0,0.0
1609056012883479118,143,1609056012883479118,0.00336059282709,0.00790471208686,-0.0029208275234,0.999444105256,0.000100295130806,0.0332442028772,-0.00250866203165,-0.000919542743782,0.00301206389351,-0.000453448030974,0.0,0.0,0.0
1609056013083915949,144,1609056013083915949,0.00334939740583,0.0077914232607,-0.00294240535418,0.999443495928,0.000121448119923,0.0332635194021,-0.00249438877084,-0.000776240308163,0.00269025283475,-0.000103071840795,0.0,0.0,0.0
1609056013283581018,145,1609056013283581018,0.0034866713227,0.00788422266349,-0.00305461202855,0.999444391526,0.000110392230053,0.0332372054973,-0.00248681167328,-0.000384448896023,0.00230928315586,-0.000768967781292,0.0,0.0,0.0
1609056013483845949,146,1609056013483845949,0.00362984726455,0.00802108340242,-0.00318762320174,0.999443412093,8.26036253382e-05,0.0332674194552,-0.00247749922412,-0.0002208169015,0.00335960012245,-0.00067206297947,0.0,0.0,0.0
1609056013683906078,147,1609056013683906078,0.00374063300184,0.00802615612918,-0.0032998252178,0.999443637902,9.93131193041e-05,0.0332622069109,-0.00245568413108,0.0004267920297,0.00232772780236,-0.000105212920862,0.0,0.0,0.0
1609056013883780003,148,1609056013883780003,0.00349892945787,0.00771136474654,-0.00266904766087,0.999438380466,-2.50189300367e-05,0.033433029875,-0.0022705813673,-0.00106718354434,0.00348633938562,0.000787514616189,0.0,0.0,0.0
1609056014083817959,149,1609056014083817959,0.00347075805608,0.00765576505013,-0.00274215778368,0.999441243203,6.34491184912e-05,0.0333366997257,-0.00242111761821,-0.000501117745115,0.00211319308475,-0.000476447069463,0.0,0.0,0.0
1609056014283879042,150,1609056014283879042,0.00351721467319,0.00770840016182,-0.0030501949036,0.999441077262,2.38720025148e-05,0.0333426914832,-0.00240778658354,-2.43106328039e-05,0.00255596401548,-0.00153243247249,0.0,0.0,0.0
1609056014484138012,151,1609056014484138012,0.00341726116317,0.00767377856126,-0.00272020571618,0.999440093429,3.98691490177e-05,0.0333704684147,-0.00243102732738,-0.000665496540823,0.00222786704193,0.000478275265313,0.0,0.0,0.0
1609056014684016943,152,1609056014684016943,0.00343273951817,0.00767753979051,-0.00271309329906,0.999440455967,4.91348463302e-05,0.033362306687,-0.00239354456046,-0.000281842655358,0.00142750416693,0.000315526296933,0.0,0.0,0.0
1609056014884290934,153,1609056014884290934,0.00339584612829,0.00757789092537,-0.00263970901235,0.999440825328,0.000126880745911,0.0333516891247,-0.00238440798185,-0.00128857468846,0.00543760219388,0.00112865176624,0.0,0.0,0.0
1609056015084284067,154,1609056015084284067,0.00328243958308,0.00741424008347,-0.00254649622397,0.999439621949,-7.76267698122e-05,0.0333893680489,-0.00236350442397,-0.00108945153806,0.00537954873668,8.18288717377e-05,0.0,0.0,0.0
1609056015284149885,155,1609056015284149885,0.00369544731845,0.00708998491752,-0.00268729993327,0.999440155057,-5.5111354058e-05,0.0333764372289,-0.00232096123795,0.00099537747375,-0.000239255773557,3.35116831803e-05,0.0,0.0,0.0
1609056015484293938,156,1609056015484293938,0.00395994577374,0.00787231965178,-0.00284415920963,0.99943353242,0.000135965926627,0.0335713244811,-0.00235838079324,-0.000586712115668,0.00219861448831,0.00307970996329,0.0,0.0,0.0
1609056015684293985,157,1609056015684293985,0.0035136332696,0.00777866095782,-0.00272183762145,0.999437087546,-0.00010579272986,0.0334718703076,-0.00226511458371,-0.000962641453577,0.00447421953841,-0.000533685544778,0.0,0.0,0.0
1609056015884370089,158,1609056015884370089,0.00358878368887,0.00794979884437,-0.00285865597642,0.999432002664,-0.000244080572952,0.0336236025872,-0.0022507384926,-0.00252401442445,0.00280796152903,-0.00220033593358,0.0,0.0,0.0
1609056016084415913,159,1609056016084415913,0.0036426486439,0.00761373172766,-0.00280781469965,0.999427857877,-5.82745556617e-05,0.0337410352812,-0.00234436378579,-0.000492465883427,0.000996041141079,-0.00341089355749,0.0,0.0,0.0
1609056016284527063,160,1609056016284527063,0.00389580687259,0.00735407073195,-0.00300232238873,0.999426661407,-0.000193575275914,0.0337735091793,-0.00237930148925,-0.000704094250263,0.0021293087911,-0.00197540379686,0.0,0.0,0.0
1609056016484606981,161,1609056016484606981,0.00347303998781,0.00749430957776,-0.00269055699092,0.999410734745,-8.27622160216e-05,0.0342328512109,-0.00250765337499,-0.00499210040757,-0.00107168487042,-0.00197258568651,0.0,0.0,0.0
1609056016684597015,162,1609056016684597015,0.00373869108749,0.00777757864782,-0.00316956650466,0.999397690986,-0.000138237276138,0.0346017134468,-0.00263772034947,-0.00968400237278,-0.00610175784459,0.0113586853403,0.0,0.0,0.0
1609056016884726048,163,1609056016884726048,0.00504748146809,0.00869248304805,-0.00614630443279,0.999527582199,0.000557459068066,0.0305913518007,-0.00291047393719,0.0113280720194,0.00659636761622,-0.0293051449841,0.0,0.0,0.0
1609056017084755898,164,1609056017084755898,0.00377792352633,0.0110294117668,-0.00616191982011,0.999577158907,0.00105429986816,0.0289096726542,-0.00293643846039,-0.00845918948275,0.00675772150816,-0.0117748391367,0.0,0.0,0.0
1609056017284842968,165,1609056017284842968,0.0038510374321,0.00992250364228,-0.00811369555166,0.999537201159,0.000767830355322,0.0303090605399,-0.00248088381025,-0.00961941377515,0.000968457820288,-0.00563090600591,0.0,0.0,0.0
1609056017484846115,166,1609056017484846115,0.00300277569137,0.0130061851557,-0.000732180672728,0.999400013281,1.88892219827e-05,0.0345269510308,-0.00273911491542,-0.0128033020244,0.00784758841028,0.00512191619679,0.0,0.0,0.0
1609056017684920073,167,1609056017684920073,0.00236576638788,0.00758663269167,-0.00364342548849,0.999368327842,6.07298574977e-05,0.0354568244622,-0.00239900325271,0.00260849886354,0.00346733407953,-0.00598167690226,0.0,0.0,0.0
1609056017884941101,168,1609056017884941101,0.0041676165902,0.0082802029731,-0.00396924610018,0.999446124664,0.000244631230581,0.0331859571476,-0.00246501469195,-0.00401152882199,0.00362208933486,-0.000911320680925,0.0,0.0,0.0
1609056018084974051,169,1609056018084974051,0.00295344606264,0.00781307119299,-0.00418739694675,0.999386874748,-6.15737794774e-05,0.0349228413821,-0.00250318587312,-0.00413845437391,-0.000150678311552,0.00169715267736,0.0,0.0,0.0
1609056018285042048,170,1609056018285042048,0.000907670319314,0.00770438335429,-0.0027041898697,0.999418050644,0.00020834959831,0.0339971295507,-0.00277701621286,5.20121574419e-05,0.0084939527147,-0.00168055096118,0.0,0.0,0.0
1609056018485126019,171,1609056018485126019,-0.00235924711801,0.00756880028368,-0.00132800174335,0.999428585009,0.000211547437424,0.0336976582133,-0.00263183327244,-0.00974511999172,0.000676601470609,0.00901335748062,0.0,0.0,0.0
1609056018685210943,172,1609056018685210943,7.72552610095e-05,0.00781999991291,-0.00216904685555,0.999475244654,0.000126166654789,0.0322730166541,-0.00276980159973,0.0147883153661,0.00741713144647,-0.00324426071444,0.0,0.0,0.0
1609056018885231018,173,1609056018885231018,0.00704269192562,0.00794612242599,-0.00606636143502,0.999626150809,0.000737996070975,0.0272322280479,-0.00232803285892,0.0116136049277,0.00615439554408,-0.00181599459368,0.0,0.0,0.0
1609056019085295916,174,1609056019085295916,0.00876716251939,0.00742054287889,-0.00631626879025,0.999641253543,0.00109542416437,0.0266540654558,-0.00239270885791,-0.0090613863971,0.00044036494433,0.0154674989785,0.0,0.0,0.0
1609056019285367966,175,1609056019285367966,0.00542622629284,0.0070850094046,-0.00427356914011,0.999538492033,0.00106811901397,0.0302382702581,-0.00270353061953,-0.0149494216742,0.00153410703587,0.0209193742497,0.0,0.0,0.0
1609056019485450029,176,1609056019485450029,0.00228908484604,0.00612146241046,0.000387232228272,0.99946952218,0.000251928820737,0.0323390594768,-0.00384655654025,-0.00603936863967,-0.00669541527844,0.0250625309645,0.0,0.0,0.0
1609056019685476065,177,1609056019685476065,-0.00288477594796,0.00552956861064,0.00809275525834,0.99947369456,0.00133659532538,0.0318345702331,-0.00609159533499,-0.0648170262598,0.000172454917783,0.0867235944847,0.0,0.0,0.0
1609056019885550976,178,1609056019885550976,-0.0217478498324,0.00642856066809,0.0446090102358,0.99966049511,0.00228454959475,0.0253180595751,-0.0057158733931,-0.150582340632,-0.00211665869623,0.242033118368,0.0,0.0,0.0
1609056020085688114,179,1609056020085688114,-0.0552988151286,0.0045236548381,0.103737979016,0.999894466498,0.00188987707959,0.0124800660281,-0.007192508888,-0.176663640399,-0.014734814937,0.300764452641,0.0,0.0,0.0
1609056020285649061,180,1609056020285649061,-0.0985262084788,0.00107292904132,0.167389887509,0.999963297868,0.00193080950593,0.00176961639717,-0.00815741064995,-0.170175405359,-0.0276084716459,0.296813070708,0.0,0.0,0.0
1609056020485785007,181,1609056020485785007,-0.142855865335,-0.00342011577627,0.22260061503,0.999948656442,0.00117003757084,0.00150926405866,-0.00995176435361,-0.159547778288,-0.0346911608258,0.248751130797,0.0,0.0,0.0
1609056020685812950,182,1609056020685812950,-0.160869296373,-0.0192392478001,0.275420551726,0.999935361613,0.00211046208774,0.00172087030229,-0.0110388926367,-0.105452029544,-0.0583269106099,0.22889397974,0.0,0.0,0.0
1609056020885821104,183,1609056020885821104,-0.181078590109,-0.0325168306574,0.328258625466,0.999934662943,0.00190767182948,0.00202434943887,-0.011087499417,-0.0803293237081,-0.0694792965084,0.229636861702,0.0,0.0,0.0
1609056021085943937,184,1609056021085943937,-0.196088585266,-0.0473611911984,0.376565085409,0.99993287237,0.00137658532442,-0.00143545933662,-0.011414693339,-0.0438842745044,-0.0815224294741,0.262477329444,0.0,0.0,0.0
1609056021286000013,185,1609056021286000013,-0.201878591565,-0.0682118290693,0.436300982413,0.999885882012,0.00153883434298,0.000249158253679,-0.0150264054837,-0.00903794769572,-0.110636474954,0.31775336649,0.0,0.0,0.0
1609056021485935926,186,1609056021485935926,-0.205628204904,-0.0916703363556,0.501305719974,0.999881792718,0.000444701190785,0.00248927846836,-0.0151659594027,-0.0161486814883,-0.125540596865,0.337923561521,0.0,0.0,0.0
1609056021686083078,187,1609056021686083078,-0.187554776081,-0.131937095756,0.588464761739,0.999924229301,0.00151991459907,-0.00388312287043,-0.0115821791089,0.0300342216719,-0.163090819308,0.388434659129,0.0,0.0,0.0
1609056021886163950,188,1609056021886163950,-0.173805687095,-0.167175683481,0.674016812097,0.999960715785,0.00221228427248,-0.00468788206037,-0.00719002413823,0.0547282699598,-0.157412139254,0.41984510493,0.0,0.0,0.0
1609056022086169004,189,1609056022086169004,-0.153328847942,-0.205532154152,0.759940185998,0.99995118497,0.00265742920301,-0.00684518405697,-0.0066112935793,0.0672718668071,-0.148114228566,0.405681100458,0.0,0.0,0.0
1609056022286257029,190,1609056022286257029,-0.133904491138,-0.236622401774,0.846038460366,0.999918873368,0.00249011200332,-0.00877686048533,-0.00888891137424,0.0823999802339,-0.143877838205,0.430936104084,0.0,0.0,0.0
1609056022486282110,191,1609056022486282110,-0.100679056579,-0.272795916491,0.940721251208,0.99987303381,0.00374849384724,-0.0100737984664,-0.0117636574715,0.12589800722,-0.138700784081,0.489258166754,0.0,0.0,0.0
1609056022686397076,192,1609056022686397076,-0.0632238691808,-0.307654779446,1.04824142705,0.999851141708,0.00382598820851,-0.0126599309594,-0.0110807214512,0.147352687681,-0.149878515,0.49074123737,0.0,0.0,0.0
1609056022886439085,193,1609056022886439085,-0.0104940657519,-0.285742525746,1.04355148756,0.999919208594,0.0040096377794,-0.00771846486305,-0.00926954095971,0.163104005013,-0.106189449159,0.439495193875,0.0,0.0,0.0
1609056023086512089,194,1609056023086512089,0.0190653812737,-0.300838429485,1.11790893491,0.999948872714,0.00454901691117,-0.00441386718963,-0.00787884373338,0.162928423118,-0.0857843034334,0.429346271137,0.0,0.0,0.0
1609056023286564112,195,1609056023286564112,0.0548004924138,-0.315093290567,1.18895484213,0.99995555868,0.00512296110371,-0.00235841830329,-0.0075547202088,0.161430838376,-0.062847861677,0.405667019078,0.0,0.0,0.0
1609056023486599922,196,1609056023486599922,0.0984794405194,-0.330201744352,1.26016588616,0.999923097026,0.00541580147716,-0.00173636824028,-0.0110206240228,0.167338658297,-0.0523805556842,0.397902004233,0.0,0.0,0.0
1609056023686676025,197,1609056023686676025,0.14504947188,-0.344077066524,1.3242243591,0.999918122131,0.00571299655488,-0.0038158026077,-0.0107958489671,0.179467516088,-0.054331114649,0.396859856794,0.0,0.0,0.0
1609056023886712074,198,1609056023886712074,0.171627455563,-0.354076679478,1.38898120575,0.999883020853,0.00557118017463,-0.00568537005342,-0.0130607476467,0.19594369973,-0.0484990021551,0.384047502679,0.0,0.0,0.0
1609056024086771965,199,1609056024086771965,0.212283372139,-0.363464175021,1.45054925883,0.999913154101,0.00555701941709,-0.00338268790595,-0.011461291978,0.224729798262,-0.0468040595284,0.361290391647,0.0,0.0,0.0
1609056024286839008,200,1609056024286839008,0.254054465006,-0.370167899646,1.50965065124,0.999946960166,0.00586805158749,0.00148028719834,-0.00833376114953,0.233925938602,-0.0356012617861,0.313035448422,0.0,0.0,0.0
1609056024486885071,201,1609056024486885071,0.291989310906,-0.375044897176,1.5679410239,0.9999199414,0.00582565488628,0.00467595961805,-0.0102131257083,0.230518403123,-0.0230099118598,0.314265646638,0.0,0.0,0.0
1609056024686956882,202,1609056024686956882,0.347146144811,-0.389034428959,1.61622762074,0.999883795227,0.00572937298998,0.00855881427952,-0.0112390847131,0.222644536322,-0.0279289584033,0.320862830328,0.0,0.0,0.0
1609056024887070894,203,1609056024887070894,0.384714701671,-0.395539869347,1.67370280238,0.999758105698,0.00548352583924,0.0182842811686,-0.0109245639563,0.186613124141,-0.0246185766408,0.34450513518,0.0,0.0,0.0
1609056025087047100,204,1609056025087047100,0.408894512144,-0.394825359417,1.74443057594,0.99972446104,0.00522258938991,0.0208475452348,-0.00943961948863,0.115023929589,-0.0177189662727,0.365115652068,0.0,0.0,0.0
1609056025287098885,205,1609056025287098885,0.411369098243,-0.395886636592,1.82211751662,0.999774275001,0.0050643870892,0.0170609375841,-0.0116049747219,0.0592335972399,-0.0173727346244,0.411770842167,0.0,0.0,0.0
1609056025487211943,206,1609056025487211943,0.40498508045,-0.399594073665,1.90871112274,0.999775539204,0.00451272761261,0.0151075729891,-0.0141515984003,0.013497909604,-0.0344304878494,0.447321658631,0.0,0.0,0.0
1609056025687252998,207,1609056025687252998,0.386867448119,-0.412168096778,1.99140843527,0.999768839995,0.00436330450937,0.014641287994,-0.0151281471301,-0.0271773501949,-0.0621557192031,0.47882896923,0.0,0.0,0.0
1609056025887332916,208,1609056025887332916,0.370881522069,-0.423011340112,2.08473530126,0.999802704954,0.00441963075082,0.0149375814379,-0.0123242318758,-0.0602639351086,-0.0868817689862,0.473208548742,0.0,0.0,0.0
1609056026087378979,209,1609056026087378979,0.359810415183,-0.436552025379,2.17985641538,0.999766114549,0.00449929438917,0.0178287790896,-0.0113845152097,-0.0889606782544,-0.0939265917183,0.495168849743,0.0,0.0,0.0
1609056026287411928,210,1609056026287411928,0.335753889523,-0.453542072712,2.27833794695,0.999736307078,0.0045235998955,0.0193878549493,-0.0114439693191,-0.135016395546,-0.10488195091,0.486705381773,0.0,0.0,0.0
1609056026487500906,211,1609056026487500906,0.298471704122,-0.478313669075,2.37538263318,0.999758325388,0.00443639861284,0.0199179102145,-0.00817838838259,-0.178882944631,-0.113851303852,0.463688114129,0.0,0.0,0.0
1609056026687568903,212,1609056026687568903,0.257465247759,-0.507337433272,2.46731811788,0.999801825539,0.00487112178203,0.0182880266606,-0.00617494140586,-0.217747251646,-0.113903463713,0.450499127964,0.0,0.0,0.0
1609056026887629032,213,1609056026887629032,0.201361922298,-0.529759480851,2.5542873009,0.999805613716,0.0049531262261,0.0173921531321,-0.00785584694789,-0.257592189981,-0.107477708992,0.458757255272,0.0,0.0,0.0
1609056027087649107,214,1609056027087649107,0.142547109473,-0.557409941373,2.64167468292,0.999866484457,0.00507239674926,0.0116729246125,-0.0102482623393,-0.281757392388,-0.111088685122,0.42351526743,0.0,0.0,0.0
1609056027287758112,215,1609056027287758112,0.0840847570199,-0.580815617272,2.72403317242,0.999905646957,0.00482230746977,0.00782454549901,-0.0102087718478,-0.279556811926,-0.119216892998,0.427249039564,0.0,0.0,0.0
1609056027487817049,216,1609056027487817049,0.0252538758261,-0.603469611288,2.8027190372,0.999938833262,0.00494845244556,0.000431020425636,-0.00988214422384,-0.258090412688,-0.125196707079,0.410102974455,0.0,0.0,0.0
1609056027687829971,217,1609056027687829971,-0.023476961002,-0.625617366053,2.87642689885,0.999960807837,0.00539769776303,-0.00152266560211,-0.00685048456057,-0.205343762887,-0.121301062285,0.433044031314,0.0,0.0,0.0
1609056027887912035,218,1609056027887912035,-0.0631293418131,-0.650499785185,2.96042462705,0.999973060203,0.00570695545597,0.00132277237542,-0.00442264641277,-0.159949807325,-0.102666856516,0.416844877267,0.0,0.0,0.0
1609056028088012934,219,1609056028088012934,-0.0842179334187,-0.672070184027,3.04780480539,0.99995603776,0.00547929691665,0.00365071542681,-0.00667623615806,-0.122101517684,-0.0795690212446,0.436461511766,0.0,0.0,0.0
1609056028287993908,220,1609056028287993908,-0.104500808911,-0.690171399884,3.13309148928,0.999937080426,0.00529949345858,0.00293653982088,-0.00944072516429,-0.0867632416058,-0.0745705016581,0.448175822362,0.0,0.0,0.0
1609056028488051891,221,1609056028488051891,-0.116346359958,-0.703128615514,3.21472246739,0.999968515367,0.00544126071511,0.00199825139912,-0.0054192203178,-0.0519246938133,-0.0566656015441,0.431895503454,0.0,0.0,0.0
1609056028688188076,222,1609056028688188076,-0.133804417063,-0.710249276645,3.29592504072,0.99996170866,0.00521918203897,0.00315468464222,-0.00627609092479,-0.0199288762365,-0.0234907066801,0.432850348075,0.0,0.0,0.0
1609056028888154984,223,1609056028888154984,-0.129758582723,-0.715283183177,3.37905556264,0.999923702407,0.00515725731511,0.00832053757646,-0.00753397084935,0.00300569712344,-0.0039847510245,0.419188183833,0.0,0.0,0.0
1609056029088279009,224,1609056029088279009,-0.11809152956,-0.716608174115,3.45829291152,0.999860451401,0.00553422956093,0.0106269050197,-0.0116412592561,0.0204451952782,0.0138287130922,0.416958290919,0.0,0.0,0.0
1609056029288360119,225,1609056029288360119,-0.103177604644,-0.72230981794,3.54862583934,0.999863333232,0.0059026061766,0.00633655886768,-0.0140826886878,0.0308143789766,0.00855707819968,0.375281790131,0.0,0.0,0.0
1609056029488384962,226,1609056029488384962,-0.10173231621,-0.71616854832,3.62242302713,0.999846482904,0.00610176991913,0.00355586733366,-0.0160354243859,0.0591597527019,0.00103490691175,0.433920785513,0.0,0.0,0.0
1609056029688452959,227,1609056029688452959,-0.0894641834578,-0.715890661253,3.69877591824,0.999844545559,0.00630060923718,0.00384523963741,-0.0160125316826,0.0872300865095,-0.00198215020737,0.439466490109,0.0,0.0,0.0
1609056029888473988,228,1609056029888473988,-0.0703582051153,-0.714197872821,3.78641255632,0.999849800777,0.00663389974707,0.00797234651354,-0.0138855662773,0.110736195522,-0.00119701122258,0.467545028352,0.0,0.0,0.0
1609056030088538885,229,1609056030088538885,-0.040221148249,-0.702919897031,3.86961070848,0.999851091503,0.00727783047037,0.00882639175923,-0.0129198611609,0.125036149158,0.0189030589508,0.477468659743,0.0,0.0,0.0
1609056030288624048,230,1609056030288624048,-0.0251656439413,-0.695038068069,3.96031944694,0.999805059358,0.00817022986498,0.00732153317656,-0.0164160219988,0.142181734482,0.0153710482867,0.489282671667,0.0,0.0,0.0
1609056030488733053,231,1609056030488733053,0.0135665645684,-0.694384553094,4.04426032726,0.999749180933,0.00912553237413,0.00831971778888,-0.0186837410201,0.168847792149,0.00518607322309,0.501073434267,0.0,0.0,0.0
1609056030688724041,232,1609056030688724041,0.0389127287722,-0.682741981168,4.13916709901,0.999699415805,0.0100636015603,0.0149754634064,-0.0165993210424,0.176932415984,-0.000417118040639,0.529648469026,0.0,0.0,0.0
1609056030888828039,233,1609056030888828039,0.0851411147784,-0.685556235604,4.24236121057,0.999594993551,0.0125445665821,0.0165060796717,-0.019494410781,0.176377879544,-0.0178897694837,0.524708231176,0.0,0.0,0.0
1609056031088869095,234,1609056031088869095,0.12168620484,-0.688947002846,4.34796136977,0.999618952773,0.0125649730907,0.0166131933219,-0.0181127721523,0.168431687215,-0.0409963198169,0.481590614904,0.0,0.0,0.0
1609056031288938999,235,1609056031288938999,0.145007708624,-0.698074730942,4.44074360979,0.999628055261,0.0126738773611,0.0152728742796,-0.0187046325613,0.152898722148,-0.0591992011151,0.433537085292,0.0,0.0,0.0
1609056031489022970,236,1609056031489022970,0.195163799991,-0.724015072185,4.52820881566,0.999661436861,0.0163527949685,0.00932425968852,-0.0179626259492,0.18510649243,-0.0852932439699,0.440568433787,0.0,0.0,0.0
1609056031689016104,237,1609056031689016104,0.231920207757,-0.747008369205,4.60592533555,0.999635676913,0.0190987148194,0.0122114105071,-0.0146503920586,0.205698305387,-0.10318321074,0.369002771749,0.0,0.0,0.0
1609056031889091969,238,1609056031889091969,0.276401697194,-0.771988373373,4.6656638785,0.999524978331,0.0234373978107,0.0170460326092,-0.0104851727751,0.215237517871,-0.128391304166,0.272256570174,0.0,0.0,0.0
1609056032089210987,239,1609056032089210987,0.308491394185,-0.794706588604,4.71803483534,0.999431604814,0.0254441162145,0.020490546186,-0.00831875983804,0.1947080267,-0.118128426982,0.223591028773,0.0,0.0,0.0
1609056032289237976,240,1609056032289237976,0.355069954685,-0.820683054553,4.76967081258,0.999395723886,0.0264265771158,0.0202358448032,-0.0100166703371,0.169543963919,-0.130863638022,0.187502534243,0.0,0.0,0.0
1609056032489289999,241,1609056032489289999,0.381280833809,-0.839878195393,4.82553413458,0.999493896155,0.0267321730283,0.0150607045086,-0.00839747906366,0.148816078058,-0.137673943601,0.156389191855,0.0,0.0,0.0
1609056032689313889,242,1609056032689313889,0.410006444931,-0.869280726875,4.83017901623,0.999508340859,0.0267037793957,0.0130867649085,-0.00993585945955,0.157766381984,-0.14041313136,0.197529807497,0.0,0.0,0.0
1609056032889426947,243,1609056032889426947,0.422344058363,-0.88355748802,4.84872183611,0.999484015076,0.026132507918,0.0166061888864,-0.00854576672317,0.144802355472,-0.143900828746,0.114736300682,0.0,0.0,0.0
1609056033089445114,244,1609056033089445114,0.447299325478,-0.912049051438,4.87744225004,0.9994847194,0.0261373417565,0.0182417467543,-0.00379126998164,0.118708602018,-0.143087940106,0.12971945117,0.0,0.0,0.0
1609056033289475918,245,1609056033289475918,0.432613033235,-0.923840815249,4.86067193976,0.999479254533,0.0262100022349,0.0188122884252,0.000594429249336,0.0767841534456,-0.0931675096354,0.126373901131,0.0,0.0,0.0
1609056033489635944,246,1609056033489635944,0.444777790933,-0.948587199496,4.8850795744,0.999475593274,0.0268591233619,0.0179207386298,0.00244398609333,0.050010761245,-0.0670775596582,0.121534091881,0.0,0.0,0.0
1609056033689670086,247,1609056033689670086,0.453204113597,-0.960193157005,4.90557088502,0.999467127031,0.0276332369786,0.0166284697325,0.00503589048786,0.0313459144313,-0.0209854735796,0.121939406895,0.0,0.0,0.0
1609056033889705896,248,1609056033889705896,0.455254582989,-0.957230619227,4.91378106357,0.999418613148,0.0281653129372,0.0149037335799,0.0121255749002,0.0131527294107,0.032435993544,0.124305455842,0.0,0.0,0.0
1609056034089752913,249,1609056034089752913,0.464709521118,-0.949569623272,4.93383985985,0.998981281782,0.0389411982863,0.0150212724299,0.0171564302564,-0.0142420905941,0.134677330329,0.0935123653774,0.0,0.0,0.0
1609056034289824963,250,1609056034289824963,0.451162464591,-0.909321142817,4.9609261721,0.998482347338,0.0501018448929,0.0132557735351,0.0186303961356,-0.038207444459,0.233298522319,0.0833894947708,0.0,0.0,0.0
1609056034489849091,251,1609056034489849091,0.437484184192,-0.840652275249,4.94431104797,0.997957671798,0.0607794461825,0.0128618086848,0.0148633138761,-0.0551082961566,0.322085928809,0.0582966147109,0.0,0.0,0.0
1609056034689949036,252,1609056034689949036,0.428126613147,-0.772383390267,4.95844443989,0.997280543943,0.0700634002979,0.0155377587822,0.016769456246,-0.0664574436139,0.413643414913,0.0689655652416,0.0,0.0,0.0
1609056034890028000,253,1609056034890028000,0.417156461365,-0.675609907227,4.97229455692,0.996303444441,0.082191024668,0.0194896459152,0.0156280440829,-0.0980501871815,0.514241738757,0.066029038707,0.0,0.0,0.0
1609056035090001106,254,1609056035090001106,0.387138095909,-0.557201879488,4.97727481806,0.995554977372,0.0926238293491,0.015162971756,0.00782288659454,-0.144391900495,0.570667752496,0.0408677844969,0.0,0.0,0.0
1609056035290117979,255,1609056035290117979,0.353536010799,-0.432108863683,4.97986206539,0.994974448299,0.0997766757723,0.00824072895503,-0.00159768255796,-0.159543203904,0.579981976675,0.0110510472492,0.0,0.0,0.0
1609056035490154982,256,1609056035490154982,0.319397088536,-0.308265146462,4.97745097715,0.994408612381,0.105542182021,0.00144706701666,-0.00320397150565,-0.156524544995,0.607313214901,-0.00232739240641,0.0,0.0,0.0
1609056035690331936,257,1609056035690331936,0.286829944677,-0.181517988272,4.97238702712,0.99321495336,0.116189905275,-0.002487386568,-0.00421606955222,-0.118460654661,0.600168582161,0.0136367014747,0.0,0.0,0.0
1609056035890258074,258,1609056035890258074,0.260577163133,-0.054757654144,4.97156266678,0.992029716767,0.125889561308,0.00259111677133,-0.00470590256886,-0.0936289838414,0.622170408081,0.0240838384963,0.0,0.0,0.0
1609056036090228081,259,1609056036090228081,0.239712656161,0.0723880869315,4.97281512471,0.990934049211,0.134166947882,0.00307740754235,-0.00628249730802,-0.0806806187124,0.631272395566,0.0113063952959,0.0,0.0,0.0
1609056036290393114,260,1609056036290393114,0.224125512829,0.202630092671,4.97548835012,0.989306807355,0.145772825235,0.000250188263501,-0.00471823598952,-0.0706567902384,0.658363745163,0.00999044315933,0.0,0.0,0.0
1609056036490509033,261,1609056036490509033,0.218011724247,0.342761899815,4.98012371854,0.987743922049,0.1556230517,-0.00958579457726,-0.00717793686146,-0.0170842336941,0.669409404282,0.0554129831888,0.0,0.0,0.0
1609056036690588951,262,1609056036690588951,0.226248971419,0.486911530979,5.00025531089,0.986300652407,0.164093190284,-0.0116285398184,-0.0122157695786,0.0593004454493,0.686763887145,0.108920835614,0.0,0.0,0.0
1609056036890590906,263,1609056036890590906,0.246386362578,0.631060389,5.02296321043,0.984599571842,0.173945944867,-0.00882326966608,-0.0151208897126,0.121029492198,0.684068201535,0.108227165014,0.0,0.0,0.0
1609056037090640068,264,1609056037090640068,0.280330661583,0.775311372025,5.03657459442,0.983166145099,0.182130183288,-0.00988612975405,-0.0107327491628,0.175045235159,0.674385009483,0.0666884279832,0.0,0.0,0.0
1609056037290726900,265,1609056037290726900,0.325457747785,0.925829299661,5.05046361699,0.981307092639,0.192140096794,-0.00486746103588,-0.00974068599326,0.236042198777,0.703274819331,0.0925754057793,0.0,0.0,0.0
1609056037490845919,266,1609056037490845919,0.400358652676,1.06949568825,5.05895819728,0.979847774958,0.19968418892,0.00248452506579,-0.00428832608655,0.279604332091,0.714021035888,0.0845447390498,0.0,0.0,0.0
1609056037690846920,267,1609056037690846920,0.454102166473,1.22479319275,5.07989502841,0.977691720487,0.209718819418,0.0101532290432,0.00581621988601,0.258270740694,0.776248082051,0.0763764392028,0.0,0.0,0.0
1609056037890845060,268,1609056037890845060,0.518781849248,1.38213422609,5.08986646497,0.97690979809,0.213248392017,0.00937650272787,0.00918971675578,0.246227742608,0.82530453523,0.0317028709856,0.0,0.0,0.0
1609056038090949059,269,1609056038090949059,0.57696345029,1.55330822593,5.09577916285,0.976092078509,0.21692100245,0.0116329297026,0.00736260241483,0.227062519012,0.883915920253,-0.00338874360768,0.0,0.0,0.0
1609056038290941000,270,1609056038290941000,0.637966005535,1.73347875644,5.09528056311,0.975547599677,0.219254624346,0.0141345661031,0.00587405380504,0.20823550192,0.931264564561,-0.0503249461369,0.0,0.0,0.0
1609056038491008043,271,1609056038491008043,0.680446930479,1.92841830462,5.08223944528,0.975433001186,0.219644722982,0.0162665743632,0.00469621361015,0.17299129897,0.967829044632,-0.0654123208383,0.0,0.0,0.0
1609056038691067934,272,1609056038691067934,0.728644413251,2.13052607083,5.0771524652,0.974789226202,0.222362684452,0.0184564575873,-0.000400270460032,0.129091210004,1.00798559597,-0.0117742070058,0.0,0.0,0.0
1609056038891113997,273,1609056038891113997,0.751860644087,2.32864223113,5.06962225041,0.973742355862,0.22652189653,0.0225042055244,-0.00268617316629,0.0722301569787,1.00599229567,-0.0135269840845,0.0,0.0,0.0
1609056039091293097,274,1609056039091293097,0.7697538522,2.52008904786,5.07267851935,0.971346090469,0.236470112728,0.0234174191363,-0.00450364274958,-0.00826850040541,1.01567220645,-0.0320526566085,0.0,0.0,0.0
1609056039291270018,275,1609056039291270018,0.782398358189,2.70296016954,5.07684978421,0.968333628335,0.247729736081,0.0163075191405,-0.0263443906165,-0.0453498101859,0.968117531571,-0.0027530125171,0.0,0.0,0.0
1609056039491349936,276,1609056039491349936,0.770139427888,2.87915590828,5.08040936447,0.964950005482,0.258641845819,0.0140093983047,-0.0421855339063,-0.0527749198565,0.842189220791,-0.0438628900141,0.0,0.0,0.0
1609056039691371918,277,1609056039691371918,0.752436201131,3.05023579186,5.05748509164,0.962467150276,0.269114144159,0.0114973627755,-0.0332019984728,-0.0482446785047,0.705679503162,-0.125688723081,0.0,0.0,0.0
1609056039891788006,278,1609056039891788006,0.726323505623,3.17892094193,5.0312024918,0.960697057204,0.276632255792,0.00108148259017,-0.023121196543,-0.0487018370902,0.643906678049,-0.112136606169,0.0,0.0,0.0
1609056040091545105,279,1609056040091545105,0.715075093042,3.31067365354,5.00429174291,0.957584713683,0.28751335382,0.00104055329511,-0.0191443136502,-0.0204307012806,0.604226001338,-0.0802912061093,0.0,0.0,0.0
1609056040291591883,280,1609056040291591883,0.696238540048,3.41316289304,4.99436894362,0.954788134187,0.296690891184,0.000592288135766,-0.018809122731,-0.0181240521295,0.589831109344,-0.0280039528401,0.0,0.0,0.0
1609056040491575956,281,1609056040491575956,0.684246172693,3.51498485743,4.99150379916,0.950781578228,0.309138679364,0.00173081102558,-0.0210872405924,-0.0100380681926,0.551386268138,-0.00949611800006,0.0,0.0,0.0
