%time,field.header.seq,field.header.stamp,field.pose.pose.position.x,field.pose.pose.position.y,field.pose.pose.position.z,field.pose.pose.orientation.x,field.pose.pose.orientation.y,field.pose.pose.orientation.z,field.pose.pose.orientation.w,field.twist.twist.linear.x,field.twist.twist.linear.y,field.twist.twist.linear.z,field.twist.twist.angular.x,field.twist.twist.angular.y,field.twist.twist.angular.z
1609046844830233097,5,1609046844830233097,0.00721712332988,0.00610320641234,-0.0111667416275,0.999611896836,-0.000156070655537,0.0275028830185,-0.00442975971342,-0.00565096128182,0.00120237708394,-0.00305608328373,0.0,0.0,0.0
1609046845030308962,6,1609046845030308962,0.00733172766225,0.00615012645917,-0.0110456590171,0.999611816433,-0.000140509631468,0.027501399947,-0.0044575448063,-0.00614539938659,0.000705254780157,-0.00288189269635,0.0,0.0,0.0
1609046845230395079,7,1609046845230395079,0.00461464841268,0.00359796353124,-0.00523052666221,0.999617618415,2.1967785232e-05,0.0272758982912,-0.0045433297031,-0.00522335208198,-0.000933026592154,-0.00340152304645,0.0,0.0,0.0
1609046845430569887,8,1609046845430569887,0.00525426894275,0.00488175184833,-0.00830502109138,0.999613426845,-0.000147357115056,0.0274406149846,-0.00447077241403,-0.00611010618774,-0.000993877437977,-0.00503106972466,0.0,0.0,0.0
1609046845630436897,9,1609046845630436897,0.00389664323685,0.00285008411331,-0.0082969999734,0.999615771715,2.58277338079e-05,0.0273392638765,-0.00456868934499,-0.00782941291759,-0.00454922071021,-0.00489539789545,0.0,0.0,0.0
1609046845830600023,10,1609046845830600023,0.00425957168648,0.00435580282398,-0.00750929136148,0.9996190427,-9.26462512203e-05,0.0272338299634,-0.00448100369688,-0.0057531237161,-0.00271686028727,-0.00331283622793,0.0,0.0,0.0
1609046846030569077,11,1609046846030569077,0.00338456590612,0.00280455594985,-0.00946020507821,0.99961739402,3.93934616805e-05,0.0272798556946,-0.00456875185207,-0.00768589163286,-0.00489548489408,-0.00421838381929,0.0,0.0,0.0
1609046846230647087,12,1609046846230647087,0.00348977027886,0.0041902885483,-0.0106851432193,0.999617137974,-5.45837839019e-05,0.0272887893665,-0.0045712649968,-0.00889919996442,-0.00480595814983,-0.00401864423028,0.0,0.0,0.0
1609046846430676937,13,1609046846430676937,0.00337629165768,0.00397183556648,-0.00998630357134,0.99961827961,-1.99737875283e-05,0.0272453985248,-0.00458071285948,-0.00796450054543,-0.00395297477411,-0.00335230351641,0.0,0.0,0.0
1609046846630778074,14,1609046846630778074,0.00323786268829,0.00328077699948,-0.00832330193035,0.999620086996,3.69594667555e-05,0.0271832866396,-0.00455513299069,-0.00764350116868,-0.00381792734937,-0.00194716825918,0.0,0.0,0.0
1609046846830800056,15,1609046846830800056,0.0078284739638,0.00586606814187,-0.0027432721864,0.999628205348,5.70547780175e-05,0.0268970992328,-0.00447145060504,-0.0021007524504,-0.00338804349143,0.0024516229535,0.0,0.0,0.0
1609046847031071901,16,1609046847031071901,0.00540659827317,0.00509210753378,-0.00922280256527,0.999620993345,-2.03715392426e-05,0.0271582121351,-0.00450563681695,-0.00778304812424,-0.00518163087286,-0.0026235017337,0.0,0.0,0.0
1609046847230940104,17,1609046847230940104,0.0060315694646,0.00558581528626,-0.0100123449114,0.999608233877,-0.000156855449479,0.0276630234104,-0.00425573689527,-0.0118496135594,-0.00215553532353,-0.00245544805693,0.0,0.0,0.0
1609046847431386948,18,1609046847431386948,0.00428603711664,0.00325436609701,-0.00916488123056,0.999622796263,4.83530807197e-05,0.0270877828865,-0.00452933465669,-0.00832033010411,-0.00709897599437,-0.00111861962291,0.0,0.0,0.0
1609046847631073952,19,1609046847631073952,0.00522595728815,0.00960338664204,-0.0128400937842,0.999617562178,-0.000163403905791,0.0272960695988,-0.00443026739817,-0.00975977813382,-0.00163727007886,-0.00316378813189,0.0,0.0,0.0
1609046847831897020,20,1609046847831897020,0.00524022158144,0.00889529702857,-0.00994175895173,0.999622313616,-0.000137044016426,0.0271174595334,-0.00445586443507,-0.00761018527349,-0.00257264083876,-0.00108210056764,0.0,0.0,0.0
1609046848031394958,21,1609046848031394958,0.00533859742126,0.00892271634506,-0.0106068428212,0.999622583893,-0.000123459775582,0.0271092506955,-0.00444556575657,-0.00754257844047,-0.00293980407082,-0.00185677989857,0.0,0.0,0.0
1609046848231969118,22,1609046848231969118,0.00618029926968,0.0083966174065,-0.00965068194454,0.999623276463,-0.000104533296178,0.0270784445394,-0.00447795357239,-0.00640073706918,-0.00275916803429,-0.00013339469152,0.0,0.0,0.0
1609046848431411982,23,1609046848431411982,0.00577268470527,0.00814310449202,-0.00950013988316,0.99962353179,-0.000103287768316,0.0270729932289,-0.00445388164452,-0.00669189239508,-0.00270140643734,-0.000695447999212,0.0,0.0,0.0
1609046848631350040,24,1609046848631350040,0.00618134688053,0.00817060735565,-0.00912076925616,0.999623929711,-0.000100282913008,0.0270587027202,-0.0044514829346,-0.00541601353597,-0.00141523047344,-0.000386869771011,0.0,0.0,0.0
1609046848831650972,25,1609046848831650972,0.00660078675482,0.00868892520187,-0.00897652227191,0.99962495735,-9.50779565539e-05,0.0270213099375,-0.00444796725928,-0.00490970306467,-0.000595392587643,-0.00217200742259,0.0,0.0,0.0
1609046849031455040,26,1609046849031455040,0.00811246715614,0.00689745938524,-0.00773003456009,0.999612988854,-0.000102565875221,0.0274804137461,-0.00432306090325,-0.00798069571749,-0.000720044732456,-0.00125473640984,0.0,0.0,0.0
1609046849231677055,27,1609046849231677055,0.00738969675057,0.0068247777602,-0.00818113118955,0.999624259966,-1.01579373735e-07,0.0270346730558,-0.00452386341852,-0.00561463152753,-0.00317786240925,-0.00182705030157,0.0,0.0,0.0
1609046849432035923,28,1609046849432035923,0.00662353401455,0.00807461245428,-0.00914003796095,0.999622891097,-0.000103188436054,0.0270862720567,-0.00451650460083,-0.00734036420308,-0.00247135091599,-0.00184879813339,0.0,0.0,0.0
1609046849631663084,29,1609046849631663084,0.00605397956742,0.00831660350389,-0.00956592243168,0.999624193538,-0.000112869955592,0.0270415022383,-0.00449623304209,-0.00761471346676,-0.00278036056902,-0.00156839857622,0.0,0.0,0.0
1609046849831926107,30,1609046849831926107,0.00583834714763,0.00902613603561,-0.00876723887825,0.999625321858,-0.000155133905629,0.0269985972976,-0.00450195266194,-0.00660506238426,-0.0010292456245,7.36396141761e-05,0.0,0.0,0.0
1609046850031815052,31,1609046850031815052,0.0055405576039,0.00886548250624,-0.00933079178905,0.999625083758,-0.000120608626508,0.026999240719,-0.00455174422539,-0.00658913470801,-0.00079296055676,-0.00172807146611,0.0,0.0,0.0
1609046850231843948,32,1609046850231843948,0.0087320282362,0.0102389547245,-0.011430420692,0.999612788667,-0.000217814359979,0.0274703010738,-0.00442807516163,-0.00565013025805,0.000864545197315,-0.0061226583307,0.0,0.0,0.0
1609046850431929111,33,1609046850431929111,0.00635127107812,0.00930730586577,-0.00905332627095,0.999625911077,-0.000136049366701,0.0269619824507,-0.00459030456263,-0.00600767838383,-0.000769466500356,-0.00149039168786,0.0,0.0,0.0
1609046850631968021,34,1609046850631968021,0.00666383308571,0.00974160039951,-0.00989500492236,0.999624631559,-0.000145935562379,0.0269991295028,-0.00464991289959,-0.00617840287639,-0.00253351907983,-0.00237458308197,0.0,0.0,0.0
1609046850832046986,35,1609046850832046986,0.0062042314906,0.00955526262915,-0.0104644416305,0.999625522832,-0.000148810585998,0.026966197218,-0.00464931891966,-0.00613695805886,-0.00377755780185,-0.00303766378647,0.0,0.0,0.0
1609046851032077074,36,1609046851032077074,0.00746069301603,0.00934502612449,-0.00971367917375,0.999626640032,-8.55291072692e-05,0.02691494025,-0.00470735757438,-0.00367745195099,-0.00326096787864,-0.00266571441106,0.0,0.0,0.0
1609046851232172966,37,1609046851232172966,0.0081823779211,0.00959030996902,-0.00930948753739,0.999627851011,-9.95492402028e-05,0.0268781376142,-0.00465996681008,-0.00287518853742,-0.00270630844143,-0.00219317859861,0.0,0.0,0.0
1609046851432135105,38,1609046851432135105,0.00884686269029,0.00984848336009,-0.00931110568617,0.999627139222,-9.6910900719e-05,0.0268970536103,-0.00470336532727,-0.00353883685768,-0.00135255921178,-0.000385476606981,0.0,0.0,0.0
1609046851632257938,39,1609046851632257938,0.00934369894653,0.0102276496881,-0.00978330262648,0.999626203679,-0.000134615711801,0.0269329129536,-0.00469606175673,-0.00334761616694,-0.00244029566626,-0.000357168866118,0.0,0.0,0.0
1609046851832251072,40,1609046851832251072,0.0100944789938,0.0116618056112,-0.014632432935,0.99961019412,-0.000195981410494,0.0275280260063,-0.0046507190478,-0.00629401111459,-0.00011848319905,-0.00547345652555,0.0,0.0,0.0
1609046852032355070,41,1609046852032355070,0.0107954596205,0.0109176678594,-0.0103956147561,0.999625470115,-0.000112068469402,0.0269497987187,-0.00475555323359,-0.00375751790576,-0.00170263910157,-0.00128658906094,0.0,0.0,0.0
1609046852232409000,42,1609046852232409000,0.0112786826027,0.0110835989105,-0.0108131040864,0.999623087231,-9.85487173863e-05,0.0270311272997,-0.00479498906972,-0.00523151425535,-0.00227119467379,-0.00322794966191,0.0,0.0,0.0
1609046852432472944,43,1609046852432472944,0.0111272039233,0.0111740949313,-0.0106159617185,0.999624553746,-0.000100156194426,0.0269755559397,-0.00480217635114,-0.00511834994424,-0.00208233915868,-0.00168591802085,0.0,0.0,0.0
1609046852632524014,44,1609046852632524014,0.011141377646,0.0111917818497,-0.0108923836001,0.999625565777,-9.90433809715e-05,0.0269354980766,-0.0048163656789,-0.00490354382542,-0.00243735505496,-0.00240606524968,0.0,0.0,0.0
1609046852832560062,45,1609046852832560062,0.0110663913754,0.0110695574905,-0.0112865472725,0.999626547727,-7.27012125147e-05,0.026892958771,-0.00485062495642,-0.00490806144757,-0.00214692989513,-0.00277093874359,0.0,0.0,0.0
1609046853032640934,46,1609046853032640934,0.0115266910947,0.0110924567309,-0.0113502421395,0.99962715164,-7.03461314785e-05,0.0268702536356,-0.00485203305764,-0.00394967896298,-0.0021871025319,-0.00219043568829,0.0,0.0,0.0
1609046853232671022,47,1609046853232671022,0.0119665584361,0.0115230772477,-0.0110822648248,0.999628194899,-5.38320644052e-05,0.0268275695305,-0.0048734565464,-0.00445964249048,-0.00216777663914,-0.002645925396,0.0,0.0,0.0
1609046853432734966,48,1609046853432734966,0.0119453680287,0.0121478272957,-0.0113251782894,0.999629124227,-0.000105418768879,0.0267949862955,-0.00486123364908,-0.00423755277481,-0.0010012575285,-0.00183369151101,0.0,0.0,0.0
1609046853632817030,49,1609046853632817030,0.0125915909368,0.0128927705101,-0.011469116205,0.999630333863,-6.68192817492e-05,0.0267396828162,-0.00491736911514,-0.00337068063375,-0.00273948258456,-0.00155445186696,0.0,0.0,0.0
1609046853832943916,50,1609046853832943916,0.0135690455913,0.0135914135091,-0.0118855318656,0.99962625543,-7.5490184808e-05,0.0268862204977,-0.00494721163369,-0.0037906009273,-0.00263818401282,-0.00138933744086,0.0,0.0,0.0
1609046854032959938,51,1609046854032959938,0.013764416908,0.0133263933038,-0.0114081226121,0.999628975954,-1.2988667766e-05,0.026773571112,-0.00500860807701,-0.00340517165098,-0.00335266094766,-0.0011992392664,0.0,0.0,0.0
1609046854233007908,52,1609046854233007908,0.0139920695895,0.0148295808631,-0.0138856894811,0.999615169271,-0.000118875475514,0.0272871983955,-0.00499079514572,-0.00705112267037,-0.00310535080896,-0.00291403731331,0.0,0.0,0.0
1609046854433140039,53,1609046854433140039,0.0138036619056,0.0132366525242,-0.0113136402201,0.999628678624,2.57953696146e-05,0.0267662790962,-0.00510592895916,-0.0049578303399,-0.00427595920437,-0.000442648333247,0.0,0.0,0.0
1609046854633117914,54,1609046854633117914,0.0133146764305,0.0130338102384,-0.0114224676191,0.999627079271,-1.9243243691e-06,0.0268249528904,-0.00511119227548,-0.00612783741523,-0.00434068269135,-0.000961304884031,0.0,0.0,0.0
1609046854833157063,55,1609046854833157063,0.0133515929037,0.0129903638216,-0.011844234359,0.999628882697,1.91001045959e-05,0.026755767695,-0.00512107481501,-0.00418168498229,-0.00299927208937,-0.000941915465408,0.0,0.0,0.0
1609046855033272028,56,1609046855033272028,0.013426524502,0.0129392054949,-0.0121171473594,0.999629291137,6.25463002646e-05,0.0267336960715,-0.0051561500717,-0.00408140487673,-0.00393121065183,-0.000746932304301,0.0,0.0,0.0
1609046855233355999,57,1609046855233355999,0.0135652848199,0.0129030819353,-0.0120389363368,0.999629786517,6.25662758625e-05,0.0267166395146,-0.00514851112299,-0.00346905458525,-0.00357422905004,-0.00102983059101,0.0,0.0,0.0
1609046855433396101,58,1609046855433396101,0.0138948723628,0.0133976268938,-0.012474626643,0.999629866452,6.12286026284e-06,0.0267122285729,-0.00515624912438,-0.00448354031106,-0.00420589586199,-0.00164625787339,0.0,0.0,0.0
1609046855633421898,59,1609046855633421898,0.0137668771029,0.0132231777135,-0.0122562913473,0.999630875397,5.24717943778e-05,0.026664746974,-0.00520590706068,-0.00382856761324,-0.00319541732944,-0.00244885412102,0.0,0.0,0.0
1609046855833446026,60,1609046855833446026,0.0138478308954,0.0133422833367,-0.0124506138792,0.999631130962,4.90945157813e-05,0.026652864789,-0.00521770059255,-0.00306473482558,-0.00382706340774,-0.00184486831378,0.0,0.0,0.0
1609046856033520937,61,1609046856033520937,0.0139242073861,0.0132871554861,-0.0123365817668,0.999631937834,4.38895753065e-05,0.0266296712567,-0.00518146169544,-0.00294819045646,-0.00426917053025,-0.00238392968001,0.0,0.0,0.0
1609046856233570099,62,1609046856233570099,0.0140728573537,0.0133466656198,-0.0122344644677,0.999632817247,5.84374759987e-05,0.0265948776597,-0.00519035169945,-0.00256685813918,-0.00305284113327,-0.000527527094712,0.0,0.0,0.0
1609046856433653116,63,1609046856433653116,0.0143202291656,0.0136305115902,-0.0120080178747,0.999633077261,5.94117626692e-05,0.0265841462681,-0.00519523650461,-0.00264580520465,-0.00250674440699,-0.000191504565556,0.0,0.0,0.0
1609046856633719921,64,1609046856633719921,0.0143765006013,0.0138263362077,-0.0119657628718,0.999633245031,3.75291938345e-05,0.0265829162344,-0.00516938928741,-0.00265728114116,-0.00115202100847,-0.000554434213463,0.0,0.0,0.0
1609046856833781958,65,1609046856833781958,0.0145270422709,0.0139536553622,-0.011847455405,0.999633909379,5.04974153877e-05,0.0265467931133,-0.00522613094133,-0.00204194174805,-0.00174544988822,-0.00037685642626,0.0,0.0,0.0
1609046857033842087,66,1609046857033842087,0.014647668427,0.0140951797415,-0.0118875120889,0.999634712276,3.30389009159e-05,0.0265270410161,-0.00517271841978,-0.00144886789014,-0.00076378044233,-0.000240798739471,0.0,0.0,0.0
1609046857233896017,67,1609046857233896017,0.0150417569765,0.0148131544287,-0.0119224125171,0.999632900431,2.75594147849e-05,0.0265886121416,-0.0052066612811,-0.00124880834449,-0.000221924978943,-0.00114404656524,0.0,0.0,0.0
1609046857433926105,68,1609046857433926105,0.0151009482653,0.014671351473,-0.0117904114703,0.999634321124,2.12517943155e-05,0.0265305152495,-0.00523023333556,-0.00131607576815,-0.00120159473964,-0.00156749328989,0.0,0.0,0.0
1609046857634017944,69,1609046857634017944,0.0150510850383,0.014466726636,-0.0120380676224,0.999634479452,3.57775248451e-05,0.0265219891812,-0.00524311941509,-0.00156017336726,-0.000774358844167,-0.00171224699368,0.0,0.0,0.0
1609046857834074974,70,1609046857834074974,0.0151540907383,0.0145692381893,-0.0118569466015,0.999635457251,2.93208094161e-05,0.0264862471663,-0.00523740943323,-0.00123695172459,-0.000791214605143,-0.00105183246326,0.0,0.0,0.0
1609046858034127951,71,1609046858034127951,0.0150957636993,0.0145188957557,-0.0120072656998,0.999635472198,4.58848413481e-05,0.026485773685,-0.00523683204725,-0.00201852983218,-0.000559317334707,-0.00117443096529,0.0,0.0,0.0
1609046858234189034,72,1609046858234189034,0.0151067833464,0.0145755910608,-0.0119152527439,0.999635915242,6.39335034753e-05,0.0264562281655,-0.00530102458175,-0.00186982403938,-0.000660697975839,-0.000355873023836,0.0,0.0,0.0
1609046858434312105,73,1609046858434312105,0.0151720699717,0.0145666197882,-0.0118941164973,0.999636929534,5.83239410229e-05,0.0264194400288,-0.00529328816463,-0.00153371641403,-0.00113589936668,-0.000558726007069,0.0,0.0,0.0
1609046858634329081,74,1609046858634329081,0.015300947594,0.0149217483683,-0.0122679681546,0.999625563262,-6.36760010129e-07,0.0268580016729,-0.00523268754166,-0.00402687722522,-0.000225050779393,-0.00076016782612,0.0,0.0,0.0
1609046858834381104,75,1609046858834381104,0.0153428342421,0.0149118381558,-0.0120456304238,0.999635513655,2.99964193437e-05,0.0264689152284,-0.00531370551387,-0.00160001894522,4.63106795273e-05,-0.000581298955601,0.0,0.0,0.0
1609046859034420967,76,1609046859034420967,0.0155818793367,0.0152176326175,-0.0121510750337,0.999635536528,6.31552962593e-05,0.0264495669309,-0.00540467673252,-0.00131328568063,-0.000944043310859,-0.000923579446914,0.0,0.0,0.0
1609046859234447002,77,1609046859234447002,0.0156580803475,0.0151943553409,-0.0121500538891,0.999636968746,5.51246048814e-05,0.0263947678045,-0.00540776386333,-0.00117118641446,-0.000644314383204,-0.00106775606252,0.0,0.0,0.0
1609046859434528112,78,1609046859434528112,0.0156804784419,0.0152194027334,-0.0121804750425,0.999637055881,5.98838682751e-05,0.0263884039595,-0.00542264329865,-0.00162503682712,-0.000598584524366,-0.000677488212691,0.0,0.0,0.0
1609046859634588003,79,1609046859634588003,0.0156008212435,0.0152360875294,-0.0121798574657,0.999638635745,5.13580400102e-05,0.026330021818,-0.0054152782781,-0.0015852188177,-0.000796629499829,-0.00112394856731,0.0,0.0,0.0
1609046859834659100,80,1609046859834659100,0.0155369975582,0.0152302315897,-0.0121440338342,0.999639317587,7.44004326342e-05,0.0262881023761,-0.00549225575014,-0.00127819055624,-0.000456014189406,-0.00106577841563,0.0,0.0,0.0
1609046860034702063,81,1609046860034702063,0.0155487571327,0.0152492532541,-0.012189145528,0.999639078355,7.2548860373e-05,0.0262948677073,-0.00550342574163,-0.00171716198688,-5.47762763501e-05,-0.000886199062406,0.0,0.0,0.0
1609046860234796047,82,1609046860234796047,0.0155590976791,0.0152411863632,-0.0121325574419,0.999639946837,8.93061114362e-05,0.0262457982313,-0.00557913857036,-0.00129222291666,-0.000807835474268,-0.000703809022826,0.0,0.0,0.0
1609046860434853077,83,1609046860434853077,0.0155644165401,0.0152674222234,-0.0121261955873,0.999641872606,4.3485699599e-05,0.0261809324501,-0.00553926142619,-0.00103721515923,-0.000527923961735,-0.000900109353044,0.0,0.0,0.0
1609046860634886980,84,1609046860634886980,0.0156041908045,0.0152837625119,-0.0121243134157,0.999642438365,4.48690424399e-05,0.0261567079357,-0.00555157962334,-0.000816637387352,-0.00116238157931,-0.000454210453291,0.0,0.0,0.0
1609046860834964037,85,1609046860834964037,0.0156502004024,0.0152515883796,-0.0121355612555,0.999643455996,1.97007942347e-05,0.0261150189622,-0.00556473551677,-0.000492142648547,-0.000355373351378,-0.000620996565833,0.0,0.0,0.0
1609046861035022974,86,1609046861035022974,0.0156469749468,0.0152659602464,-0.0121443867836,0.999643653857,4.27283344787e-05,0.0260945745016,-0.00562464747667,-0.000568543806075,-0.0010895153081,-0.00174135023911,0.0,0.0,0.0
1609046861235039949,87,1609046861235039949,0.0157185367249,0.0152749880293,-0.0122244306736,0.999644432715,7.3333087199e-05,0.0260623932021,-0.00563510646126,-0.00128136774099,-0.000856960903812,-0.00161060391135,0.0,0.0,0.0
1609046861435123920,88,1609046861435123920,0.0158149394012,0.0152604038925,-0.012264619455,0.999646107613,6.85008301141e-05,0.0259934362105,-0.00565651091361,-0.000939556374711,-0.000364797350916,-0.000838519082683,0.0,0.0,0.0
1609046861635169983,89,1609046861635169983,0.015749317394,0.0152795804342,-0.0122605191611,0.999646182374,7.12454506148e-05,0.0259719766378,-0.00574120360318,-0.00127617644409,-1.46835267452e-05,-0.000322059914035,0.0,0.0,0.0
1609046861835241079,90,1609046861835241079,0.0157854443266,0.0153220523346,-0.0124393270377,0.999645975891,8.99725136653e-05,0.025969787078,-0.00578661811928,-0.00185107928647,-0.0013435819897,-0.00147546720202,0.0,0.0,0.0
1609046862035290003,91,1609046862035290003,0.0157948991951,0.0153338468098,-0.0125183707252,0.999646678794,9.14881102068e-05,0.025922338935,-0.00587720604602,-0.000603126483014,-0.000340178897134,-0.00174804933607,0.0,0.0,0.0
1609046862235346079,92,1609046862235346079,0.015971066033,0.0153424644246,-0.0128327674484,0.999646437855,0.000117349061589,0.0259211182888,-0.00592293338217,-0.00176910417802,-0.00179098560678,-0.00112724005664,0.0,0.0,0.0
1609046862435406923,93,1609046862435406923,0.0162268935207,0.0160907829142,-0.0137722045089,0.999645898258,1.76022080514e-05,0.0259326250349,-0.00596462446537,-0.00244132013024,-0.00160935393816,-0.00107503474181,0.0,0.0,0.0
1609046862635481119,94,1609046862635481119,0.0165599809893,0.0161455356848,-0.0139262499958,0.999646781673,3.0944543835e-05,0.0258846374304,-0.00602465589395,-0.00215191742471,-0.00189849380303,-0.000847220107869,0.0,0.0,0.0
1609046862835520983,95,1609046862835520983,0.0162886188347,0.0166207507732,-0.015336686461,0.999635377337,-8.17555334599e-05,0.0263265797062,-0.00600140760868,-0.0054661182574,-0.00214539313021,-0.00301753196182,0.0,0.0,0.0
1609046863035615921,96,1609046863035615921,0.0158138510686,0.0162206119815,-0.0139009032021,0.999648231639,8.33119018905e-06,0.0258046822368,-0.00612627830523,-0.00346724208167,-0.00126047326973,-0.00104398997831,0.0,0.0,0.0
1609046863235670090,97,1609046863235670090,0.0156934756983,0.0177956334613,-0.0148436057825,0.999648537021,-4.36160953907e-05,0.0257702521296,-0.00622050107254,-0.00352280260377,-0.000553257771326,-0.000246747817397,0.0,0.0,0.0
1609046863435761929,98,1609046863435761929,0.0158528631429,0.0178569915411,-0.0148515864435,0.999651453673,-8.24453379499e-06,0.0256420876883,-0.00628127702531,-0.00273084744008,-0.002014046362,-0.000516233166907,0.0,0.0,0.0
1609046863635766029,99,1609046863635766029,0.0160173691042,0.0176651354275,-0.0147411476284,0.999653063417,4.81932776185e-05,0.025557924746,-0.00636733545495,-0.00190199553709,-0.000310776313307,-0.000419589936649,0.0,0.0,0.0
1609046863835803032,100,1609046863835803032,0.0162241993215,0.0179133594251,-0.0147960677127,0.999654137484,-2.33727411438e-05,0.0255061622004,-0.00640629030128,-0.00126703876686,-0.000335695525797,-0.000574934003083,0.0,0.0,0.0
1609046864035865068,101,1609046864035865068,0.016209155175,0.0179182244714,-0.0147937615588,0.999655193684,-1.73394832814e-05,0.0254382510669,-0.00651066991531,-0.00186391660831,-0.00147251828296,-0.00107035477202,0.0,0.0,0.0
1609046864235940933,102,1609046864235940933,0.016012599721,0.0179496984598,-0.0147805194381,0.999656510819,-3.14200795649e-05,0.0253765517948,-0.00654904645702,-0.00236688339577,-0.000669808583958,-0.000857353239443,0.0,0.0,0.0
1609046864436005116,103,1609046864436005116,0.0159788889286,0.0179263922346,-0.0147627266997,0.999658070445,-4.95652202809e-06,0.0252805834198,-0.00668088854879,-0.00239644347703,-0.000792226990016,-0.00134499117552,0.0,0.0,0.0
1609046864636085033,104,1609046864636085033,0.0159181120923,0.0178048315274,-0.0147830172673,0.999658860863,2.31914023915e-05,0.025214931088,-0.00680945009918,-0.00165572524846,-0.000477745545406,-0.00137696081575,0.0,0.0,0.0
1609046864836113930,105,1609046864836113930,0.0160098060516,0.0177426940411,-0.0147832375949,0.999660491909,1.2317315277e-05,0.0251306309567,-0.00688128994492,-0.00115384237867,-0.000867005784595,-0.000124190324621,0.0,0.0,0.0
1609046865036322117,106,1609046865036322117,0.0162585052713,0.0178471090892,-0.0147797010169,0.999660827411,6.70443377375e-06,0.0250897020441,-0.00698118514421,-0.00156133414867,-0.000559420696231,-0.00117818124955,0.0,0.0,0.0
1609046865236316919,107,1609046865236316919,0.0161815945576,0.0177710260071,-0.014770018397,0.999662678286,2.80899713187e-05,0.0249867869756,-0.00708444281995,-0.00120154972254,-0.00130213048321,-0.000970818424892,0.0,0.0,0.0
1609046865436347961,108,1609046865436347961,0.0160817525434,0.0177570982014,-0.0147866456538,0.999664314077,2.0151363436e-05,0.0249071368926,-0.00713395311392,-0.00189760705696,-0.000631705800943,-0.00102436500984,0.0,0.0,0.0
1609046865636351109,109,1609046865636351109,0.0161007783123,0.0176657156177,-0.0147881934121,0.999665475632,1.20122487332e-05,0.0248303832438,-0.00723800752714,-0.00155053431442,-0.00111364600458,-0.00101278391096,0.0,0.0,0.0
1609046865836467028,110,1609046865836467028,0.0162510404759,0.017688568685,-0.0147956055662,0.999666733151,1.05503834522e-05,0.0247464193685,-0.00735100323272,-0.00181484773805,-0.00111760828386,-0.00112161599673,0.0,0.0,0.0
1609046866036529064,111,1609046866036529064,0.0164469328476,0.0177467485982,-0.0147852452154,0.999668110045,5.89780229233e-06,0.0246554029124,-0.00746865658139,-0.000495703714683,-0.000596047867329,-0.000806674022163,0.0,0.0,0.0
1609046866236553907,112,1609046866236553907,0.0162126772111,0.0176617555765,-0.014762925137,0.999669345242,9.78419897173e-06,0.0245745835943,-0.00756901103693,-0.00107291849577,-0.000292861170446,-0.000314271981256,0.0,0.0,0.0
1609046866436656952,113,1609046866436656952,0.0162645295883,0.0175871930341,-0.0147646518352,0.999670511173,-2.04841969797e-05,0.0244989295303,-0.00765970775169,-0.00053072592656,-0.000600642229696,-0.00161234643441,0.0,0.0,0.0
1609046866636717081,114,1609046866636717081,0.0161371158918,0.0174679204946,-0.0147476950369,0.99967043406,-5.56076353565e-06,0.0244465730455,-0.0078350686687,-0.00122262879805,-0.00111288696018,-0.00167702709703,0.0,0.0,0.0
1609046866836746931,115,1609046866836746931,0.0159805441236,0.0172901437652,-0.0147253157646,0.999671761439,2.18891958218e-06,0.0243544811244,-0.00795164301796,-0.000907709421072,-0.00175658088829,-0.00176842441462,0.0,0.0,0.0
1609046867036847115,116,1609046867036847115,0.016040057677,0.0172727437272,-0.0147340150372,0.999672386884,-9.81115654107e-06,0.0242966397104,-0.00804935424351,-0.00128546899025,-0.000946686292137,-0.000776881317928,0.0,0.0,0.0
1609046867236780882,117,1609046867236780882,0.0160947586979,0.0171887428929,-0.0147133349231,0.999673803907,9.79490444817e-06,0.0241980569707,-0.00816943847225,-0.00112510503645,-0.00164497322734,-0.00142302272862,0.0,0.0,0.0
1609046867436999083,118,1609046867436999083,0.0160113347246,0.0170594634925,-0.0146791569417,0.999674745084,3.98269795328e-05,0.0241036214374,-0.00833173980377,-0.000875946763276,-0.00129495282926,-0.0011830374291,0.0,0.0,0.0
1609046867636982918,119,1609046867636982918,0.0163632426616,0.0172877878557,-0.0147333202741,0.999675389127,1.08490842188e-05,0.0240381023798,-0.00844309719739,-0.000508002730357,-0.000811446350544,-0.000700203822593,0.0,0.0,0.0
1609046867836991072,120,1609046867836991072,0.0165834970098,0.0173654569711,-0.0147379584712,0.999675598091,7.8500204805e-06,0.0240081554996,-0.00850335166461,-0.00116088811043,-0.0010199337393,-0.000872636129055,0.0,0.0,0.0
1609046868037098885,121,1609046868037098885,0.0167345608208,0.0174268410875,-0.0147501948912,0.999676715399,-3.64510034372e-06,0.0239344653494,-0.0085793964874,-0.00134667589331,-0.000813735805986,-0.000753477501444,0.0,0.0,0.0
1609046868237257004,122,1609046868237257004,0.0169350359977,0.0175226658135,-0.0147640367828,0.999676239252,2.71422843511e-06,0.0239106747735,-0.00870036202243,-0.000761943522893,-0.0011193744634,-0.0013630643282,0.0,0.0,0.0
1609046868437284946,123,1609046868437284946,0.0172377446003,0.0176337572899,-0.0147822388228,0.999676153905,-2.17893896217e-05,0.0238951310891,-0.00875268810608,-0.000738537641688,-0.00134021750077,-0.00117329871985,0.0,0.0,0.0
1609046868637284994,124,1609046868637284994,0.0175680436129,0.0177013416616,-0.0151049374954,0.999674904937,-2.89271024997e-05,0.0239449283569,-0.00875922422399,-0.000671209332484,-0.00122645888877,-0.000734106374589,0.0,0.0,0.0
1609046868837323904,125,1609046868837323904,0.0176431758558,0.0175087312869,-0.0150588237069,0.99967564173,-4.26197592406e-05,0.0239241548062,-0.00873180004635,-0.00108570345352,-0.00160280263707,-0.00105542068819,0.0,0.0,0.0
1609046869037375927,126,1609046869037375927,0.0177249952189,0.017884953897,-0.0152425413792,0.999676051034,-4.64862141233e-05,0.0239047538417,-0.00873805313407,-0.000982376285101,-8.02061014067e-05,-0.00100369469935,0.0,0.0,0.0
1609046869237448931,127,1609046869237448931,0.0179292829235,0.0176853201738,-0.0150740583134,0.999675338807,-2.41694494354e-05,0.0238981438368,-0.00883714422173,-0.000880778873376,-0.000678235893368,-0.000432065878077,0.0,0.0,0.0
1609046869437495947,128,1609046869437495947,0.0174193342204,0.01752623093,-0.0150221861628,0.999675673295,-4.83021131033e-05,0.023887837538,-0.00882706669963,-0.0010777715392,-0.00173413651146,9.60096133778e-05,0.0,0.0,0.0
1609046869637548923,129,1609046869637548923,0.0177267809484,0.0182040733767,-0.0154052116611,0.999675517349,-8.53183423258e-05,0.0239193621191,-0.00875881549866,-0.00136674484094,0.000218241218823,-0.00144828097675,0.0,0.0,0.0
1609046869837625980,130,1609046869837625980,0.0183089730763,0.0178438242449,-0.0150760637021,0.999675913479,-4.98453129868e-05,0.0238697974752,-0.0088486322743,3.6072912588e-07,-0.00126530124131,-0.000235342257428,0.0,0.0,0.0
1609046870037676096,131,1609046870037676096,0.0177371072317,0.0181707856144,-0.0156041528097,0.999674460873,-5.62744415286e-05,0.023921283729,-0.00887362925869,-0.00244872518551,-0.000999105259029,-0.00146162649798,0.0,0.0,0.0
1609046870237763882,132,1609046870237763882,0.0185710872963,0.0174502602332,-0.0171109775064,0.999662657461,-3.89003201426e-06,0.0244150309346,-0.00885875430484,-0.00813777060348,-0.00172704480544,-0.00149816924773,0.0,0.0,0.0
1609046870437791109,133,1609046870437791109,0.0198531246275,0.0174530460683,-0.0157264536197,0.999671243262,-4.4856016012e-05,0.0240149585346,-0.00898249129631,-0.0034943309254,-0.00218893602796,-0.000351680509729,0.0,0.0,0.0
1609046870637866020,134,1609046870637866020,0.0201792943903,0.0172753606463,-0.015545129556,0.99967121683,1.3014180898e-05,0.0239760695084,-0.00908879331761,-0.00349425391032,-0.00156573743728,-0.00063565837821,0.0,0.0,0.0
1609046870837956905,135,1609046870837956905,0.0201046853196,0.017307359374,-0.0157970291285,0.999670316485,2.70218674045e-05,0.0239957346185,-0.00913577193003,-0.00457652259077,-0.00174561675966,-0.000683024007598,0.0,0.0,0.0
1609046871037941933,136,1609046871037941933,0.0205287157415,0.0181767603221,-0.0161528396466,0.999669286923,4.91178181548e-06,0.0240009373938,-0.00923427113603,-0.00470236876102,0.000184133073162,-0.000351464740396,0.0,0.0,0.0
1609046871237996101,137,1609046871237996101,0.0202293334164,0.0182403287524,-0.0160119527371,0.999669780131,2.03631635452e-05,0.0239519058523,-0.00930787214838,-0.005144244301,-0.000395612475936,0.000177195633142,0.0,0.0,0.0
1609046871438059092,138,1609046871438059092,0.0207542127838,0.01811560912,-0.0169595373058,0.99966060524,-4.2030722997e-05,0.0243656615093,-0.00921884504413,-0.00666974698656,-0.000452866349114,-0.000827092520027,0.0,0.0,0.0
1609046871638135910,139,1609046871638135910,0.0200914836163,0.0178157733628,-0.0161153980295,0.999670327759,7.10644848815e-05,0.0239020912725,-0.00937660814728,-0.00523608038456,-0.00164620680016,0.000176353813363,0.0,0.0,0.0
1609046871838211060,140,1609046871838211060,0.0201208355242,0.0183267633279,-0.0163747486053,0.99967009689,3.52184627669e-05,0.0238912075115,-0.00942901624917,-0.00493114506493,-0.00118936009809,-5.79957997399e-05,0.0,0.0,0.0
1609046872038256884,141,1609046872038256884,0.0201985214354,0.0183455135257,-0.0162942106223,0.999671657806,3.80019120416e-05,0.02382727634,-0.0094252871709,-0.00385539344106,-0.000484333306057,0.000215000954849,0.0,0.0,0.0
1609046872238784075,142,1609046872238784075,0.0206087162418,0.0182971456899,-0.0163437175409,0.999672429058,6.16659069895e-05,0.0237724126889,-0.00948172842586,-0.00218156368236,-0.000500368274474,-0.000773817932593,0.0,0.0,0.0
1609046872439039946,143,1609046872439039946,0.0211289904217,0.0184103726642,-0.0167087449091,0.999671218276,0.000117243248313,0.0237932671272,-0.00955625683312,-0.00139672721084,-0.00145883124089,-0.000277969555433,0.0,0.0,0.0
1609046872638426065,144,1609046872638426065,0.0210780571888,0.0184070119564,-0.016677172916,0.999671328328,0.000115872445961,0.0237797265743,-0.00957843912263,-0.00176799348335,-0.000762437810987,-0.000872895910195,0.0,0.0,0.0
1609046872838819027,145,1609046872838819027,0.0209414055778,0.018389183779,-0.0169560537366,0.999663405086,9.64219390004e-05,0.0241433507463,-0.00949557002919,-0.00272207778209,-0.00126605719236,-0.000683760481294,0.0,0.0,0.0
1609046873039158106,146,1609046873039158106,0.0209795286715,0.0184231562072,-0.0168833813298,0.999671250224,0.000177112313015,0.0237890445458,-0.00956250318453,-0.00176509801261,-0.00110378189223,-0.000449331130098,0.0,0.0,0.0
1609046873238590956,147,1609046873238590956,0.0214687557345,0.0182998252745,-0.0169738385834,0.999669561202,0.00023731339141,0.0238239794313,-0.00965039343917,-0.00148436507631,-0.00118789079176,-0.00149439799013,0.0,0.0,0.0
1609046873439233065,148,1609046873439233065,0.021249966545,0.0182360320451,-0.0169716929343,0.999670264579,0.000277349353688,0.0237969982584,-0.00964303206221,-0.00123699609779,-0.00207427381183,-0.00122159736997,0.0,0.0,0.0
1609046873638720036,149,1609046873638720036,0.0210631847023,0.0182888625044,-0.0169099743306,0.99967109679,0.000278984104317,0.0237753613329,-0.00961002621075,-0.00192284535314,-0.00176528168467,-0.00019889691089,0.0,0.0,0.0
1609046873839273930,150,1609046873839273930,0.0211715934844,0.0184375294915,-0.0169745274801,0.999671595807,0.000268142659737,0.0237756062276,-0.00955767676532,-0.00189417442952,-0.00116036642536,-0.000669864586692,0.0,0.0,0.0
1609046874038839102,151,1609046874038839102,0.0213517421111,0.018437329516,-0.0169328628858,0.999671796737,0.000253128447619,0.0237570688687,-0.00958313173495,-0.0011313423705,-0.000647825499528,-0.000814787081712,0.0,0.0,0.0
1609046874239298105,152,1609046874239298105,0.0214342017123,0.0182856203559,-0.0169580365668,0.999671960918,0.000234050959889,0.0237496721203,-0.00958482384399,-0.000813806682227,-0.00154709331833,-0.00125363264212,0.0,0.0,0.0
1609046874438916922,153,1609046874438916922,0.021357950933,0.0182232158553,-0.0169556133193,0.999671246338,0.000313948371385,0.0237584748136,-0.00963512091408,-0.000929533170258,-0.00190196904286,-0.00100181747768,0.0,0.0,0.0
1609046874639267921,154,1609046874639267921,0.021287950273,0.0182133454096,-0.0169322964721,0.999671987275,0.000247720894756,0.0237474545848,-0.00958722554029,-0.00216236663198,0.00499135259053,-0.000705687933933,0.0,0.0,0.0
1609046874839672089,155,1609046874839672089,0.0209918696724,0.0183573595634,-0.0169210803333,0.999673811537,0.000151711572677,0.0237398150423,-0.00941640546683,-0.00128501147765,0.000239259147078,-0.00097685925181,0.0,0.0,0.0
1609046875039128065,156,1609046875039128065,0.0214269596404,0.0184008752383,-0.0169179607633,0.99967260037,0.000100212707886,0.0237652336376,-0.00948133417363,-0.000373530468912,-0.00415719666042,-0.00146483372518,0.0,0.0,0.0
1609046875239274025,157,1609046875239274025,0.0213342091435,0.0183839136605,-0.0169050628182,0.999673344172,0.000509324011607,0.0236840728104,-0.00959219664817,-0.00231813849133,-0.00405974634587,-0.000986073521725,0.0,0.0,0.0
1609046875439358950,158,1609046875439358950,0.0205523564664,0.0179061197142,-0.0168810884593,0.999670348803,0.000327879959462,0.0238128995068,-0.00959333290393,-0.0018146654999,0.00139379467046,-0.00179388005086,0.0,0.0,0.0
1609046875639503956,159,1609046875639503956,0.0210880513423,0.0181733631918,-0.0169286592688,0.999674782958,0.000169879900868,0.0236886160297,-0.00944187101772,-0.000851619132012,0.000214979830892,-0.00174694250776,0.0,0.0,0.0
1609046875839330912,160,1609046875839330912,0.0213452275241,0.0183496452835,-0.0169904737289,0.999666125263,0.000453888826842,0.0240569911612,-0.00941770476006,-0.00144946662152,-0.00532665236539,-0.00145366438614,0.0,0.0,0.0
1609046876039448023,161,1609046876039448023,0.0207906195379,0.0179254247095,-0.0168336648494,0.999675558579,0.000401745672476,0.0236065985523,-0.00955744134766,-0.00325300955147,0.000583875818695,0.000526573413031,0.0,0.0,0.0
1609046876239701986,162,1609046876239701986,0.0209562386216,0.0179303817896,-0.0168946862156,0.999672583067,0.000308521966108,0.0237631678819,-0.00948384578227,0.000216497244742,0.00306555968775,-0.00108859083443,0.0,0.0,0.0
1609046876439557076,163,1609046876439557076,0.0207598359514,0.0177223809245,-0.0168477319678,0.99967863907,0.000364400513082,0.0234522724104,-0.00961648157995,-0.0049976094265,-0.00118435674049,2.0605757427e-05,0.0,0.0,0.0
1609046876639560938,164,1609046876639560938,0.0203185427087,0.0176672794831,-0.0167912654037,0.999675001282,0.000416501553633,0.0236762148651,-0.00944220248715,-0.0119187424623,-0.00376140433479,0.00618319248781,0.0,0.0,0.0
1609046876839633942,165,1609046876839633942,0.020558150315,0.0178186606912,-0.0168855074012,0.999669701228,0.000456900116668,0.0239378190899,-0.00934133325886,0.000888328304174,0.00210549078893,-0.0030047579674,0.0,0.0,0.0
1609046877039702892,166,1609046877039702892,0.0197344299215,0.0176389445141,-0.0167822776026,0.999659085549,0.000265682768233,0.0244207627319,-0.00923409119206,-0.00552894815866,-0.00205223488677,0.000709081986794,0.0,0.0,0.0
1609046877239758015,167,1609046877239758015,0.020520076329,0.0177930395471,-0.0168257771287,0.999664181931,0.000503903684716,0.0241441131937,-0.00939847021649,0.00308427714347,0.000211204009449,-0.00315132195335,0.0,0.0,0.0
1609046877439802885,168,1609046877439802885,0.0202100508673,0.0169750751854,-0.0176845344689,0.999720938364,0.000205748727884,0.021315608233,-0.0101807617703,0.0117401317873,-0.00631891397584,-0.0103948760389,0.0,0.0,0.0
1609046877639868975,169,1609046877639868975,0.0212786900178,0.0169430169951,-0.0158738529133,0.999787232744,0.000198285610825,0.0173148449898,-0.0112091956499,-0.00398036541315,-0.00911355805897,0.0159800950811,0.0,0.0,0.0
1609046877839927912,170,1609046877839927912,0.0208197482103,0.0133632345303,-0.00549375290602,0.99969158656,0.000951415383631,0.0175301849395,-0.0175647142521,-0.00529298152389,-0.0122401497428,0.125826604735,0.0,0.0,0.0
1609046878040060997,171,1609046878040060997,0.0174892978327,0.00534640415794,0.0534681987156,0.999438793022,0.0010961982371,0.0168861513772,-0.0289094317296,-0.0356219220489,-0.0760564258044,0.478618258374,0.0,0.0,0.0
1609046878240019083,172,1609046878240019083,0.0118527156026,-0.0196202849412,0.212074963614,0.999298624594,0.000676338608568,0.0122842461924,-0.0353680469651,-0.0234605904881,-0.176311144682,1.07248716195,0.0,0.0,0.0
1609046878440093994,173,1609046878440093994,0.009504408606,-0.0639961470187,0.478179141119,0.999239385104,0.000513519839225,0.0123783626925,-0.0369751766871,-0.0162678262605,-0.284105656757,1.52557241126,0.0,0.0,0.0
1609046878640149117,174,1609046878640149117,0.00699733425701,-0.128458463343,0.782242333412,0.999585220062,0.0011938465867,0.0116091454348,-0.0263285074938,-0.0211894626826,-0.348128404859,1.38437280217,0.0,0.0,0.0
1609046878840203047,175,1609046878840203047,0.0032797999922,-0.201730570115,1.01099751936,0.999852251452,0.00169898966909,0.00802419341223,-0.0151063238357,-0.0159161077636,-0.348233469895,0.874269732425,0.0,0.0,0.0
1609046879040283918,176,1609046879040283918,0.00489398378519,-0.265317972519,1.13652834939,0.999917197259,0.00228689008076,0.0112395253447,-0.00583453771203,-0.00455523538853,-0.318492778723,0.424520663537,0.0,0.0,0.0
1609046879240333080,177,1609046879240333080,0.00587486494406,-0.32624015056,1.190898516,0.999866646332,0.00244138341095,0.0159458901317,0.00254121770183,-0.0139314833152,-0.264221032907,0.133925068293,0.0,0.0,0.0
1609046879440416098,178,1609046879440416098,0.00855893571696,-0.368496699116,1.21282629451,0.999837319064,0.0026270533844,0.0173377127214,0.00422347191546,-0.0329923679461,-0.187833397494,0.102504980343,0.0,0.0,0.0
1609046879640477896,179,1609046879640477896,0.000225316176645,-0.395355604431,1.24357088689,0.9998371512,0.00316702242399,0.0168470769658,0.00564066022619,-0.0602730483335,-0.102590045149,0.24446261175,0.0,0.0,0.0
1609046879840528011,180,1609046879840528011,-0.0135681738026,-0.421793809345,1.33160567017,0.999872812556,0.00280269189321,0.0153750696485,0.00317975819369,-0.089926356787,-0.0388691729424,0.413261587397,0.0,0.0,0.0
1609046880040628910,181,1609046880040628910,-0.0151667527101,-0.393451998068,1.40489727761,0.999946825868,0.00385255947136,0.00904908088332,0.00310118653659,-0.0773703862639,0.0523466915566,0.513290762846,0.0,0.0,0.0
1609046880240685940,182,1609046880240685940,-0.0170296818404,-0.389034826289,1.53514257948,0.999982126387,0.00406383464138,0.00300976361995,-0.00318958906218,-0.0528589286359,0.0992278761055,0.610984281751,0.0,0.0,0.0
1609046880440738916,183,1609046880440738916,-0.0260267352799,-0.367138972606,1.64089284872,0.999897570843,0.0039160495531,-0.000692168407148,-0.013748937475,-0.0160133786381,0.117981282198,0.591930727087,0.0,0.0,0.0
1609046880640769005,184,1609046880640769005,-0.0103539904358,-0.359518937252,1.7735514282,0.999862677709,0.00386502457308,0.000910352506291,-0.0160890822662,0.0277934722757,0.0994882568711,0.598490092135,0.0,0.0,0.0
1609046880840835094,185,1609046880840835094,0.00157870512959,-0.33442362133,1.880313118,0.999868122239,0.00409798048739,0.00293543234614,-0.015437873033,0.0584879360893,0.0922882155342,0.581192082878,0.0,0.0,0.0
1609046881040889025,186,1609046881040889025,-0.00322474061397,-0.294975462268,1.99639285444,0.999830707529,0.00422950836127,0.00245265436505,-0.0177384336035,0.0749736263156,0.0924585053831,0.579075455914,0.0,0.0,0.0
1609046881240948915,187,1609046881240948915,0.0214166945316,-0.285021563129,2.10878723436,0.999755578419,0.00417762361353,0.00316602113962,-0.0214780630142,0.102360531855,0.063253799508,0.59451585238,0.0,0.0,0.0
1609046881441004038,188,1609046881441004038,0.0465675876462,-0.275163459614,2.22585079497,0.999691908137,0.00426819200531,0.00901850147585,-0.0227274717757,0.108837079064,0.0308486549665,0.569366608001,0.0,0.0,0.0
1609046881641038895,189,1609046881641038895,0.0835215095188,-0.268727042034,2.32824034531,0.999672157338,0.00438540162587,0.0115135112724,-0.0224451588284,0.112421256264,-0.010227883917,0.543547028493,0.0,0.0,0.0
1609046881841145992,190,1609046881841145992,0.098410474783,-0.275608030945,2.44001231993,0.999777904413,0.00474249592022,0.0128374704536,-0.01602653839,0.0871154005158,-0.034746025037,0.555139317864,0.0,0.0,0.0
1609046882041138887,191,1609046882041138887,0.116167120954,-0.288389806771,2.5498852978,0.999742374134,0.00523784244001,0.021955590023,-0.00238797689696,0.0653951402791,-0.026431284486,0.651068002036,0.0,0.0,0.0
1609046882241252899,192,1609046882241252899,0.126774575165,-0.281665122746,2.68191089259,0.999370668811,0.00539622062928,0.0349363532775,0.00293229301869,-0.0187498554069,0.0517936449258,0.656107101402,0.0,0.0,0.0
1609046882441339970,193,1609046882441339970,0.109533429824,-0.271820112295,2.81183322742,0.999309192102,0.00494849990676,0.0367514264814,-0.00244613585406,-0.133190374276,0.106409535923,0.606337939291,0.0,0.0,0.0
1609046882641447067,194,1609046882641447067,0.0789965073025,-0.230117761826,2.90469324739,0.99969269366,0.00486524958418,0.014461432196,-0.01953751692,-0.208652886598,0.128734231065,0.399794773968,0.0,0.0,0.0
1609046882841448069,195,1609046882841448069,0.0419165873085,-0.233844284898,2.98099510505,0.999639298175,0.00508055509099,0.000915169498877,-0.0263557198377,-0.194474453382,0.0839904235012,0.261400195307,0.0,0.0,0.0
1609046883041527987,196,1609046883041527987,0.0462513125335,-0.228099867354,3.0065710481,0.999443956244,0.0051429423046,-0.00789514579533,-0.0319842952731,-0.121930657111,0.0333507312018,0.0502651505497,0.0,0.0,0.0
1609046883241569042,197,1609046883241569042,0.0271707959104,-0.231529284664,2.98083337257,0.999462111667,0.00529651488244,-0.00803979350212,-0.0313495772297,-0.0563346753359,-0.0280326207057,-0.0368952260862,0.0,0.0,0.0
1609046883441632986,198,1609046883441632986,0.0208626828237,-0.248264562695,2.92650104064,0.999548858496,0.00555505239893,-0.00506629991154,-0.0290784022611,0.00852057968166,-0.0991460049743,-0.0794675719463,0.0,0.0,0.0
1609046883641663074,199,1609046883641663074,0.0289770666832,-0.264762516367,2.86234335628,0.999817475481,0.00590306880225,0.00506239156602,-0.0174511230045,0.0582408713268,-0.133075906631,-0.0870343908174,0.0,0.0,0.0
1609046883841669083,200,1609046883841669083,0.035363658439,-0.2761574902,2.82565935376,0.999876760107,0.00628233187209,0.0121086449611,-0.00777030379831,0.0748593700638,-0.115574909866,-0.0792221465607,0.0,0.0,0.0
1609046884041786909,201,1609046884041786909,0.0355381390651,-0.286650137902,2.82912701655,0.999848308826,0.00657179916459,0.0161221327236,0.000497624916054,0.061767781595,-0.0665803960454,-0.0707636035973,0.0,0.0,0.0
1609046884241887093,202,1609046884241887093,0.023587291157,-0.298799364843,2.8528927874,0.999865423039,0.00676669147897,0.0142916907317,0.00436981388759,0.036027583525,0.000117214499952,-0.0612428996857,0.0,0.0,0.0
1609046884441939116,203,1609046884441939116,0.021195379748,-0.275831506977,2.87240161867,0.999935730835,0.00679180249738,0.00602856824703,0.00678689786849,0.0498319170048,0.0766461942172,-0.0381341272546,0.0,0.0,0.0
1609046884641985893,204,1609046884641985893,0.0304152392945,-0.276542007233,2.83674917121,0.99993022066,0.00729906913682,0.00372732952609,0.00850790304669,0.0871053043421,0.148638424489,-0.0221380501994,0.0,0.0,0.0
1609046884842015028,205,1609046884842015028,0.0314265501527,-0.248221801943,2.83550795675,0.999954617333,0.00773213732529,0.00281735922347,0.00479998068911,0.122562435126,0.228037832712,-0.0279886255374,0.0,0.0,0.0
1609046885042131901,206,1609046885042131901,0.0507189397866,-0.19958919325,2.8319839814,0.999969331882,0.00757619837669,6.77380685026e-05,-0.00198290835064,0.172299620136,0.285378172667,-0.0222125448809,0.0,0.0,0.0
1609046885242130995,207,1609046885242130995,0.0777332667794,-0.148570707607,2.82510517295,0.999966079347,0.00759767457341,-0.00036402178329,-0.0031595862432,0.224231868866,0.312397318439,0.00260550720771,0.0,0.0,0.0
1609046885442254066,208,1609046885442254066,0.114881604087,-0.0903571722507,2.82257464945,0.999967769471,0.00797381749489,0.000712537299586,-0.000608722734713,0.282838815572,0.355653906743,0.0403887869534,0.0,0.0,0.0
1609046885642262936,209,1609046885642262936,0.166353710239,-0.0179548156961,2.82296791954,0.999948694798,0.00818236034289,0.00302468297199,-0.00514859627901,0.336263628897,0.398686629173,0.0596907186305,0.0,0.0,0.0
1609046885842339039,210,1609046885842339039,0.222942452721,0.0618510601572,2.83105546286,0.9998373247,0.00810652777171,0.0107563666827,-0.0119962043648,0.371086885396,0.419347869754,0.0547838502972,0.0,0.0,0.0
1609046886042395115,211,1609046886042395115,0.292506630178,0.149815836443,2.84114366361,0.999571325396,0.00777663250664,0.0209128973245,-0.0189562696413,0.371667493056,0.424207831364,0.0505340880375,0.0,0.0,0.0
1609046886242422104,212,1609046886242422104,0.356417480273,0.235864252951,2.85153036192,0.999099568755,0.00745840161382,0.0301435073646,-0.0289100834057,0.332767204929,0.378554089036,0.027274552548,0.0,0.0,0.0
1609046886442518950,213,1609046886442518950,0.404503324623,0.314495696263,2.86918545784,0.999014283507,0.00737706598952,0.0344035873137,-0.0270635072802,0.276963329449,0.327861983443,0.0070607863049,0.0,0.0,0.0
1609046886642539024,214,1609046886642539024,0.443779521252,0.370229027385,2.89007677831,0.99921867166,0.00793239810392,0.0345314264306,-0.0175129624785,0.199850866622,0.296427952648,0.00753047950406,0.0,0.0,0.0
1609046886842596054,215,1609046886842596054,0.460273945817,0.43434384356,2.90093188209,0.999232929451,0.00785029722464,0.0349961837538,-0.0157223616977,0.133486551232,0.30348038483,0.0264549845979,0.0,0.0,0.0
1609046887042687893,216,1609046887042687893,0.47317090832,0.484672272955,2.90342072141,0.999228202879,0.00782632939804,0.0353838495198,-0.0151568576117,0.0640648496427,0.313009127376,-0.0112186014829,0.0,0.0,0.0
1609046887242744923,217,1609046887242744923,0.473594137216,0.541446240512,2.90889780538,0.999479924727,0.00817383526988,0.0279902604332,-0.0137700328668,0.00545425567605,0.33510028347,-0.0248139047762,0.0,0.0,0.0
1609046887442811012,218,1609046887442811012,0.462655655241,0.615144633864,2.90543057419,0.999710543986,0.00847141157799,0.0180478993874,-0.0134661337274,-0.0186262061956,0.349197472828,-0.00129213600939,0.0,0.0,0.0
1609046887642887115,219,1609046887642887115,0.464663505104,0.682969208544,2.90507166923,0.999895270315,0.00904321213527,0.00969875103948,-0.00579680467627,0.0107209468551,0.399659856074,0.0130590953718,0.0,0.0,0.0
1609046887842967033,220,1609046887842967033,0.468689125421,0.758436664964,2.90674255737,0.999903420273,0.00918378034551,0.00979810122877,-0.00357847986513,0.0652304531768,0.458057973595,0.0688911463733,0.0,0.0,0.0
1609046888042984009,221,1609046888042984009,0.494049877791,0.876568263008,2.92633715111,0.999774165104,0.00887813766943,0.0178320382024,-0.00740377445333,0.0946239190859,0.536299986646,0.0777559764303,0.0,0.0,0.0
1609046888243010998,222,1609046888243010998,0.515780281061,1.0178569131,2.96446539898,0.999729339773,0.00846744046539,0.0189577147179,-0.0104954609571,0.0915984460616,0.600243118948,0.0796810269447,0.0,0.0,0.0
1609046888443098068,223,1609046888443098068,0.529366932,1.13950748183,2.98567166774,0.999650492269,0.00834787947723,0.0172170860669,-0.0182422082419,0.0934142062758,0.645779584179,0.108621268923,0.0,0.0,0.0
1609046888643129110,224,1609046888643129110,0.540436186262,1.27216501414,3.01094864524,0.999627732584,0.0081087166709,0.0166139015011,-0.020065473833,0.101971144302,0.659713150083,0.101970416421,0.0,0.0,0.0
1609046888843218088,225,1609046888843218088,0.56008100675,1.3997313396,3.03338520302,0.999640577284,0.00830449978015,0.0149267857461,-0.020662589352,0.119158738587,0.677964956736,0.0928439251632,0.0,0.0,0.0
1609046889043267965,226,1609046889043267965,0.589893526351,1.54502009923,3.0492837316,0.99937748409,0.00808493779111,0.0172830271494,-0.029674484792,0.143634769213,0.708909924693,0.0901390566578,0.0,0.0,0.0
1609046889243335962,227,1609046889243335962,0.618704349401,1.6772339103,3.05644196484,0.998906073538,0.00737131717584,0.0200260354127,-0.0416086269644,0.155152880573,0.65283972751,0.0629337646292,0.0,0.0,0.0
1609046889443387985,228,1609046889443387985,0.654785565738,1.784940099,3.05987628343,0.998583560413,0.00737124824671,0.0297192274131,-0.0435121258203,0.150645903272,0.574031699666,0.0874655003942,0.0,0.0,0.0
1609046889643419981,229,1609046889643419981,0.670067723409,1.8919032721,3.07431697671,0.998362803902,0.00732435891089,0.0369388955164,-0.043053264099,0.0973536153172,0.510493763815,0.0432277570288,0.0,0.0,0.0
1609046889843527079,230,1609046889843527079,0.677446288258,1.99082395979,3.08783836153,0.998151250027,0.0070466934344,0.0435871806419,-0.0417682159623,0.0251940586781,0.445540757644,0.0451113038043,0.0,0.0,0.0
1609046890043564081,231,1609046890043564081,0.666117400976,2.07210686609,3.11273340197,0.997684662693,0.00672454126277,0.0501767230192,-0.0454135534783,-0.065455511865,0.380383207938,0.0213488088245,0.0,0.0,0.0
1609046890243627071,232,1609046890243627071,0.644846034345,2.14265558642,3.1184364487,0.997356132561,0.00652023931,0.0553890752158,-0.0465862819779,-0.170443022384,0.306215658267,-0.00296817392519,0.0,0.0,0.0
1609046890443692923,233,1609046890443692923,0.606199458906,2.20959554696,3.12303523686,0.997166836438,0.00612227023423,0.0586286086093,-0.0467279827139,-0.290847937338,0.246095448063,-0.0352495203264,0.0,0.0,0.0
1609046890643733978,234,1609046890643733978,0.524091892371,2.25666924053,3.12398721102,0.99709877564,0.00636517711565,0.0573881070512,-0.0495996099448,-0.423068179449,0.177464863002,-0.0423612331734,0.0,0.0,0.0
1609046890843786955,235,1609046890843786955,0.429939835737,2.29247135835,3.11346225099,0.997089228277,0.00656565083167,0.0545665355259,-0.0528436967305,-0.530358745003,0.0981107775613,-0.0553546024234,0.0,0.0,0.0
1609046891043874979,236,1609046891043874979,0.324989148251,2.31908781584,3.09081936887,0.997196359569,0.00627153970719,0.0541050469204,-0.0513101564004,-0.619202255515,0.0170847055659,-0.0549076605785,0.0,0.0,0.0
1609046891243940115,237,1609046891243940115,0.195105792958,2.31993776019,3.06759636461,0.99723425415,0.00608713118473,0.0538913715237,-0.050818394888,-0.71434047031,-0.056513414379,-0.0900285335234,0.0,0.0,0.0
1609046891443969965,238,1609046891443969965,0.0359644670302,2.30476896782,3.05236044073,0.997412425404,0.00602074939772,0.04907131661,-0.0521939662502,-0.803767492127,-0.122284857641,-0.124988584818,0.0,0.0,0.0
1609046891644047022,239,1609046891644047022,-0.146371135962,2.27029772701,3.0343145945,0.998080205577,0.00694190683664,0.0307297149289,-0.0533235199935,-0.85131410856,-0.199228786928,-0.162519110792,0.0,0.0,0.0
1609046891844105959,240,1609046891844105959,-0.301979401075,2.22702781613,2.98705800332,0.998565010503,0.00822501214344,0.0127872310554,-0.0513493495126,-0.798103520205,-0.267348570953,-0.14177509854,0.0,0.0,0.0
1609046892044157982,241,1609046892044157982,-0.434298180646,2.18096001155,2.93212157036,0.998677471082,0.0088245294107,0.00850664880271,-0.0499306855617,-0.697739075988,-0.332060199284,-0.139337930057,0.0,0.0,0.0
1609046892244210005,242,1609046892244210005,-0.555084148396,2.11040346762,2.88229752029,0.998731204872,0.0093506664119,0.0102390016402,-0.0484118611233,-0.609329145582,-0.397975764236,-0.145024082832,0.0,0.0,0.0
1609046892444273949,243,1609046892444273949,-0.671110765556,2.02774586459,2.849232209,0.998917705285,0.00963709016592,0.0108876636768,-0.0441814818888,-0.539635694492,-0.471221863616,-0.150611260837,0.0,0.0,0.0
1609046892644360065,244,1609046892644360065,-0.776569174209,1.92718243365,2.81519104279,0.999473602316,0.0099711371569,0.0103798478194,-0.0290749627018,-0.473700581404,-0.504186560599,-0.165905519593,0.0,0.0,0.0
1609046892844383001,245,1609046892844383001,-0.865898303713,1.83261787491,2.77718424375,0.999755710728,0.00992278141058,0.0117461287277,-0.0158772080589,-0.406963750682,-0.47753333705,-0.128650059756,0.0,0.0,0.0
1609046893044532061,246,1609046893044532061,-0.936477924023,1.75074650037,2.74225775327,0.999600376368,0.00971025482322,0.0204075929013,-0.016980243453,-0.363094665819,-0.415080397336,-0.0838829801356,0.0,0.0,0.0
1609046893244528055,247,1609046893244528055,-1.00417875494,1.66695797598,2.71123477987,0.999414994422,0.00988862420736,0.0240144798108,-0.0222528378942,-0.361949927321,-0.392842386689,-0.119639744961,0.0,0.0,0.0
1609046893444565058,248,1609046893444565058,-1.08878340107,1.59165713861,2.69425981841,0.999407862527,0.0102219556716,0.0235993573603,-0.0228583961433,-0.368094517048,-0.388733842117,-0.0874027386611,0.0,0.0,0.0
1609046893644666910,249,1609046893644666910,-1.16380778671,1.51929519013,2.67699682105,0.999477984016,0.0101408306148,0.0246203914445,-0.0182964298854,-0.371119643803,-0.37779728228,0.0267181486456,0.0,0.0,0.0
1609046893844666958,250,1609046893844666958,-1.24090151948,1.4419531187,2.68787925439,0.999536608532,0.0104833591623,0.024949698394,-0.0139348460983,-0.378479303391,-0.346786466781,0.0728615031869,0.0,0.0,0.0
1609046894044723034,251,1609046894044723034,-1.32973537569,1.37827509735,2.70441737974,0.999555473142,0.0106302953397,0.0183221579415,-0.0209797869498,-0.390150541042,-0.292046066951,0.00281562970911,0.0,0.0,0.0
1609046894244812965,252,1609046894244812965,-1.4133861813,1.32188659382,2.69618709331,0.999341031114,0.0109675025826,0.0116570778759,-0.0325780593925,-0.350671014211,-0.304553599013,0.00579107405403,0.0,0.0,0.0
1609046894444886923,253,1609046894444886923,-1.47519418712,1.2529527938,2.67715544554,0.999167982617,0.0106138906113,0.0135726642991,-0.0369658034172,-0.291567920572,-0.368776701063,0.0214503593819,0.0,0.0,0.0
1609046894645486116,254,1609046894645486116,-1.56049031675,1.16985233963,2.66940767025,0.999180899974,0.0102202920181,0.0163873745162,-0.0355602125246,-0.280733795312,-0.426727493497,0.0306917053684,0.0,0.0,0.0
1609046894844918013,255,1609046894844918013,-1.62323574415,1.07827698744,2.68193598376,0.999134870808,0.0102507567831,0.0148278438124,-0.0374775528659,-0.256178262253,-0.489094693152,0.0468755889961,0.0,0.0,0.0
1609046895045089960,256,1609046895045089960,-1.68300204881,0.977242209348,2.69045586276,0.99917834309,0.0102675634355,0.0135315598376,-0.0367982707309,-0.233850140572,-0.537264991161,0.0484424536505,0.0,0.0,0.0
1609046895245084047,257,1609046895245084047,-1.72458607213,0.863475158754,2.70172876735,0.999209046677,0.0106166073581,0.00968859625797,-0.0370769441728,-0.187597551933,-0.588821488488,0.0231158820784,0.0,0.0,0.0
1609046895445139885,258,1609046895445139885,-1.78509691554,0.747206408284,2.692919912,0.999175397858,0.0104318582555,0.010491662191,-0.037810391075,-0.148719526788,-0.634162786119,0.0141983321932,0.0,0.0,0.0
1609046895645292997,259,1609046895645292997,-1.81291996743,0.61597659929,2.68794791466,0.999160566161,0.010314436942,0.0109304547957,-0.038109061609,-0.109712742162,-0.689747146247,-0.0317000218782,0.0,0.0,0.0
1609046895845323086,260,1609046895845323086,-1.83492277813,0.474452491985,2.68049099541,0.999217277845,0.0103446743587,0.0110646241808,-0.0365430357278,-0.0658692278661,-0.739024993352,-0.0362713876632,0.0,0.0,0.0
1609046896045360088,261,1609046896045360088,-1.84629988554,0.318863870295,2.66976298801,0.999337791529,0.0105865914605,0.0140144327897,-0.0318668821161,-0.026097402074,-0.79026302761,-0.0121331585345,0.0,0.0,0.0
1609046896245554924,262,1609046896245554924,-1.87682254433,0.153449286182,2.65816174919,0.999426361644,0.0106306158557,0.0229620281311,-0.0225096184401,-0.0208599468762,-0.801888623152,0.0104212759302,0.0,0.0,0.0
1609046896445460081,263,1609046896445460081,-1.87489618567,0.00318478490764,2.67653907181,0.999291247588,0.0106140763764,0.033419361376,-0.0136927046827,-0.0531354216626,-0.758605536723,0.0178375122655,0.0,0.0,0.0
1609046896645503044,264,1609046896645503044,-1.89478715645,-0.159401761395,2.68627328593,0.999352646891,0.0109015837699,0.029050057925,-0.0182081508432,-0.0987841545317,-0.725314692054,0.0283820789435,0.0,0.0,0.0
1609046896845546961,265,1609046896845546961,-1.9228512707,-0.31019973046,2.69407856395,0.999365710697,0.0112612687418,0.0229316520245,-0.0248092612533,-0.120632103025,-0.725649619443,0.0750665650184,0.0,0.0,0.0
1609046897045639038,266,1609046897045639038,-1.94363094877,-0.454115321408,2.69972490135,0.999339968922,0.0112876901974,0.0203890903718,-0.0278657416799,-0.111512662802,-0.736690796105,0.0774765991063,0.0,0.0,0.0
1609046897245692968,267,1609046897245692968,-1.9685931175,-0.614129228906,2.70972772082,0.99928388319,0.0113625834914,0.0211669923197,-0.0292330451479,-0.113858612326,-0.758197368422,0.0791917544965,0.0,0.0,0.0
1609046897445698023,268,1609046897445698023,-1.99650491123,-0.766764568944,2.72934667978,0.999266009437,0.0117541043719,0.0192852003222,-0.0309413067373,-0.116186332615,-0.779513311625,0.0693935112399,0.0,0.0,0.0
1609046897645924091,269,1609046897645924091,-2.02160642633,-0.928548964559,2.73709325577,0.999248995862,0.0119653471077,0.0161720325064,-0.0331170666323,-0.101614346134,-0.807418680156,0.0423505577475,0.0,0.0,0.0
1609046897845854044,270,1609046897845854044,-2.04203355053,-1.09981573475,2.73458572456,0.999266382197,0.012534763005,0.0133429365238,-0.0336384180867,-0.0820961685649,-0.844679193006,-0.00213240053323,0.0,0.0,0.0
1609046898045937061,271,1609046898045937061,-2.05426023111,-1.26910440977,2.72875895653,0.999227375525,0.0128212685371,0.00662560676726,-0.0365563730317,-0.0352433972534,-0.885500136212,-0.0113728974505,0.0,0.0,0.0
1609046898245959997,272,1609046898245959997,-2.05194950122,-1.45630271974,2.72084538832,0.999365703311,0.0132248104743,0.00547570363266,-0.0326084667535,0.0318336627691,-0.936543909099,0.00596738863144,0.0,0.0,0.0
1609046898445998907,273,1609046898445998907,-2.03848332018,-1.65822026295,2.71816647398,0.999776006036,0.0138974454203,0.00680897155517,-0.0144373360432,0.0907020185937,-0.951185762994,0.0274004338697,0.0,0.0,0.0
