%time,field.header.seq,field.header.stamp,field.pose.pose.position.x,field.pose.pose.position.y,field.pose.pose.position.z,field.pose.pose.orientation.x,field.pose.pose.orientation.y,field.pose.pose.orientation.z,field.pose.pose.orientation.w,field.twist.twist.linear.x,field.twist.twist.linear.y,field.twist.twist.linear.z,field.twist.twist.angular.x,field.twist.twist.angular.y,field.twist.twist.angular.z
1609060340116533041,16,1609060340116533041,0.00535619469671,-0.00364038555428,-0.00277308422845,0.999056444191,0.000254008619531,0.0428736870651,-0.00692847436062,0.00312961141597,-0.00754100815049,-0.000217209855195,0.0,0.0,0.0
1609060340316190958,17,1609060340316190958,0.00753884019491,-0.00473821006129,-0.00307810803648,0.999058126482,0.000275443326258,0.0428319078185,-0.00694346553982,0.00343983067173,-0.00649800796081,-0.000588140421634,0.0,0.0,0.0
1609060340516227961,18,1609060340516227961,0.00739394029789,-0.00468607006948,-0.00316115961294,0.999055732479,0.000277567529832,0.0428859726353,-0.00695411453867,0.0032880008516,-0.00606287029331,-0.000635859084817,0.0,0.0,0.0
1609060340716336966,19,1609060340716336966,0.00578427900867,-0.00441220878549,-0.00320621964032,0.999055041309,0.000376982384591,0.0428918937798,-0.00701197317702,0.00168521152506,-0.00620866548671,-0.00173013602669,0.0,0.0,0.0
1609060340916363955,20,1609060340916363955,0.00372500500811,-0.00237967100835,-0.0069724197115,0.999041932736,0.000288501071753,0.0432397807115,-0.0067420149935,-0.00249147601398,-0.00242154299023,-0.00513699694343,0.0,0.0,0.0
1609060341116494894,21,1609060341116494894,0.004646634916,-0.00467918300387,-0.00324023547829,0.999054286585,0.000403290021472,0.0429121606025,-0.00699401790887,0.000488738212702,-0.0062722737872,-0.000574397262192,0.0,0.0,0.0
1609060341316488028,22,1609060341316488028,0.00417711593925,-0.00458069894062,-0.00307460129366,0.999053664268,0.000380393419263,0.042933558866,-0.00695275035732,-0.000460755356223,-0.00546048474785,0.00081277347776,0.0,0.0,0.0
1609060341516521931,23,1609060341516521931,0.00443493828088,-0.00464267342072,-0.00314890656384,0.999053078281,0.000417768068969,0.0429482767881,-0.00694390149173,-0.000380180314015,-0.00459618658193,0.000310857577784,0.0,0.0,0.0
1609060341716586113,24,1609060341716586113,0.00429109145417,-0.00452852799046,-0.00307460156648,0.999053663696,0.000416266664529,0.0429344181315,-0.00694546735857,-0.000662777770734,-0.00508399075493,0.0012426276961,0.0,0.0,0.0
1609060341916635036,25,1609060341916635036,0.0040225244919,-0.00438501072064,-0.00301087309668,0.999053727983,0.000407549427407,0.0429354947752,-0.00693006464237,-0.00132903350015,-0.00358478805225,0.000339966320855,0.0,0.0,0.0
1609060342116858006,26,1609060342116858006,0.00432069909642,-0.00445633820933,-0.00321884420961,0.999053760941,0.000387602088829,0.0429376669064,-0.00691297871173,-0.00133120891761,-0.00309504372656,0.00119673320106,0.0,0.0,0.0
1609060342316764116,27,1609060342316764116,0.0042765929182,-0.00433714737441,-0.00349590369259,0.999052568915,0.00039416106699,0.0429645732215,-0.00691770406561,-0.000862192908947,-0.00358622887767,0.000482254075156,0.0,0.0,0.0
1609060342516808033,28,1609060342516808033,0.00439931471548,-0.00437222020394,-0.00352820087136,0.999053225406,0.000383329694096,0.0429525307029,-0.00689825852709,-0.00161663430898,-0.00386035844658,0.00101484210822,0.0,0.0,0.0
1609060342716845036,29,1609060342716845036,0.00295907176003,-0.00372866627979,-0.00267134201478,0.999053731747,0.000420425895708,0.0429342836052,-0.00693625371104,-0.00145372311139,-0.00516814459645,0.0011698453061,0.0,0.0,0.0
1609060342916896105,30,1609060342916896105,0.00302312447192,-0.00397819312598,-0.00285905300665,0.999053593373,0.000418706159189,0.0429407925503,-0.00691596628254,-0.00133668167129,-0.0055076039796,9.96779106035e-05,0.0,0.0,0.0
1609060343116935015,31,1609060343116935015,0.00500531029431,-0.00498014372669,-0.00347763194573,0.999053610317,0.000437267511502,0.0429400360474,-0.00691706686903,-0.00150605506593,-0.00549266832237,0.000411055550404,0.0,0.0,0.0
1609060343317333937,32,1609060343317333937,0.0052860593732,-0.00497568666669,-0.00344156111665,0.999053416001,0.000444753447987,0.042941674984,-0.00693445899479,-0.00045819850319,-0.00497556652741,0.000597221353626,0.0,0.0,0.0
1609060343517101049,33,1609060343517101049,0.00513754563925,-0.00506573042555,-0.00332236233238,0.999053954751,0.000423201111074,0.0429336979977,-0.00690753025922,-0.000323592597658,-0.00488595518863,0.000141182748864,0.0,0.0,0.0
1609060343717106104,34,1609060343717106104,0.00500003959821,-0.00516315599012,-0.00334509930105,0.999054127625,0.000437269311912,0.0429319070497,-0.00689276641263,-0.000414484243191,-0.00451725689593,-0.000202367818775,0.0,0.0,0.0
1609060343917206049,35,1609060343917206049,0.0048010585117,-0.00511260730252,-0.00359518529026,0.999053000417,0.00047496966786,0.0429521454671,-0.00692747868272,-0.000663386980469,-0.0053659107862,-0.000281441650911,0.0,0.0,0.0
1609060344117228031,36,1609060344117228031,0.00488977718251,-0.00514345160102,-0.0037408643875,0.999052481393,0.000449474578336,0.0429672646524,-0.00691025057561,-0.000681853972408,-0.00613917184572,-0.000230641454935,0.0,0.0,0.0
1609060344317385912,37,1609060344317385912,0.00493237722585,-0.00523812944106,-0.00352786343368,0.999053199239,0.000427551312085,0.0429535522383,-0.00689308634698,-0.0012704062514,-0.00583509715355,0.000911845366745,0.0,0.0,0.0
1609060344517366886,38,1609060344517366886,0.00470736396594,-0.00506538450499,-0.00354914910547,0.999052770094,0.000438155721223,0.0429638427995,-0.00689048614398,-0.00220649106517,-0.00466949329098,0.00196026297571,0.0,0.0,0.0
1609060344717398882,39,1609060344717398882,0.00466994393422,-0.00520958676788,-0.00369591631848,0.999052106982,0.00044265352688,0.0429813470595,-0.00687716488905,-0.00243278789146,-0.00670897890412,0.00155508389953,0.0,0.0,0.0
1609060344917484999,40,1609060344917484999,0.00488439393436,-0.00524384705344,-0.00364795864224,0.999053680175,0.000412442835701,0.0429497347833,-0.00684794147387,-0.00224756992819,-0.00574729702267,0.0021040949469,0.0,0.0,0.0
1609060345117513895,41,1609060345117513895,0.00492572139,-0.00513399781569,-0.0037114142028,0.999053037733,0.000436977090018,0.0429652827956,-0.00684261076222,-0.00304544095898,-0.00518877006562,0.00183915690447,0.0,0.0,0.0
1609060345317605019,42,1609060345317605019,0.00498338909162,-0.00531582860344,-0.00377787935863,0.99905266676,0.000452484346692,0.0429699894019,-0.00686617134423,-0.00260969557426,-0.00547904532006,0.00198139829716,0.0,0.0,0.0
1609060345517961979,43,1609060345517961979,0.00504067101465,-0.00527557678438,-0.00382060467372,0.999053055426,0.000442468991857,0.0429590795827,-0.0068785279092,-0.00252634197568,-0.00481196675088,0.00147271799131,0.0,0.0,0.0
1609060345717725039,44,1609060345717725039,0.00510420298001,-0.00515107230776,-0.00380869703288,0.999053362235,0.000443777185385,0.0429463889651,-0.00691304162235,-0.00280076039556,-0.00410047621034,0.00165304442792,0.0,0.0,0.0
1609060345917821884,45,1609060345917821884,0.00516353866786,-0.00501810603743,-0.00362549444207,0.999053985286,0.000416413226339,0.0429375441926,-0.00687956275908,-0.0024671731447,-0.00357864193922,0.00181862692643,0.0,0.0,0.0
1609060346117862940,46,1609060346117862940,0.00523635259785,-0.00526864368443,-0.00372966968091,0.999053667163,0.000453239775439,0.0429376045937,-0.00692291937572,-0.00327857040345,-0.00400225290603,0.00189617324528,0.0,0.0,0.0
1609060346318169117,47,1609060346318169117,0.00478695445052,-0.00552409410416,-0.00380799194281,0.99905339186,0.000441231870485,0.0429495767866,-0.00688907698762,-0.00423550066673,-0.00448762087199,0.00180866387182,0.0,0.0,0.0
1609060346518079996,48,1609060346518079996,0.00477695873119,-0.00546539776211,-0.00380923788727,0.999053889895,0.000438290906467,0.04294019454,-0.00687551308445,-0.00371898663094,-0.00510042004322,0.00156838587692,0.0,0.0,0.0
1609060346718019009,49,1609060346718019009,0.00494713647075,-0.0052567656262,-0.00365701916073,0.999054221488,0.00045093829411,0.0429286179641,-0.00689876382512,-0.00223381847176,-0.00443597901477,0.00247309867074,0.0,0.0,0.0
1609060346918071985,50,1609060346918071985,0.00513748018796,-0.0053332395374,-0.00364364086648,0.99905497786,0.00045563882544,0.042909350538,-0.00690878011666,-0.00261324087634,-0.00331639897489,0.00290842855152,0.0,0.0,0.0
1609060347118237019,51,1609060347118237019,0.00536343551097,-0.00552783670275,-0.00374569587575,0.99905461666,0.000455369341527,0.0429149187115,-0.00692642201833,-0.00304986537485,-0.00313252768954,0.0028882768182,0.0,0.0,0.0
1609060347318164110,52,1609060347318164110,0.00534177358382,-0.00552967267978,-0.00402151880553,0.999053873787,0.000464173001241,0.0429371352362,-0.00689523253577,-0.00435867243716,-0.00176312207146,0.00224922877142,0.0,0.0,0.0
1609060347518258095,53,1609060347518258095,0.00532899987213,-0.00524774598733,-0.00410552426309,0.999054271666,0.000465187698537,0.0429308247745,-0.00687678345221,-0.0053159827161,-0.00248347027678,0.00310100461545,0.0,0.0,0.0
1609060347718700886,54,1609060347718700886,0.00546983434673,-0.00539143975561,-0.00393590548955,0.999054936205,0.000443405401417,0.0429134547099,-0.00689008285127,-0.00471126606048,-0.00413073593851,0.00409916390129,0.0,0.0,0.0
1609060347918411016,55,1609060347918411016,0.00576305998729,-0.00575727881021,-0.00398652975122,0.999054920048,0.000430440669748,0.0429150073328,-0.00688357419357,-0.00395181000131,-0.00342083590445,0.00374555823041,0.0,0.0,0.0
1609060348118429899,56,1609060348118429899,0.00551598898894,-0.00581030401098,-0.00399764889272,0.9990543573,0.0004681652917,0.0429234287417,-0.00691022760359,-0.00415289226467,-0.00468401974365,0.00307635787313,0.0,0.0,0.0
1609060348318468094,57,1609060348318468094,0.00544024864736,-0.00579084700701,-0.00393504880606,0.999054885377,0.000446622522242,0.0429194343637,-0.00685993344782,-0.00436440887004,-0.00438373673905,0.00313441850981,0.0,0.0,0.0
1609060348518610001,58,1609060348518610001,0.0057809990919,-0.00581879169411,-0.00385700674101,0.999055664907,0.000447834129425,0.0428946087865,-0.00690147808498,-0.00341905650044,-0.00592472449343,0.00383320887565,0.0,0.0,0.0
1609060348718641043,59,1609060348718641043,0.00591007622517,-0.00573040590363,-0.00382015225246,0.999056129572,0.000415033694367,0.0428896632743,-0.00686691310423,-0.00339117441025,-0.00517101758872,0.00368035723827,0.0,0.0,0.0
1609060348918777943,60,1609060348918777943,0.00558779687714,-0.00558899522624,-0.00389480767387,0.999055467536,0.00042690870821,0.0429060225435,-0.00686030359473,-0.00496541706396,-0.00411875297658,0.00381992224658,0.0,0.0,0.0
1609060349118766069,61,1609060349118766069,0.00560553769006,-0.005692745926,-0.00382064010169,0.999055722896,0.000429387784338,0.0428978204611,-0.00687423992506,-0.00551498263026,-0.00372642259056,0.00413035949577,0.0,0.0,0.0
1609060349319300890,62,1609060349319300890,0.00550156640152,-0.00589267654084,-0.00333453896697,0.999057521098,0.000414378185966,0.0428565091894,-0.00687149542165,-0.00479465415402,-0.00569530447731,0.0038198188025,0.0,0.0,0.0
1609060349518939018,63,1609060349518939018,0.00518547385963,-0.00590158655492,-0.00274929620063,0.999058227392,0.000416367074583,0.0428411498565,-0.00686445900005,-0.00312420130634,-0.00530872651356,0.00343700635453,0.0,0.0,0.0
1609060349718938112,64,1609060349718938112,0.00462940133927,-0.00571060223245,-0.00246501229275,0.999058505037,0.000424400218228,0.0428350541667,-0.00686159842492,-0.00280787528499,-0.00492925631579,0.00373073886371,0.0,0.0,0.0
1609060349919078112,65,1609060349919078112,0.00435679731014,-0.00568783486124,-0.00235343384317,0.999058202445,0.000427056607031,0.042842775935,-0.00685728080789,-0.00259407661133,-0.00490576044024,0.00368379387878,0.0,0.0,0.0
1609060350119517088,66,1609060350119517088,0.00475796580232,-0.00556777143529,-0.00254042967213,0.999057948326,0.00040266633929,0.042846848964,-0.00687031874905,-0.0025234965482,-0.00487696925296,0.00311490264673,0.0,0.0,0.0
1609060350319128036,67,1609060350319128036,0.00417507798501,-0.0051740792512,-0.0026814714003,0.999058938742,0.000379959975837,0.0428306939699,-0.00682819193086,-0.00257187870861,-0.00489048514254,0.00126543597207,0.0,0.0,0.0
1609060350519186974,68,1609060350519186974,0.00419461191857,-0.0053542552356,-0.00256473459524,0.999059857611,0.000393384197333,0.0428086580259,-0.00683117535865,-0.00206586471478,-0.0045331811586,0.00197345700986,0.0,0.0,0.0
1609060350719187021,69,1609060350719187021,0.00444515710228,-0.0053167730895,-0.00262969873187,0.999058576901,0.000404975742814,0.0428353740083,-0.00685030275861,-0.00186151194833,-0.00398271295608,0.00247985752098,0.0,0.0,0.0
1609060350920073986,70,1609060350920073986,0.00504377562975,-0.00554608685426,-0.00307935807099,0.999057061435,0.000427018628176,0.0428649425533,-0.00688493656533,-0.00201970330291,-0.00473530320432,0.00284211031641,0.0,0.0,0.0
1609060351119343996,71,1609060351119343996,0.00310970296696,-0.00457539000095,-0.00311205073808,0.999054802797,0.000455138223316,0.0429059371838,-0.00695517162431,-0.000151088142581,-0.00581581919523,-0.00106074836687,0.0,0.0,0.0
1609060351320033073,72,1609060351320033073,0.00345797732097,-0.00441519462055,-0.0026195553657,0.999057824049,0.000413615029558,0.0428365317344,-0.00695159542404,2.45955751075e-05,-0.00364718604901,0.000561351106632,0.0,0.0,0.0
1609060351519428015,73,1609060351519428015,0.00306425528164,-0.0043925894015,-0.00279209474115,0.999055710192,0.000438909540927,0.0428860990879,-0.00694822248913,0.000863748992473,-0.00537006881916,-0.000468868933371,0.0,0.0,0.0
1609060351719558001,74,1609060351719558001,0.00274597175517,-0.0044485945115,-0.00304762430351,0.999055096105,0.000449114030156,0.0429039286374,-0.00692575992037,-0.000744725585445,-0.0028686664454,-0.000671591113243,0.0,0.0,0.0
1609060351919581890,75,1609060351919581890,0.00310640867256,-0.0043793543807,-0.00270136839779,0.999056784703,0.000430574504874,0.0428621028963,-0.0069423108201,0.000454410609211,-0.00276393592843,0.00115721616067,0.0,0.0,0.0
1609060352119793892,76,1609060352119793892,0.0028462202521,-0.00499935550573,-0.0031775958092,0.999055830983,0.000452891316075,0.0428778821539,-0.00698059390294,-0.00185436276513,-0.00698414962675,-0.00197029189774,0.0,0.0,0.0
1609060352320327997,77,1609060352320327997,0.00257146862182,-0.00423052534174,-0.00320502961294,0.999053880287,0.00041264804398,0.0429319105657,-0.00693001161672,0.00131398050258,-0.0028333177315,0.000492562929377,0.0,0.0,0.0
1609060352519785881,78,1609060352519785881,0.00266859484744,-0.00416820472614,-0.0031841587614,0.999053415597,0.000438457545719,0.042941847439,-0.00693385007935,-0.000393544142836,-0.00331395448905,0.000149672399819,0.0,0.0,0.0
1609060352719862938,79,1609060352719862938,0.00335807559546,-0.00447112965211,-0.00304084316566,0.999054842417,0.000446915226981,0.0429022432661,-0.00697277797981,0.000582895729738,-0.0035033748881,0.000161420271205,0.0,0.0,0.0
1609060352919869900,80,1609060352919869900,0.00235670857306,-0.00533019024206,-0.00355279712364,0.999052680932,0.000562838653048,0.0429432131392,-0.00702170787308,-0.000860244136512,-0.00651722889915,-0.00100637469309,0.0,0.0,0.0
1609060353119998932,81,1609060353119998932,0.00211486624324,-0.00586950215601,-0.00397859348826,0.999048498112,0.000665227067102,0.0430353336908,-0.00704385876699,0.000491325019691,-0.00600022862735,2.30295280406e-05,0.0,0.0,0.0
1609060353320854902,82,1609060353320854902,0.0025056527712,-0.00509556147992,-0.00358753908027,0.99905119659,0.000542529867851,0.0429879397955,-0.00696055216787,0.000680519522177,-0.00359978763647,-0.000205827373372,0.0,0.0,0.0
1609060353520035982,83,1609060353520035982,0.00234311648551,-0.00491829231677,-0.00337943315484,0.999051396774,0.000534658927625,0.0429827210657,-0.00696465597966,-0.000616300105206,-0.00434082242807,0.000558397503701,0.0,0.0,0.0
1609060353720159054,84,1609060353720159054,0.00254830873878,-0.00492329696912,-0.00356381873188,0.999050923378,0.000533133358527,0.0429958983959,-0.00695132990769,0.000223141832956,-0.00434287086317,-0.000914297146687,0.0,0.0,0.0
1609060353920160055,85,1609060353920160055,0.00381647989466,-0.00554229219466,-0.00394824162793,0.999051571349,0.000550051187597,0.0429727698873,-0.00699973411811,-0.000108295834039,-0.00410556587741,-0.00128973763028,0.0,0.0,0.0
1609060354120219946,86,1609060354120219946,0.00414883954005,-0.00590983346481,-0.00412286245799,0.999051377102,0.0005827320019,0.0429754188813,-0.00700854523381,-0.000504727843646,-0.00561841502797,-0.00105326381245,0.0,0.0,0.0
1609060354320306063,87,1609060354320306063,0.00334127214881,-0.00570522589398,-0.00453264664968,0.999046892722,0.000656131322771,0.0430837142446,-0.00697633146412,-0.000500163491856,-0.00513776625358,-0.000853419677742,0.0,0.0,0.0
1609060354520303965,88,1609060354520303965,0.00371017055567,-0.00515591687453,-0.00397259028987,0.99905315719,0.00054958860203,0.0429462234671,-0.00693606165558,0.000152185695744,-0.00425905013495,-0.000353724852056,0.0,0.0,0.0
1609060354720402956,89,1609060354720402956,0.00373971258568,-0.00512107653523,-0.00388754084911,0.999053948736,0.00053862893025,0.0429286141205,-0.00693191775012,-0.000201365613888,-0.00349142040551,-0.000539335402459,0.0,0.0,0.0
1609060354920523882,90,1609060354920523882,0.00348453440741,-0.00513357927789,-0.00393041563823,0.999053244455,0.000555261599003,0.0429358033765,-0.00698736129333,-0.000155447853133,-0.00389597497614,-0.000131005291349,0.0,0.0,0.0
1609060355120701075,91,1609060355120701075,0.00374611128454,-0.00580425239562,-0.00440894290636,0.99905236466,0.000626269774563,0.0429484970939,-0.00702901491753,0.000380826521972,-0.00572383198699,-0.00097385409639,0.0,0.0,0.0
1609060355320672989,92,1609060355320672989,0.00401555445926,-0.00565059837465,-0.00419704129838,0.999054225999,0.000585488824923,0.0429072107959,-0.00702011233761,0.00171500613075,-0.00586001553146,-0.00104861690109,0.0,0.0,0.0
1609060355520648956,93,1609060355520648956,0.00380023997614,-0.0051444681995,-0.00373388864283,0.999055275331,0.000523067985139,0.0428933756708,-0.00695999690528,-0.000553018064491,-0.00315171173093,0.000127509582837,0.0,0.0,0.0
1609060355721254110,94,1609060355721254110,0.00374356166858,-0.00515716705308,-0.0036334845608,0.999054962873,0.00053741399537,0.0428964044122,-0.00698504360529,-0.000607480634655,-0.00406644467559,0.000183751190591,0.0,0.0,0.0
1609060355921186924,95,1609060355921186924,0.00398614418463,-0.00533359393027,-0.0037653683746,0.999055436703,0.000546976428917,0.0428834241418,-0.00699622354424,-7.70872105759e-05,-0.00443530829492,-9.37744332426e-05,0.0,0.0,0.0
1609060356121057987,96,1609060356121057987,0.00418338059012,-0.0053163805004,-0.00375904431227,0.999055539995,0.000552755821065,0.0428790527885,-0.00700780272855,-6.17239688777e-05,-0.00434603629117,-0.000288539840411,0.0,0.0,0.0
1609060356321525097,97,1609060356321525097,0.00400827816124,-0.00524163921339,-0.00375675990145,0.999054476309,0.000557082804918,0.0429043611904,-0.00700419985387,0.000132919692253,-0.00373797462736,-0.000370223502292,0.0,0.0,0.0
1609060356521030903,98,1609060356521030903,0.00396244748836,-0.00520075454606,-0.00371642805417,0.999054929768,0.00056616738513,0.0428917056321,-0.00701629169829,-0.000708395628975,-0.00304016155982,0.000505338282501,0.0,0.0,0.0
1609060356721173048,99,1609060356721173048,0.00441189467666,-0.00543757711753,-0.00380862015987,0.999055528626,0.000538663406678,0.0428815278417,-0.00699536512771,-0.000410896495385,-0.00392143804056,0.000375751846297,0.0,0.0,0.0
1609060356921557903,100,1609060356921557903,0.00424323865933,-0.00555275025062,-0.00373800683657,0.999054705441,0.000571951713643,0.0429009707482,-0.00699107405206,-0.000682186007274,-0.00472863405285,0.000860899757976,0.0,0.0,0.0
1609060357121232033,101,1609060357121232033,0.00393187351323,-0.00621660196805,-0.00444630319546,0.999050411484,0.000702544455016,0.0430009792206,-0.00697836168155,-0.000992458841488,-0.00351719083739,-0.000103539671217,0.0,0.0,0.0
1609060357321197987,102,1609060357321197987,0.00449363550414,-0.00592452369819,-0.00407506204288,0.999054106352,0.000613886029064,0.0429065424729,-0.00703877384901,0.00110905151756,-0.00484540548442,-0.00128738873854,0.0,0.0,0.0
1609060357521296024,103,1609060357521296024,0.00400968766527,-0.00564441672533,-0.0039997166629,0.999053169718,0.00060894600193,0.042935639623,-0.00699457731726,-0.000879081499331,-0.00230611518577,3.59950373606e-05,0.0,0.0,0.0
1609060357721334934,104,1609060357721334934,0.00209770449183,-0.0035769575733,-0.00292812999854,0.999054460135,0.000447681115,0.0429143019311,-0.00695326936181,0.000556020025943,-0.00519478391579,-0.000332772919719,0.0,0.0,0.0
1609060357921338081,105,1609060357921338081,0.00408392998564,-0.005380722603,-0.00381997337281,0.99905397104,0.000573443040562,0.0429179687847,-0.00699157112638,0.000633720105198,-0.00452954918137,-0.000641833204802,0.0,0.0,0.0
1609060358121408939,106,1609060358121408939,0.00424144263076,-0.00551028348821,-0.00380938596262,0.999054012945,0.000595076708847,0.0429147043566,-0.0070038026942,0.000516204879115,-0.00533158665844,1.85378864036e-05,0.0,0.0,0.0
1609060358321532965,107,1609060358321532965,0.00405501182456,-0.0058289248143,-0.00421198424515,0.999051695262,0.000617895515697,0.0429730745568,-0.00697447213075,-0.00107628347492,-0.00363191240067,-0.000487357119903,0.0,0.0,0.0
1609060358521579981,108,1609060358521579981,0.00427434068969,-0.00577905489209,-0.00410541777539,0.999051945786,0.000600381085767,0.042959908323,-0.00702107115545,0.000619428882749,-0.00449718718157,-0.000269502283732,0.0,0.0,0.0
1609060358721623898,109,1609060358721623898,0.00423507167027,-0.0054434935167,-0.00382481164472,0.99905374213,0.000560633908084,0.0429214107924,-0.00700417880783,-0.000137541949056,-0.00414921382698,-2.48274276193e-05,0.0,0.0,0.0
1609060358921660900,110,1609060358921660900,0.00474566629146,-0.00567477036765,-0.00387058988106,0.999054360793,0.000560257432459,0.0429049321305,-0.00701691469067,-3.94291447207e-05,-0.00405120724798,2.70176308695e-05,0.0,0.0,0.0
1609060359121718884,111,1609060359121718884,0.00468725041513,-0.00554650297722,-0.00378878987853,0.999056189584,0.000548505334292,0.0428642088761,-0.0070063395037,-0.00110221306829,-0.00327595124443,-1.36338220545e-05,0.0,0.0,0.0
1609060359321795940,112,1609060359321795940,0.00462177958499,-0.00552074219816,-0.00488404815234,0.999050312289,0.000569864707792,0.0430354077587,-0.00678987835657,-0.00104933601506,-0.0031062130566,0.000229588811531,0.0,0.0,0.0
1609060359521934986,113,1609060359521934986,0.00488817390548,-0.0060238890652,-0.00417781477679,0.999054574726,0.000630455637159,0.0428907045264,-0.00706729860042,-0.000457726845766,-0.00446564936786,0.000142757929658,0.0,0.0,0.0
1609060359721874952,114,1609060359721874952,0.00549616484136,-0.00548359979744,-0.00453012000115,0.999054625594,0.000612265334378,0.0428911388863,-0.00705906611664,-0.00051642400101,-0.00460883756816,-0.000205320787673,0.0,0.0,0.0
1609060359921967983,115,1609060359921967983,0.00585575424856,-0.00580066071598,-0.00468751376107,0.999055668349,0.000628309721301,0.0428663788099,-0.0070604769583,0.000460515539049,-0.00509950869709,-0.00126930392839,0.0,0.0,0.0
1609060360122003078,116,1609060360122003078,0.00601558797887,-0.00584751469694,-0.00472379495681,0.999056521133,0.000609726174544,0.0428498427571,-0.00704178887363,0.00030728080258,-0.00483247092001,-0.00115017076687,0.0,0.0,0.0
1609060360322117090,117,1609060360322117090,0.00583265099623,-0.00565228282757,-0.00461845515241,0.999055244607,0.000631492266074,0.0428765439289,-0.00705842916613,-0.000299048051788,-0.0044659445288,-0.000267621862613,0.0,0.0,0.0
1609060360522152901,118,1609060360522152901,0.00588631073537,-0.00569248869024,-0.00463989120201,0.999055374531,0.000639177202468,0.0428715030459,-0.00706995762022,-5.41770829328e-07,-0.00430227192809,3.98257808534e-05,0.0,0.0,0.0
1609060360722239017,119,1609060360722239017,0.0060871476992,-0.00587882334492,-0.00467435612692,0.999055955914,0.000618628001178,0.0428628049276,-0.0070423154183,0.000630324576746,-0.00547462807497,-1.86250705181e-05,0.0,0.0,0.0
1609060360922288895,120,1609060360922288895,0.00618834649109,-0.00599375819086,-0.00483865769442,0.999055709117,0.000656609703687,0.0428709143929,-0.00702450310721,0.000703876903575,-0.00607767603312,-0.000799342507194,0.0,0.0,0.0
1609060361122297049,121,1609060361122297049,0.00585755149055,-0.00570603607244,-0.004926608256,0.999055264566,0.000574724927411,0.0428966394701,-0.0069373162889,0.000281408763977,-0.00610907422745,-0.00102663031534,0.0,0.0,0.0
1609060361322382927,122,1609060361322382927,0.00565758518061,-0.00553833947859,-0.00480550523887,0.99905477788,0.00060487866661,0.0428980799352,-0.00699568824649,-0.000118719616335,-0.00628319445476,-0.000835890063326,0.0,0.0,0.0
1609060361522484064,123,1609060361522484064,0.00579057305794,-0.00557396763374,-0.00481186733932,0.999055585607,0.000562544917893,0.0428905916123,-0.0069294705399,0.000340904451396,-0.00539896527835,-0.000526920495552,0.0,0.0,0.0
1609060361722554922,124,1609060361722554922,0.00604037466476,-0.00564355746033,-0.00481757245566,0.999056864523,0.000576702839057,0.0428581930386,-0.00694436116907,0.00101610824617,-0.00440722281098,-0.00142223844013,0.0,0.0,0.0
1609060361922501087,125,1609060361922501087,0.00608756543716,-0.00572910555821,-0.00485644400572,0.999055521621,0.000621288320127,0.0428810502118,-0.006992442515,0.000960963352098,-0.0052608738105,-0.000798111086592,0.0,0.0,0.0
1609060362122584105,126,1609060362122584105,0.00612442507392,-0.0057485702826,-0.00484361670801,0.999056009047,0.000592764354959,0.0428723595662,-0.00697855311682,0.00117801157083,-0.00418322699931,-0.00105888054654,0.0,0.0,0.0
1609060362322663069,127,1609060362322663069,0.00188253877364,-0.00274694603573,-0.00251591311408,0.999059180633,0.000392234698324,0.0428089336383,-0.0069278384411,0.000531632319485,-0.00334513759838,-0.000448510905174,0.0,0.0,0.0
1609060362522744894,128,1609060362522744894,0.00167636653288,-0.00261767631578,-0.00282704884896,0.999056921244,0.000345805179845,0.0428556886158,-0.00696695681042,0.000482554629221,-0.00364483641743,-0.000711292960163,0.0,0.0,0.0
1609060362722852945,129,1609060362722852945,0.00158295193605,-0.00266812224787,-0.00344353849173,0.999056177642,0.000379834101264,0.0428735315447,-0.00696203527502,-0.000159260015628,-0.00249112242703,-0.000256409196726,0.0,0.0,0.0
1609060362922883987,130,1609060362922883987,0.00109995075766,-0.00345395685461,-0.00796527291324,0.999040479332,0.0004538539428,0.043258003672,-0.00683079723325,-0.00435164972594,-0.00181475335916,-0.00412755427814,0.0,0.0,0.0
1609060363122911930,131,1609060363122911930,0.00206962934066,-0.00359209345652,-0.00425118934501,0.999054304441,0.000459530765845,0.0429081145044,-0.00701279677212,-0.000445893099578,-0.00378745073327,4.79509499627e-06,0.0,0.0,0.0
1609060363322871923,132,1609060363322871923,0.001673706905,-0.00382870921535,-0.004293157859,0.999052770513,0.000466364898687,0.0429383911629,-0.00704548067385,-0.000409513019624,-0.00430064185322,4.36630688776e-05,0.0,0.0,0.0
1609060363523005962,133,1609060363523005962,0.00173858607156,-0.00393222050841,-0.00428269173168,0.999052454697,0.000458029762896,0.0429494876921,-0.0070231388862,-0.000585522518963,-0.00485811128341,-0.00074999271455,0.0,0.0,0.0
1609060363723171949,134,1609060363723171949,0.000959504168906,-0.00344126822106,-0.0043102051156,0.999052275966,0.000380726135818,0.0429575404935,-0.00700390246378,-0.000825983801849,-0.00497083172303,4.10011595964e-05,0.0,0.0,0.0
1609060363923180103,135,1609060363923180103,9.25957463582e-05,-0.00303421983521,-0.0070942452887,0.999039212021,0.000357877749193,0.0432891953324,-0.00682424609565,-0.00332213076647,-0.00403338897649,-0.00417729324641,0.0,0.0,0.0
1609060364123276949,136,1609060364123276949,0.000594008389095,-0.00304634986318,-0.00423350966931,0.999052762101,0.000337991812465,0.0429517726488,-0.00697205325143,-0.00134492929968,-0.00520833639082,-0.000996400873736,0.0,0.0,0.0
1609060364323317051,137,1609060364323317051,0.000663200431846,-0.00257317343536,-0.00464163592038,0.999051467263,0.000324165262715,0.0429791706034,-0.00698938988497,-0.00137891807566,-0.0043613054335,-0.000101565723286,0.0,0.0,0.0
1609060364523319006,138,1609060364523319006,0.000781471579392,-0.00268036517597,-0.00433627830001,0.999053595466,0.00031957523423,0.0429275659284,-0.00700252400636,-0.000873967018879,-0.00440055590014,0.0009011528071,0.0,0.0,0.0
1609060364723428011,139,1609060364723428011,0.000596591778969,-0.00272499350009,-0.00416120504408,0.999053784974,0.000352542893324,0.0429204103927,-0.00701774995197,-0.00173352244037,-0.00434756036578,0.00163858389298,0.0,0.0,0.0
1609060364923496008,140,1609060364923496008,0.000555809592326,-0.00262455325911,-0.00412339173024,0.999053567559,0.000336691879096,0.0429269759598,-0.00700931676156,-0.00167139987835,-0.00393689180354,0.001943913805,0.0,0.0,0.0
1609060365123522043,141,1609060365123522043,0.000389980289331,-0.00270487431906,-0.00414225759487,0.999053638437,0.000318799300494,0.0429190653799,-0.00704838424243,-0.00222201427977,-0.00383093739024,0.00282767128879,0.0,0.0,0.0
1609060365323574066,142,1609060365323574066,0.000437758633216,-0.00274193745694,-0.00393974918412,0.999054977212,0.00038236120629,0.042889313677,-0.00703655318601,-0.000347901905295,-0.00360966617486,0.00223038950216,0.0,0.0,0.0
1609060365523603916,143,1609060365523603916,6.98533076624e-05,-0.00275268195099,-0.00417596481429,0.999056743324,0.000137491429845,0.0428531447826,-0.00701517624735,-0.00445617992566,-0.00390240790851,0.00333488104417,0.0,0.0,0.0
1609060365723664999,144,1609060365723664999,0.000164516324813,-0.0015802367763,-0.00686869700874,0.999043634625,0.00108222862979,0.0431757076811,-0.00681932281639,-0.00186537537712,-0.00916845970814,-0.00394162266406,0.0,0.0,0.0
1609060365923810959,145,1609060365923810959,-0.000527767649663,-0.00152026649661,-0.00417082977795,0.999067126805,0.000725849706381,0.0426932526795,-0.00645255424052,-0.00724265359179,-0.005090625344,0.0057833886724,0.0,0.0,0.0
1609060366123886108,146,1609060366123886108,-0.000292581739334,-0.00395917131428,-0.00423953518772,0.999051156227,-1.98506204381e-05,0.0429000331821,-0.00750826211255,0.00199912976891,0.0102872856398,0.00019784781998,0.0,0.0,0.0
1609060366323863029,147,1609060366323863029,0.00172365855977,-0.00321162734856,-0.00482692607088,0.99908634594,1.51997757478e-05,0.0423211128656,-0.00594949834476,0.00147646092509,0.00613394472325,-0.000624351962944,0.0,0.0,0.0
1609060366523926973,148,1609060366523926973,0.00111856580917,-0.00271414748111,-0.00425042362455,0.999072523009,0.00019506795217,0.0425161126792,-0.00681438772792,0.019592040923,-0.00298571249722,-0.0151972937522,0.0,0.0,0.0
1609060366724025011,149,1609060366724025011,0.0011387455805,-0.00309427113537,-0.00412011054714,0.999086787143,0.000225704008833,0.0421209903362,-0.00716679754916,0.0357142423434,-0.00644876386249,-0.0100452419565,0.0,0.0,0.0
1609060366924107075,150,1609060366924107075,0.00106670125981,-0.00289171334332,-0.00465240934343,0.999045249468,0.000925383602915,0.0430505897652,-0.00737427290844,-0.0281811273289,0.0028980425932,0.00918777040956,0.0,0.0,0.0
1609060367124135971,151,1609060367124135971,0.00147917219984,-0.002642422298,-0.0049855252517,0.999055962775,0.000286865167264,0.0429382698809,-0.00658831776537,-0.00180119929818,0.00170701004346,-0.00933244028715,0.0,0.0,0.0
1609060367324210882,152,1609060367324210882,0.00198832231694,-0.0024607707146,-0.00473443847924,0.999081524692,0.00046117716834,0.042360345039,-0.0064417002923,0.00993791604294,0.00110855429525,0.00265164254056,0.0,0.0,0.0
1609060367524241924,153,1609060367524241924,0.000899733725436,-0.00291942815023,-0.0047962272306,0.999011783152,0.00084884519224,0.0439086267567,-0.00683879236977,0.00277861719054,-0.000978449056357,-0.0108359979846,0.0,0.0,0.0
1609060367724328995,154,1609060367724328995,0.00124236975386,-0.00276862310349,-0.00450921056079,0.999030268125,0.000385729436559,0.0435412012607,-0.00652214502666,0.005543250727,0.00165015625082,0.00193724630672,0.0,0.0,0.0
1609060367924370050,155,1609060367924370050,0.00108618936109,-0.00263372371973,-0.00516038521036,0.999024960618,0.000579323839485,0.0436451961816,-0.00662489969443,0.00138422377992,-0.00264922283686,-0.010488261447,0.0,0.0,0.0
1609060368124428988,156,1609060368124428988,0.00565946629214,-0.00158466213649,-0.00640721500263,0.999307365344,0.000925805679759,0.0366489727898,-0.00638633276375,0.0332284887644,0.00879376225498,-0.0295968073416,0.0,0.0,0.0
1609060368324497938,157,1609060368324497938,0.00652564958222,-0.00218835204245,-0.00815599002738,0.999449902808,0.00104522956208,0.0324188722041,-0.00691491117483,-0.000931309131389,0.00244474881362,0.00959983724297,0.0,0.0,0.0
1609060368524523020,158,1609060368524523020,0.00453700919143,-0.0026553916375,-0.00583620422183,0.99940067766,0.0015524145428,0.0337699153988,-0.00744770540574,-0.0245880040055,-0.00843203568429,0.014191733772,0.0,0.0,0.0
1609060368724621058,159,1609060368724621058,-0.00162869007823,-0.00263287279749,0.0053650488877,0.999676879031,0.00217382091283,0.022883066281,-0.0108525255767,-0.076700289259,-0.00478125094127,0.168615101977,0.0,0.0,0.0
1609060368924639940,160,1609060368924639940,-0.0186219967216,-0.00524120867687,0.0845832525878,0.999868548676,0.00329532163848,0.0107186782211,-0.0117105149925,-0.078031833418,-0.0313663331508,0.634348238652,0.0,0.0,0.0
1609060369124746084,161,1609060369124746084,-0.0333650091445,-0.013111232475,0.256093181199,0.999886479964,0.00312008244343,0.00507416478184,-0.0138399827843,-0.0431764282442,-0.0589579844626,1.08869992571,0.0,0.0,0.0
1609060369324817896,162,1609060369324817896,-0.0373996225518,-0.0277554203288,0.514451427786,0.999883983761,0.00258814092081,0.00360879971747,-0.0145704189515,0.0138044618336,-0.0864145777185,1.46872795386,0.0,0.0,0.0
1609060369524969101,163,1609060369524969101,-0.0338150925095,-0.0493879042765,0.83379176821,0.999961096959,0.0016794846778,0.00418296277692,-0.0075819998297,0.0555586771876,-0.121864298119,1.64402891162,0.0,0.0,0.0
1609060369724920034,164,1609060369724920034,-0.0120347445123,-0.0718347011878,1.14849666569,0.999875668703,0.00194235976763,0.00377533346724,0.015186218443,0.106162856186,-0.100993053725,1.51792283659,0.0,0.0,0.0
1609060369924894094,165,1609060369924894094,0.0118446488039,-0.081599531472,1.43328710017,0.999018099944,0.00248011500517,0.00324768446505,0.0441150491255,0.147824877112,0.044999685077,1.32917608576,0.0,0.0,0.0
1609060370124962091,166,1609060370124962091,0.0497110983733,-0.0512581463813,1.69391095425,0.999027863277,0.00240013504228,0.00257904346474,0.0439421925023,0.197698551536,0.274152597624,1.25432313401,0.0,0.0,0.0
1609060370325088978,167,1609060370325088978,0.0901729578969,0.0123664777254,1.95352164172,0.999986215043,0.00172374717761,0.00449189230909,0.00210269444364,0.237238024734,0.394523125541,1.26936831298,0.0,0.0,0.0
1609060370525131941,168,1609060370525131941,0.153620879193,0.106695240682,2.19765043348,0.999664610811,0.00200379920523,0.0117131979826,-0.0230098169068,0.275225580528,0.358411013721,1.29334018501,0.0,0.0,0.0
1609060370725148916,169,1609060370725148916,0.206684488415,0.166136816188,2.4614890228,0.999512600455,0.00247099686465,0.0178129242812,-0.0255177474417,0.261086404576,0.269894025952,1.25328279837,0.0,0.0,0.0
1609060370925211906,170,1609060370925211906,0.28596312878,0.192949851881,2.71052558717,0.999640711015,0.00876305402678,0.0188220217664,-0.0169525591631,0.253031109275,0.235426986504,0.982259598138,0.0,0.0,0.0
1609060371125257015,171,1609060371125257015,0.335564996694,0.196234041287,2.90172342325,0.999441446682,0.0257147760425,0.0185035917642,-0.0106377647764,0.204519788032,0.18395847959,0.797069550255,0.0,0.0,0.0
1609060371325351000,172,1609060371325351000,0.406122807116,0.278887560562,3.02002634333,0.998862831766,0.0433498097924,0.0184748928571,-0.00724676761125,0.18868507678,0.196785191176,0.663387819211,0.0,0.0,0.0
1609060371525443077,173,1609060371525443077,0.442085158782,0.346775112117,3.14335165167,0.998528370285,0.0508897844794,0.0176627983455,-0.00627288823908,0.145853874359,0.182887878753,0.603813615452,0.0,0.0,0.0
1609060371725544930,174,1609060371725544930,0.475505521138,0.454413830979,3.25946758275,0.998520669355,0.0525611947863,0.0129663716117,-0.00506624917897,0.117505613336,0.218888515836,0.600060155078,0.0,0.0,0.0
1609060371925508022,175,1609060371925508022,0.500839309521,0.50887950156,3.37364043183,0.998566317447,0.0528017005045,0.0070032379222,-0.00531457839624,0.103113520164,0.227253622183,0.568518657067,0.0,0.0,0.0
1609060372125586987,176,1609060372125586987,0.512553381797,0.556379213924,3.52241709265,0.998526558611,0.0531028862815,0.00430534377456,-0.010308211898,0.110855380972,0.214631750164,0.842700144207,0.0,0.0,0.0
1609060372325666904,177,1609060372325666904,0.551178699696,0.584108011876,3.65304809435,0.998379161888,0.0525704925635,-0.0208778319664,-0.00628558292587,0.132741695698,0.190591221874,0.521797858052,0.0,0.0,0.0
1609060372525809050,178,1609060372525809050,0.577643951627,0.601669289192,3.72453758731,0.998185015244,0.0520597498725,-0.0301021296568,-0.00321240954883,0.234264832762,0.182545316201,0.222838722356,0.0,0.0,0.0
1609060372726111889,179,1609060372726111889,0.646835909616,0.635798216113,3.74007233102,0.997545271513,0.0521465097698,-0.0466467275607,-0.00287325765661,0.38736209269,0.194042150779,0.0471086173329,0.0,0.0,0.0
1609060372925806999,180,1609060372925806999,0.715641786926,0.6466795174,3.70087356342,0.996487039872,0.0520668310578,-0.065487114882,-0.00374996727132,0.617384813961,0.193566587453,-0.0100193620369,0.0,0.0,0.0
1609060373125886917,181,1609060373125886917,0.815844299557,0.639881218984,3.56482595119,0.997187180088,0.0523640829617,-0.0534030449557,-0.0048831827627,0.890802802695,0.199182455394,-0.0230963098912,0.0,0.0,0.0
1609060373325948000,182,1609060373325948000,0.959311723853,0.661182570496,3.49769658862,0.998359314731,0.0532000244991,-0.0201277127115,-0.00658112940631,1.05529742408,0.206787240337,-0.039487528508,0.0,0.0,0.0
1609060373526104927,183,1609060373526104927,1.1740271069,0.71188648471,3.52494409104,0.99854170552,0.0534620325804,0.00286080389446,-0.00693463851552,1.12057917476,0.224288335408,-0.0647463248109,0.0,0.0,0.0
1609060373726109028,184,1609060373726109028,1.38743753725,0.750098701913,3.5142651539,0.998351773259,0.0539582997544,0.0171759201437,-0.00933951200664,1.15396096518,0.217674684137,0.027021840684,0.0,0.0,0.0
1609060373926177025,185,1609060373926177025,1.6095414258,0.790719509007,3.53561430813,0.997505020306,0.0542509109795,0.0423816470224,-0.0156323100697,1.08096052946,0.205164697132,-0.0156478105074,0.0,0.0,0.0
1609060374126704931,186,1609060374126704931,1.80286102151,0.827349330704,3.5486000596,0.996960566137,0.0545912242278,0.0531479385733,-0.0162703543578,0.945440301158,0.170473391359,-0.0398105366323,0.0,0.0,0.0
1609060374326210022,187,1609060374326210022,1.98800125803,0.863144158016,3.5761556664,0.997166676857,0.054746789235,0.048926040463,-0.0163600183061,0.807507940742,0.130709767684,-0.0325889008078,0.0,0.0,0.0
1609060374526266098,188,1609060374526266098,2.1499785498,0.88823057164,3.60425856998,0.997515847324,0.0547281676815,0.0424684885356,-0.0127823894975,0.696189357421,0.118528712115,0.00578569012715,0.0,0.0,0.0
1609060374726830006,189,1609060374726830006,2.29838197824,0.914595802497,3.61925718873,0.99807312999,0.0549382156919,0.0273282500528,-0.00921880670121,0.593128902761,0.112698105498,-0.0809413417946,0.0,0.0,0.0
1609060374926455021,190,1609060374926455021,2.4235126697,0.942001317338,3.62919964064,0.998399782067,0.0549675417753,0.00780740337081,-0.0107465795384,0.597384233879,0.124303417266,0.00735402067731,0.0,0.0,0.0
1609060375126951933,191,1609060375126951933,2.52118836825,0.962775418185,3.6130080803,0.998422260589,0.05522870766,0.0022820476417,-0.00987783723376,0.63508060466,0.12711615159,0.061910726803,0.0,0.0,0.0
1609060375326508045,192,1609060375326508045,2.64181520097,0.993616458576,3.61275823645,0.998302767436,0.0551119051648,0.0121816530341,-0.0143481625147,0.612873831943,0.145160437409,-0.0179495870932,0.0,0.0,0.0
1609060375526555061,193,1609060375526555061,2.77363875734,1.02072802599,3.61839542666,0.998276960512,0.0550761610497,0.0105986822573,-0.017245130581,0.605687443832,0.144762945008,-0.00889900290988,0.0,0.0,0.0
1609060375726672888,194,1609060375726672888,2.89334752731,1.04788610626,3.6115057197,0.998254348158,0.0551821217747,0.00811098002514,-0.0194268325608,0.600213133532,0.126230068517,-0.026427251988,0.0,0.0,0.0
1609060375926697969,195,1609060375926697969,3.01188225507,1.07381112982,3.60201403608,0.998253047361,0.0551930257531,0.0105960651118,-0.0182292826516,0.59116210662,0.112513438272,-0.0317451701661,0.0,0.0,0.0
1609060376126769066,196,1609060376126769066,3.14363625185,1.0968806849,3.58234333849,0.998168170451,0.0548256152253,0.0175132127954,-0.0186478629305,0.57405786858,0.108605992171,-0.0617068053754,0.0,0.0,0.0
1609060376326797962,197,1609060376326797962,3.25426880267,1.11774462282,3.56237720517,0.998118405293,0.0545913173989,0.0217584848634,-0.0174930104827,0.525713429598,0.102900255237,-0.0971481177544,0.0,0.0,0.0
1609060376526889086,198,1609060376526889086,3.36204635724,1.14187839682,3.54701979215,0.997971960098,0.053942592775,0.028250269568,-0.0185495501801,0.466547398307,0.105564756652,-0.103904408876,0.0,0.0,0.0
1609060376726908922,199,1609060376726908922,3.46858261609,1.16816891373,3.52527835774,0.997905525046,0.0535088967424,0.031637422513,-0.0179006856848,0.397985194335,0.113126367734,-0.0970218861761,0.0,0.0,0.0
1609060376926990032,200,1609060376926990032,3.55334123163,1.19491739804,3.50851969236,0.997816930327,0.0532624162023,0.0330844769937,-0.0207341736303,0.320243314158,0.114652689585,-0.13270834036,0.0,0.0,0.0
1609060377127110958,201,1609060377127110958,3.63082363833,1.21989314446,3.48977249008,0.997796911539,0.0532472925007,0.0324757202732,-0.0226136409361,0.244187341425,0.104764612484,-0.142307568259,0.0,0.0,0.0
1609060377327256918,202,1609060377327256918,3.6926877765,1.24499295683,3.47303942836,0.997900405166,0.0532672291559,0.0282202060447,-0.02368551539,0.178140591146,0.104006873144,-0.152122950651,0.0,0.0,0.0
1609060377527175903,203,1609060377527175903,3.73525896919,1.27074959677,3.44762064426,0.998048774966,0.054307605504,0.0211897462713,-0.0223678659178,0.13228926032,0.111243739478,-0.208043231636,0.0,0.0,0.0
1609060377727200031,204,1609060377727200031,3.7622480845,1.28805314491,3.40214092144,0.997473152385,0.0662212522418,0.016235559368,-0.0199615288421,0.103953746089,0.151910829269,-0.186454926388,0.0,0.0,0.0
1609060377927303076,205,1609060377927303076,3.81565698426,1.3335297243,3.36020388849,0.996230955596,0.0839450448269,0.016000452625,-0.0148693670914,0.10076030377,0.169003712309,-0.176264049746,0.0,0.0,0.0
1609060378127314091,206,1609060378127314091,3.84589226513,1.38564310507,3.33323679916,0.995146565195,0.0967455634226,0.0179838640547,-0.000436316739853,0.0856946573622,0.226086799079,-0.185123866499,0.0,0.0,0.0
1609060378327514887,207,1609060378327514887,3.86583650449,1.44362235826,3.30428776176,0.994817033554,0.0996304700034,0.0188804090866,0.00750795244981,0.0589378936789,0.328022870936,-0.177366553728,0.0,0.0,0.0
1609060378527493954,208,1609060378527493954,3.87792855207,1.52775733996,3.27522260392,0.994832148963,0.0992879153794,0.0202118383025,0.0065105177181,0.0255420891658,0.467598101053,-0.135352983346,0.0,0.0,0.0
1609060378727504015,209,1609060378727504015,3.87914851648,1.63539482086,3.24795225852,0.994823068889,0.099692928528,0.0194995942814,-0.00285437041574,-0.00718180266933,0.570401280422,-0.0820780083658,0.0,0.0,0.0
1609060378927615881,210,1609060378927615881,3.88581871392,1.75727439299,3.2696084431,0.994665604975,0.100343821896,0.0222068220277,-0.00884922274799,-0.0335654611872,0.628647606859,0.18059380348,0.0,0.0,0.0
1609060379127697945,211,1609060379127697945,3.88901336925,1.88262462148,3.3173433219,0.99458433625,0.100943146026,0.0214183944192,-0.0123988603297,-0.0601329116152,0.65555430398,0.279842829267,0.0,0.0,0.0
1609060379327764034,212,1609060379327764034,3.8906977617,2.01278799688,3.36654644499,0.994379855911,0.103387244599,0.019671730997,-0.0115240102585,-0.0838594928795,0.706222840143,0.245600070485,0.0,0.0,0.0
1609060379527909994,213,1609060379527909994,3.87462707905,2.14960695503,3.40387044898,0.992358319196,0.121082106534,0.0194719355495,-0.01359902665,-0.11877131834,0.74577208724,0.196882035971,0.0,0.0,0.0
1609060379727816105,214,1609060379727816105,3.86932052599,2.31055361502,3.43409421938,0.988246449812,0.150522773372,0.0209478484507,-0.0165238244736,-0.156394560959,0.786055125346,0.148181246284,0.0,0.0,0.0
1609060379927886009,215,1609060379927886009,3.84066977054,2.46816322752,3.45879762036,0.981780923366,0.187916359629,0.0234367709859,-0.015632596215,-0.198820631773,0.766483676737,0.10996914258,0.0,0.0,0.0
1609060380127948046,216,1609060380127948046,3.79905859308,2.62515422884,3.47765140988,0.975461512935,0.218329158327,0.0254342842329,-0.01266146088,-0.242251695767,0.734019813485,0.100364224879,0.0,0.0,0.0
1609060380328035116,217,1609060380328035116,3.74340615233,2.78025318586,3.4942669333,0.970813682127,0.238167959284,0.026840333396,-0.00874152559208,-0.302336928889,0.726077665651,0.0765840215174,0.0,0.0,0.0
1609060380528085947,218,1609060380528085947,3.68233832962,2.94398762889,3.50146492688,0.966338254065,0.255762314267,0.0269423615355,-0.00708000610474,-0.364036743463,0.746794272507,0.0683175518758,0.0,0.0,0.0
1609060380728174925,219,1609060380728174925,3.61306699834,3.11004303219,3.51270476815,0.962369588691,0.270328407505,0.026864082663,-0.00675632452576,-0.420483073273,0.764641361714,0.0662697714197,0.0,0.0,0.0
1609060380928164005,220,1609060380928164005,3.5300423493,3.26769635839,3.52107138055,0.958194545366,0.284646806046,0.0274186541545,-0.00936089967359,-0.470563746922,0.762986566299,0.087313025399,0.0,0.0,0.0
1609060381128273010,221,1609060381128273010,3.44432820205,3.42317744064,3.53133451576,0.952314911687,0.303793453673,0.0262986593791,-0.0106877031677,-0.532231628929,0.766064925617,0.0933370726717,0.0,0.0,0.0
1609060381328386068,222,1609060381328386068,3.35336334013,3.57356392783,3.54097224323,0.944794293002,0.326634047359,0.0230158771539,-0.0120088473388,-0.549352040247,0.730272311708,0.0950034535376,0.0,0.0,0.0
1609060381528426886,223,1609060381528426886,3.25650219859,3.70593815815,3.55324151824,0.936051671402,0.35100769971,0.0191554904921,-0.0152947832376,-0.561039208544,0.686196013204,0.0963997903654,0.0,0.0,0.0
1609060381728629112,224,1609060381728629112,3.15767902067,3.82864263075,3.56875300274,0.926534507328,0.375420227601,0.0183127265424,-0.0160655994362,-0.560400335995,0.627247440945,0.0763558963503,0.0,0.0,0.0
1609060381928570986,225,1609060381928570986,3.06901228286,3.96325671163,3.56949382603,0.914775487342,0.403156645057,0.0192488531381,-0.0167334681961,-0.553555686724,0.587955399233,0.0539165838276,0.0,0.0,0.0
1609060382128588915,226,1609060382128588915,2.96596929313,4.09068924326,3.57119098293,0.901828518133,0.431253404849,0.0225992308555,-0.0146662692056,-0.564364626034,0.547848505376,0.014119347753,0.0,0.0,0.0
1609060382328603029,227,1609060382328603029,2.84803802832,4.2094519408,3.56843622151,0.88794703536,0.458988138685,0.0248135868263,-0.0162553637731,-0.591281556764,0.496311642798,-0.00187954726632,0.0,0.0,0.0
1609060382528670073,228,1609060382528670073,2.71554914083,4.32017712622,3.56958453758,0.874525630161,0.483751203882,0.0273592374743,-0.0210039772327,-0.619373628402,0.433293194604,-0.0170038519651,0.0,0.0,0.0
1609060382728782892,229,1609060382728782892,2.57876548232,4.41658457493,3.5694667334,0.862035366945,0.505595037413,0.0304707520455,-0.0184449870975,-0.65322001757,0.355433148501,-0.00907243857449,0.0,0.0,0.0
1609060382928786039,230,1609060382928786039,2.43621641639,4.49677556122,3.57134894376,0.849208665752,0.526858125491,0.0321735079637,-0.0151665092059,-0.703595009648,0.290170125062,0.00850968492238,0.0,0.0,0.0
1609060383128866911,231,1609060383128866911,2.28584210718,4.56418266243,3.57329241363,0.836748143607,0.546445754544,0.0344613789848,-0.00787368212525,-0.757168680732,0.238670327867,0.0202152942144,0.0,0.0,0.0
1609060383328911066,232,1609060383328911066,2.12222875182,4.61544577609,3.57972371621,0.823661105504,0.565731519953,0.0381180318132,-0.00878898528939,-0.836187923981,0.184510673088,0.0535076513041,0.0,0.0,0.0
1609060383529103994,233,1609060383529103994,1.94802677928,4.66319225601,3.58936099011,0.811326256918,0.583356809427,0.0367160174023,-0.00982200577284,-0.901600207291,0.123820447985,0.0364770919028,0.0,0.0,0.0
1609060383729110956,234,1609060383729110956,1.76074898983,4.68586794705,3.59515075239,0.79924589297,0.599979106455,0.0342838978759,-0.00746248844807,-0.965572952824,0.0562016259291,-0.0145796842171,0.0,0.0,0.0
1609060383929182053,235,1609060383929182053,1.56004601202,4.69364267786,3.59795680532,0.787279991161,0.615900320751,0.0283384680742,-0.00734449754178,-1.01228108479,0.0106127926615,-0.00118897210271,0.0,0.0,0.0
1609060384129128933,236,1609060384129128933,1.35493168991,4.69201427716,3.60350018098,0.774318546177,0.632249428629,0.0239505535651,-0.0108544934756,-1.04286268754,-0.0296146635165,0.0574270454891,0.0,0.0,0.0
1609060384329176903,237,1609060384329176903,1.14452886233,4.67864402593,3.61744825632,0.760606801319,0.648709608446,0.0231729383236,-0.0107774127448,-1.05664769816,-0.075582612566,0.0528877654138,0.0,0.0,0.0
1609060384529220104,238,1609060384529220104,0.931525204319,4.66453122045,3.62638203322,0.745736572215,0.665741972421,0.0223587689042,-0.0128326330574,-1.07061375866,-0.114128788157,0.0501474980919,0.0,0.0,0.0
1609060384729321957,239,1609060384729321957,0.71159468522,4.64287601788,3.6312311668,0.730251345192,0.682731987954,0.0190399123668,-0.0157317260971,-1.07263056969,-0.157046073113,0.0286209726653,0.0,0.0,0.0
1609060384929452896,240,1609060384929452896,0.498186410635,4.61425774096,3.63583912073,0.714892123951,0.698806454437,0.0161274051589,-0.0184037265958,-1.05590209816,-0.194314496274,0.0520004758601,0.0,0.0,0.0
1609060385129487991,241,1609060385129487991,0.28883346081,4.57637654906,3.64532860729,0.698586073715,0.714944630274,0.0166208837415,-0.0235673392052,-1.01996401728,-0.23837646377,0.0539218947252,0.0,0.0,0.0
1609060385329431057,242,1609060385329431057,0.0952862061271,4.52405550351,3.64165897599,0.682114199022,0.730818698589,0.0157088499831,-0.0194288784567,-0.975897454037,-0.286529457645,-0.0355739918647,0.0,0.0,0.0
1609060385529493093,243,1609060385529493093,-0.0987482703505,4.46355921113,3.63581016345,0.665090206995,0.746441619922,0.0152477858585,-0.0157298961643,-0.948979613868,-0.318753536471,-0.0358985333187,0.0,0.0,0.0
1609060385729661942,244,1609060385729661942,-0.281609714583,4.39616472232,3.62664619215,0.647884868602,0.761471856067,0.0145369021538,-0.0139458929884,-0.923075132893,-0.346398039046,-0.047161813512,0.0,0.0,0.0
1609060385929743052,245,1609060385929743052,-0.467422294986,4.32204386345,3.61830489523,0.630745399056,0.77569047216,0.016770347214,-0.013538405548,-0.903936044876,-0.376780456084,-0.0478326664903,0.0,0.0,0.0
1609060386129764080,246,1609060386129764080,-0.643092643952,4.24196902292,3.60889356303,0.61348377671,0.789427433912,0.0175357477351,-0.0115965448552,-0.901043535267,-0.410357805661,-0.0382814101083,0.0,0.0,0.0
1609060386329739094,247,1609060386329739094,-0.825437981108,4.15896915937,3.59723321461,0.596340119048,0.802422849617,0.0176775108882,-0.0135476358036,-0.891521714122,-0.441316309425,-0.0422975665645,0.0,0.0,0.0
1609060386529808998,248,1609060386529808998,-0.99706848146,4.07077998764,3.58890337779,0.578734929578,0.815157532881,0.0197057023632,-0.0139915391323,-0.871794606601,-0.480829505364,-0.0411617061473,0.0,0.0,0.0
1609060386729878902,249,1609060386729878902,-1.16372007701,3.9752427917,3.58400719365,0.559725715663,0.828266415367,0.0229130650734,-0.0125243702109,-0.874332655278,-0.532982458185,-0.0306612295085,0.0,0.0,0.0
1609060386929964066,250,1609060386929964066,-1.32878615762,3.86998961973,3.5786029226,0.538905063165,0.842019954363,0.0217292824093,-0.0105625581573,-0.864666654321,-0.571257329852,-0.0189712791326,0.0,0.0,0.0
1609060387129945993,251,1609060387129945993,-1.49459183741,3.75668666691,3.5776123952,0.51712161363,0.855462064286,0.0234726035041,-0.014796289011,-0.86230319256,-0.627639980971,-0.00661368977378,0.0,0.0,0.0
1609060387330254078,252,1609060387330254078,-1.65848098081,3.63310659823,3.57318855491,0.494495009879,0.868701046177,0.0219384124596,-0.018758561662,-0.839884893106,-0.689343657756,-0.0281597991242,0.0,0.0,0.0
1609060387530152082,253,1609060387530152082,-1.82509870447,3.49707845488,3.57150189983,0.470393915001,0.881742936788,0.0197425138656,-0.0294820504878,-0.806648482337,-0.756590923064,0.0176478646106,0.0,0.0,0.0
1609060387730180025,254,1609060387730180025,-1.98214689836,3.34640222509,3.57281344783,0.446446698816,0.893867484915,0.0145820929144,-0.0383878508664,-0.708973600593,-0.83041128972,-0.0400038131735,0.0,0.0,0.0
1609060387930203915,255,1609060387930203915,-2.12300968812,3.17462155309,3.56732131369,0.422959927793,0.905305526536,0.0112952067964,-0.0374061680622,-0.605834034324,-0.905972068658,-0.0579473918886,0.0,0.0,0.0
1609060388130321980,256,1609060388130321980,-2.24613877852,2.98509964768,3.56064268651,0.399371166642,0.916242832407,0.00480288318989,-0.0312837918409,-0.505906775322,-0.962350057821,-0.0721839199597,0.0,0.0,0.0
1609060388330404043,257,1609060388330404043,-2.35550196161,2.79265300057,3.54539957028,0.374039614834,0.927125511113,0.00322787277026,-0.0228524400366,-0.443933279548,-0.988647881758,-0.0720029421321,0.0,0.0,0.0
1609060388530405998,258,1609060388530405998,-2.43911638438,2.59447159709,3.5323188654,0.345383450755,0.938241700407,-0.00163231516498,-0.020251397697,-0.38440109667,-0.99895026795,-0.0117658788977,0.0,0.0,0.0
1609060388730480909,259,1609060388730480909,-2.51620154329,2.39833723702,3.52879688343,0.317825604427,0.947946158287,-0.00121721774788,-0.0195827613294,-0.304438748211,-0.978697633197,0.00902951166465,0.0,0.0,0.0
1609060388930584908,260,1609060388930584908,-2.57901235392,2.20794366894,3.52249229399,0.29469218406,0.955496719193,-0.000450075179088,-0.0135030995556,-0.258580787733,-0.958371475313,0.0193757517847,0.0,0.0,0.0
1609060389130601883,261,1609060389130601883,-2.62932125881,2.02178137988,3.51933140425,0.273319738332,0.961833758825,7.67938125729e-05,-0.0131200276425,-0.223664289738,-0.943099936819,0.046694972202,0.0,0.0,0.0
1609060389330656052,262,1609060389330656052,-2.67398997064,1.83909342754,3.52419131763,0.252736938295,0.967409214916,0.000332163216801,-0.0155993777115,-0.178971145537,-0.923109185727,0.0300914443472,0.0,0.0,0.0
1609060389530791998,263,1609060389530791998,-2.71048934383,1.66170034795,3.5274648249,0.233123062696,0.972324436109,0.00630630925894,-0.0141088287471,-0.132748580317,-0.918856536982,0.00785387215218,0.0,0.0,0.0
1609060389730742931,264,1609060389730742931,-2.73555305532,1.4887200288,3.52677553023,0.213156414202,0.976906636986,0.00750303883253,-0.0127070888272,-0.104665169085,-0.935776772273,0.0135579231151,0.0,0.0,0.0
1609060389930850029,265,1609060389930850029,-2.75703038078,1.31282335428,3.52540203627,0.192904736409,0.981136698779,0.00252381010711,-0.0123357757453,-0.0777406043218,-0.941694685568,0.00402192550701,0.0,0.0,0.0
1609060390130927086,266,1609060390130927086,-2.76988708871,1.12929926139,3.52098517424,0.171415710979,0.985131718155,0.00137339847688,-0.0114133996475,-0.0504837633493,-0.938893794444,-0.0407814550584,0.0,0.0,0.0
1609060390330966949,267,1609060390330966949,-2.77055739585,0.941395352949,3.5109804813,0.150143824248,0.988605760912,-4.04318617219e-05,-0.0107461573429,-0.0243438394664,-0.930847184715,-0.0599574479575,0.0,0.0,0.0
1609060390531054974,268,1609060390531054974,-2.77132282614,0.756894697815,3.49131551735,0.128105725484,0.991695387036,0.000407769991362,-0.0113585277586,-0.00886401025804,-0.936655577408,-0.101511559555,0.0,0.0,0.0
1609060390731034040,269,1609060390731034040,-2.7710461521,0.572641614741,3.46525251949,0.106564161898,0.994205126,-0.00111351548086,-0.0141069811878,0.0149742968508,-0.926917348248,-0.12553900025,0.0,0.0,0.0
1609060390931121111,270,1609060390931121111,-2.77030908219,0.390933403607,3.44257599729,0.0845114944702,0.996275498835,-0.0037198916538,-0.0167062901105,0.0432971966009,-0.923281798068,-0.0998268882514,0.0,0.0,0.0
1609060391131242990,271,1609060391131242990,-2.75774521538,0.208742290399,3.42611709325,0.0622961409502,0.997839620444,-0.00623692424512,-0.0199093814953,0.0880966131464,-0.905160457251,-0.0675914004588,0.0,0.0,0.0
1609060391331268072,272,1609060391331268072,-2.73444555295,0.0274345835175,3.42170869106,0.0400888588277,0.998936339351,-0.00561791127838,-0.0220796828711,0.148056087939,-0.876352781607,-0.0298406470438,0.0,0.0,0.0
1609060391531316996,273,1609060391531316996,-2.69119953415,-0.152979159265,3.42105555216,0.0182920182876,0.999456550226,0.00139163917127,-0.0273873988728,0.222565807327,-0.882162189639,-0.00200388636503,0.0,0.0,0.0
1609060391731429100,274,1609060391731429100,-2.63506939069,-0.333074135797,3.42287959343,-0.00423807801193,0.999712231191,-0.00443224414844,-0.0231915655613,0.307099857605,-0.875137102694,-0.013990894907,0.0,0.0,0.0
1609060391931488037,275,1609060391931488037,-2.56394127749,-0.508899964399,3.42446951792,-0.0281788936563,0.999466875038,-0.00543781489816,-0.0155674604134,0.355277222197,-0.874153350182,0.00987075605038,0.0,0.0,0.0
1609060392131505966,276,1609060392131505966,-2.4845533148,-0.687834915848,3.42761663674,-0.0576576966937,0.998207883223,-0.00963188716943,-0.0127999466086,0.384518257657,-0.874131894069,0.0300009760231,0.0,0.0,0.0
1609060392331526041,277,1609060392331526041,-2.40635814521,-0.858188335842,3.43174078595,-0.0891806962381,0.995857222138,-0.0114544489876,-0.0135643699797,0.407137807356,-0.834931608336,0.0344572284144,0.0,0.0,0.0
1609060392531666040,278,1609060392531666040,-2.32173014573,-1.020389133,3.43663608239,-0.120357350418,0.992580362277,-0.0106494569338,-0.0135985914862,0.432166904125,-0.800211058258,0.0274789319138,0.0,0.0,0.0
1609060392731718063,279,1609060392731718063,-2.23285913425,-1.17546797083,3.44620131668,-0.151502616063,0.988287384979,-0.0137917804356,-0.0120328221691,0.455991896577,-0.758520713306,0.100469121158,0.0,0.0,0.0
1609060392931745052,280,1609060392931745052,-2.13892117685,-1.32270736202,3.4676392623,-0.182596149959,0.982973123462,-0.016028650931,-0.0128672810471,0.476356948043,-0.709288306816,0.107548507748,0.0,0.0,0.0
1609060393131808043,281,1609060393131808043,-2.04331956207,-1.46286735347,3.48667511036,-0.214227312495,0.976503355616,-0.0192546607918,-0.013308384169,0.491080883684,-0.652884026872,0.0963723386745,0.0,0.0,0.0
1609060393331862926,282,1609060393331862926,-1.9423543458,-1.5921450235,3.50174703931,-0.24551862465,0.969090964476,-0.0208745715317,-0.012147418838,0.504460704591,-0.596960113388,0.079071644783,0.0,0.0,0.0
1609060393532017946,283,1609060393532017946,-1.83935661749,-1.70730435645,3.51416167666,-0.277017088176,0.960458376918,-0.0261298811169,-0.00992312350823,0.502806492651,-0.518734054301,0.0797176457074,0.0,0.0,0.0
1609060393732032061,284,1609060393732032061,-1.73945692047,-1.81846743494,3.52699724824,-0.30840852065,0.95094250927,-0.0213455736391,-0.0117002111246,0.495979434377,-0.460179442745,0.0730870183687,0.0,0.0,0.0
1609060393932142973,285,1609060393932142973,-1.63510886698,-1.9182977727,3.53721703424,-0.339089999501,0.940602190526,-0.0105831547431,-0.0131714939171,0.509373841154,-0.425936282026,0.0427326904238,0.0,0.0,0.0
1609060394132087946,286,1609060394132087946,-1.52648546856,-2.00346391402,3.54778829607,-0.369436742292,0.929125133474,-0.00577748975252,-0.0144775828019,0.536697795529,-0.413483186332,0.0345737777547,0.0,0.0,0.0
